% program   : rnx2rtkp ver.2.4.3 b31
% inp file  : ngs/21_08_31_17_48_17_mtei.obs
% inp file  : ngs/21_08_31_17_48_17_mtei_P1.obs
% inp file  : ngs/21_08_31_17_48_17_brdc.nav
% obs start : 2021/08/31 17:00:00.0 GPST (week2173 234000.0s)
% obs end   : 2021/08/31 17:59:59.0 GPST (week2173 237599.0s)
% ref pos   : -1394300.7200  -4222826.1350   4558074.5080
%
% (x/y/z-ecef=WGS84,Q=1:fix,2:float,3:sbas,4:dgps,5:single,6:ppp,ns=# of satellites)
%  GPST              x-ecef(m)      y-ecef(m)      z-ecef(m)   Q  ns   sdx(m)   sdy(m)   sdz(m)  sdxy(m)  sdyz(m)  sdzx(m) age(s)  ratio
2173 236872.000  -1422328.8867  -4226311.8406   4546318.2100   2   8   0.4757   0.8424   1.0710   0.4954  -0.8112  -0.5057 -30.00    1.2
2173 236873.000  -1422328.9002  -4226311.9101   4546318.2539   2   8   0.3382   0.5997   0.7616   0.3522  -0.5773  -0.3595 -29.00    1.2
2173 236874.000  -1422328.9095  -4226311.7292   4546317.9977   2   8   0.2768   0.4911   0.6237   0.2884  -0.4728  -0.2944 -28.00    1.5
2173 236875.000  -1422328.9140  -4226311.6486   4546317.9817   2   8   0.2402   0.4261   0.5412   0.2502  -0.4102  -0.2555 -27.00    1.7
2173 236876.000  -1422328.8333  -4226311.5952   4546317.9769   2   8   0.2151   0.3816   0.4848   0.2241  -0.3675  -0.2289 -26.00    1.6
2173 236877.000  -1422328.8371  -4226311.5187   4546317.9188   2   8   0.1966   0.3487   0.4431   0.2048  -0.3358  -0.2092 -25.00    1.7
2173 236878.000  -1422328.8116  -4226311.5277   4546317.8538   2   8   0.1822   0.3231   0.4107   0.1898  -0.3112  -0.1939 -24.00    1.8
2173 236879.000  -1422328.8004  -4226311.5214   4546317.7635   2   8   0.1705   0.3024   0.3844   0.1776  -0.2913  -0.1815 -23.00    1.9
2173 236880.000  -1422328.7796  -4226311.5801   4546317.8105   2   8   0.1608   0.2852   0.3627   0.1675  -0.2748  -0.1712 -22.00    1.8
2173 236881.000  -1422328.7445  -4226311.5299   4546317.7036   2   8   0.1526   0.2707   0.3442   0.1590  -0.2608  -0.1625 -21.00    1.9
2173 236882.000  -1422328.7555  -4226311.5469   4546317.7296   2   8   0.1455   0.2581   0.3282   0.1516  -0.2487  -0.1550 -20.00    1.9
2173 236883.000  -1422328.7589  -4226311.5115   4546317.6965   2   8   0.1393   0.2472   0.3143   0.1451  -0.2381  -0.1484 -19.00    2.0
2173 236884.000  -1422328.7660  -4226311.5279   4546317.7244   2   8   0.1338   0.2375   0.3019   0.1394  -0.2287  -0.1425 -18.00    2.1
2173 236885.000  -1422328.7648  -4226311.5211   4546317.6933   2   8   0.1289   0.2288   0.2909   0.1343  -0.2204  -0.1373 -17.00    2.1
2173 236886.000  -1422328.7530  -4226311.4898   4546317.6550   2   8   0.1245   0.2210   0.2809   0.1297  -0.2129  -0.1326 -16.00    2.2
2173 236887.000  -1422328.7545  -4226311.4651   4546317.6298   2   8   0.1205   0.2139   0.2719   0.1255  -0.2060  -0.1283 -15.00    2.3
2173 236888.000  -1422328.7657  -4226311.4861   4546317.6502   2   8   0.1169   0.2075   0.2637   0.1217  -0.1998  -0.1244 -14.00    2.4
2173 236889.000  -1422328.7593  -4226311.4733   4546317.6504   2   8   0.1135   0.2016   0.2561   0.1182  -0.1941  -0.1209 -13.00    2.5
2173 236890.000  -1422328.7673  -4226311.4656   4546317.6432   2   8   0.1104   0.1961   0.2491   0.1150  -0.1888  -0.1175 -12.00    2.7
2173 236891.000  -1422328.7853  -4226311.4731   4546317.6823   2   8   0.1076   0.1910   0.2426   0.1120  -0.1839  -0.1145 -11.00    2.9
2173 236892.000  -1422329.1716  -4226311.6118   4546317.4254   1   8   0.0107   0.0166   0.0242   0.0110  -0.0171  -0.0121 -10.00    3.1
2173 236893.000  -1422329.1713  -4226311.6089   4546317.4276   1   8   0.0099   0.0155   0.0223   0.0102  -0.0158  -0.0111  -9.00    3.4
2173 236894.000  -1422329.1658  -4226311.5970   4546317.4191   1   8   0.0090   0.0143   0.0204   0.0094  -0.0146  -0.0101  -8.00    3.7
2173 236895.000  -1422329.1689  -4226311.6032   4546317.4258   1   8   0.0083   0.0133   0.0187   0.0085  -0.0134  -0.0092  -7.00    4.1
2173 236896.000  -1422329.1677  -4226311.6065   4546317.4320   1   8   0.0075   0.0123   0.0169   0.0077  -0.0122  -0.0084  -6.00    4.6
2173 236897.000  -1422329.1660  -4226311.6012   4546317.4254   1   8   0.0068   0.0113   0.0153   0.0071  -0.0112  -0.0075  -5.00    5.0
2173 236898.000  -1422329.1623  -4226311.5946   4546317.4243   1   8   0.0062   0.0104   0.0139   0.0064  -0.0102  -0.0067  -4.00    5.2
2173 236899.000  -1422329.1609  -4226311.5936   4546317.4234   1   8   0.0057   0.0096   0.0127   0.0058  -0.0094  -0.0061  -3.00    5.4
2173 236900.000  -1422329.1602  -4226311.5912   4546317.4236   1   8   0.0052   0.0090   0.0117   0.0054  -0.0088  -0.0056  -2.00    5.6
2173 236901.000  -1422329.1602  -4226311.5913   4546317.4255   1   8   0.0048   0.0086   0.0110   0.0047  -0.0085  -0.0053  -1.00    5.7
2173 236902.000  -1422329.1610  -4226311.5903   4546317.4226   1   8   0.0048   0.0086   0.0109   0.0051  -0.0081  -0.0050   0.00    5.9
2173 236903.000  -1422329.1597  -4226311.5896   4546317.4218   1   8   0.0048   0.0085   0.0108   0.0050  -0.0082  -0.0051   0.00    6.5
2173 236904.000  -1422329.1594  -4226311.5885   4546317.4188   1   8   0.0048   0.0085   0.0108   0.0050  -0.0082  -0.0051   0.00    6.5
2173 236905.000  -1422329.1594  -4226311.5856   4546317.4214   1   8   0.0048   0.0085   0.0108   0.0050  -0.0082  -0.0051   0.00    6.3
2173 236906.000  -1422329.1587  -4226311.5849   4546317.4194   1   8   0.0048   0.0085   0.0108   0.0050  -0.0082  -0.0051   0.00    5.6
2173 236907.000  -1422329.1597  -4226311.5938   4546317.4268   1   8   0.0048   0.0085   0.0108   0.0050  -0.0082  -0.0051   0.00    4.4
2173 236908.000  -1422329.1613  -4226311.5936   4546317.4230   1   8   0.0048   0.0085   0.0108   0.0050  -0.0082  -0.0051   0.00    8.5
2173 236909.000  -1422329.1600  -4226311.5906   4546317.4212   1   8   0.0048   0.0085   0.0108   0.0050  -0.0082  -0.0051   0.00    7.3
2173 236910.000  -1422329.1598  -4226311.5887   4546317.4187   1   8   0.0048   0.0085   0.0108   0.0050  -0.0082  -0.0051   0.00    7.8
2173 236911.000  -1422329.1601  -4226311.5911   4546317.4226   1   8   0.0048   0.0085   0.0108   0.0050  -0.0082  -0.0051   0.00    8.6
2173 236912.000  -1422329.1588  -4226311.5893   4546317.4243   1   8   0.0048   0.0085   0.0108   0.0050  -0.0082  -0.0051   0.00    5.0
2173 236913.000  -1422329.1596  -4226311.5894   4546317.4213   1   8   0.0048   0.0085   0.0108   0.0050  -0.0082  -0.0051   0.00   10.0
2173 236914.000  -1422329.1591  -4226311.5830   4546317.4168   1   8   0.0048   0.0085   0.0108   0.0050  -0.0082  -0.0051   0.00    5.8
2173 236915.000  -1422329.1612  -4226311.5919   4546317.4283   1   8   0.0048   0.0085   0.0108   0.0050  -0.0082  -0.0051   0.00    9.1
2173 236916.000  -1422329.1598  -4226311.5923   4546317.4249   1   8   0.0048   0.0085   0.0108   0.0050  -0.0082  -0.0051   0.00    8.2
2173 236917.000  -1422329.1614  -4226311.5936   4546317.4265   1   8   0.0048   0.0085   0.0108   0.0050  -0.0082  -0.0051   0.00    7.5
2173 236918.000  -1422329.1603  -4226311.5893   4546317.4251   1   8   0.0048   0.0085   0.0108   0.0050  -0.0082  -0.0051   0.00    8.6
2173 236919.000  -1422329.1596  -4226311.5879   4546317.4219   1   8   0.0048   0.0085   0.0108   0.0050  -0.0082  -0.0051   0.00    9.3
2173 236920.000  -1422329.1612  -4226311.5861   4546317.4211   1   8   0.0048   0.0085   0.0108   0.0050  -0.0082  -0.0051   0.00   11.3
2173 236921.000  -1422329.1613  -4226311.5938   4546317.4262   1   8   0.0048   0.0085   0.0109   0.0050  -0.0082  -0.0051   0.00   12.4
2173 236922.000  -1422329.1586  -4226311.5885   4546317.4213   1   8   0.0048   0.0085   0.0109   0.0050  -0.0082  -0.0051   0.00    6.3
2173 236923.000  -1422329.1594  -4226311.5913   4546317.4270   1   8   0.0048   0.0085   0.0109   0.0050  -0.0082  -0.0051   0.00    9.6
2173 236924.000  -1422329.1585  -4226311.5905   4546317.4280   1   8   0.0048   0.0085   0.0109   0.0050  -0.0082  -0.0051   0.00    8.2
2173 236925.000  -1422329.1626  -4226311.5947   4546317.4264   1   8   0.0048   0.0085   0.0109   0.0050  -0.0082  -0.0051   0.00    7.2
2173 236926.000  -1422329.1590  -4226311.5869   4546317.4215   1   8   0.0048   0.0085   0.0109   0.0050  -0.0082  -0.0051   0.00    7.7
2173 236927.000  -1422329.1605  -4226311.5921   4546317.4267   1   8   0.0048   0.0085   0.0109   0.0050  -0.0082  -0.0051   0.00    5.1
2173 236928.000  -1422329.1620  -4226311.5972   4546317.4294   1   8   0.0048   0.0085   0.0109   0.0050  -0.0082  -0.0051   0.00    5.1
2173 236929.000  -1422329.1597  -4226311.5893   4546317.4240   1   8   0.0048   0.0085   0.0109   0.0050  -0.0082  -0.0051   0.00    5.6
2173 236930.000  -1422329.1605  -4226311.5954   4546317.4286   1   8   0.0048   0.0085   0.0109   0.0050  -0.0082  -0.0051   0.00    5.6
2173 236931.000  -1422329.1613  -4226311.5895   4546317.4269   1   8   0.0048   0.0085   0.0109   0.0050  -0.0082  -0.0051   0.00    6.7
2173 236932.000  -1422329.1606  -4226311.5909   4546317.4216   1   8   0.0048   0.0085   0.0109   0.0050  -0.0082  -0.0051   0.00    6.5
2173 236933.000  -1422329.1629  -4226311.5974   4546317.4354   1   8   0.0048   0.0085   0.0109   0.0050  -0.0082  -0.0051   0.00    6.5
2173 236934.000  -1422329.1627  -4226311.5935   4546317.4316   1   8   0.0048   0.0085   0.0109   0.0050  -0.0082  -0.0051   0.00   11.3
2173 236935.000  -1422329.1629  -4226311.5920   4546317.4339   1   8   0.0048   0.0085   0.0109   0.0050  -0.0082  -0.0051   0.00    6.4
2173 236936.000  -1422329.1612  -4226311.5928   4546317.4309   1   8   0.0048   0.0085   0.0109   0.0050  -0.0082  -0.0051   0.00    7.3
2173 236937.000  -1422329.1602  -4226311.5918   4546317.4319   1   8   0.0048   0.0085   0.0109   0.0050  -0.0082  -0.0051   0.00    7.7
2173 236938.000  -1422329.1629  -4226311.5957   4546317.4346   1   8   0.0048   0.0085   0.0109   0.0050  -0.0082  -0.0051   0.00    9.5
2173 236939.000  -1422329.1618  -4226311.5941   4546317.4305   1   8   0.0048   0.0085   0.0109   0.0050  -0.0082  -0.0051   0.00    6.2
2173 236940.000  -1422329.1605  -4226311.5919   4546317.4341   1   8   0.0048   0.0085   0.0109   0.0050  -0.0083  -0.0051   0.00    7.5
2173 236941.000  -1422329.1598  -4226311.5932   4546317.4321   1   8   0.0048   0.0085   0.0109   0.0050  -0.0083  -0.0051   0.00   10.3
2173 236942.000  -1422329.1597  -4226311.5957   4546317.4304   1   8   0.0048   0.0085   0.0109   0.0050  -0.0083  -0.0051   0.00    9.0
2173 236943.000  -1422329.1589  -4226311.5918   4546317.4305   1   8   0.0048   0.0085   0.0109   0.0050  -0.0083  -0.0051   0.00    9.9
2173 236944.000  -1422329.1609  -4226311.5923   4546317.4310   1   8   0.0048   0.0085   0.0109   0.0050  -0.0083  -0.0051   0.00   12.4
2173 236945.000  -1422329.1624  -4226311.5973   4546317.4360   1   8   0.0048   0.0085   0.0109   0.0050  -0.0083  -0.0051   0.00   10.0
2173 236946.000  -1422329.1601  -4226311.5930   4546317.4329   1   8   0.0048   0.0085   0.0109   0.0050  -0.0083  -0.0051   0.00   10.4
2173 236947.000  -1422329.1606  -4226311.5907   4546317.4298   1   8   0.0048   0.0085   0.0109   0.0050  -0.0083  -0.0051   0.00   12.8
2173 236948.000  -1422329.1599  -4226311.5916   4546317.4320   1   8   0.0048   0.0085   0.0109   0.0050  -0.0083  -0.0051   0.00   13.2
2173 236949.000  -1422329.1602  -4226311.5927   4546317.4367   1   8   0.0048   0.0085   0.0109   0.0050  -0.0083  -0.0051   0.00   11.0
2173 236950.000  -1422329.1584  -4226311.5920   4546317.4311   1   8   0.0048   0.0085   0.0109   0.0050  -0.0083  -0.0051   0.00   11.7
2173 236951.000  -1422329.1586  -4226311.5899   4546317.4303   1   8   0.0048   0.0085   0.0109   0.0050  -0.0083  -0.0051   0.00   10.7
2173 236952.000  -1422329.1601  -4226311.5885   4546317.4302   1   8   0.0048   0.0085   0.0109   0.0050  -0.0083  -0.0051   0.00   10.5
2173 236953.000  -1422329.1593  -4226311.5880   4546317.4289   1   8   0.0048   0.0085   0.0109   0.0050  -0.0083  -0.0051   0.00    8.9
2173 236954.000  -1422329.1579  -4226311.5888   4546317.4288   1   8   0.0048   0.0085   0.0109   0.0050  -0.0083  -0.0051   0.00   13.8
2173 236955.000  -1422329.1617  -4226311.5949   4546317.4402   1   8   0.0048   0.0085   0.0109   0.0050  -0.0083  -0.0051   0.00   11.0
2173 236956.000  -1422329.1578  -4226311.5924   4546317.4340   1   8   0.0048   0.0085   0.0109   0.0050  -0.0083  -0.0051   0.00   13.8
2173 236957.000  -1422329.1607  -4226311.5898   4546317.4326   1   8   0.0048   0.0085   0.0109   0.0050  -0.0083  -0.0051   0.00   15.5
2173 236958.000  -1422329.1588  -4226311.5876   4546317.4272   1   8   0.0048   0.0085   0.0109   0.0050  -0.0083  -0.0051   0.00   13.1
2173 236959.000  -1422329.1545  -4226311.5842   4546317.4226   1   8   0.0048   0.0085   0.0109   0.0050  -0.0083  -0.0051   0.00   12.1
2173 236960.000  -1422329.1607  -4226311.5900   4546317.4334   1   8   0.0048   0.0085   0.0109   0.0050  -0.0083  -0.0051   0.00   11.5
2173 236961.000  -1422329.1562  -4226311.5804   4546317.4256   1   8   0.0048   0.0085   0.0109   0.0050  -0.0083  -0.0051   0.00   10.1
2173 236962.000  -1422329.1618  -4226311.5906   4546317.4359   1   8   0.0048   0.0085   0.0109   0.0050  -0.0083  -0.0051   0.00   10.9
2173 236963.000  -1422329.1575  -4226311.5846   4546317.4312   1   8   0.0048   0.0085   0.0109   0.0050  -0.0083  -0.0051   0.00    8.9
2173 236964.000  -1422329.1589  -4226311.5943   4546317.4342   1   8   0.0048   0.0085   0.0109   0.0050  -0.0083  -0.0051   0.00    9.7
2173 236965.000  -1422329.1583  -4226311.5883   4546317.4310   1   8   0.0048   0.0085   0.0109   0.0050  -0.0083  -0.0051   0.00   11.8
2173 236966.000  -1422329.1580  -4226311.5941   4546317.4336   1   8   0.0048   0.0085   0.0109   0.0050  -0.0083  -0.0051   0.00   12.6
2173 236967.000  -1422329.1569  -4226311.5868   4546317.4272   1   8   0.0048   0.0085   0.0109   0.0050  -0.0083  -0.0051   0.00    9.4
2173 236968.000  -1422329.1565  -4226311.5850   4546317.4275   1   8   0.0048   0.0085   0.0109   0.0050  -0.0083  -0.0051   0.00    7.9
2173 236969.000  -1422329.1572  -4226311.5873   4546317.4276   1   8   0.0048   0.0085   0.0109   0.0050  -0.0083  -0.0051   0.00    6.3
2173 236970.000  -1422329.1583  -4226311.5863   4546317.4291   1   8   0.0048   0.0085   0.0109   0.0050  -0.0083  -0.0051   0.00    9.2
2173 236971.000  -1422329.1559  -4226311.5873   4546317.4231   1   8   0.0048   0.0085   0.0109   0.0050  -0.0083  -0.0051   0.00    8.8
2173 236972.000  -1422329.1566  -4226311.5865   4546317.4255   1   8   0.0048   0.0085   0.0109   0.0050  -0.0083  -0.0051   0.00    8.4
2173 236973.000  -1422329.1559  -4226311.5858   4546317.4298   1   8   0.0048   0.0085   0.0109   0.0050  -0.0083  -0.0051   0.00    7.2
2173 236974.000  -1422329.1566  -4226311.5860   4546317.4277   1   8   0.0048   0.0085   0.0109   0.0050  -0.0083  -0.0051   0.00    5.3
2173 236975.000  -1422329.1531  -4226311.5863   4546317.4253   1   8   0.0048   0.0085   0.0109   0.0050  -0.0083  -0.0051   0.00    8.8
2173 236976.000  -1422329.1579  -4226311.5942   4546317.4313   1   8   0.0048   0.0085   0.0109   0.0050  -0.0083  -0.0051   0.00    9.3
2173 236977.000  -1422329.1590  -4226311.5905   4546317.4318   1   8   0.0048   0.0085   0.0109   0.0050  -0.0083  -0.0051   0.00   10.4
2173 236978.000  -1422329.1568  -4226311.5867   4546317.4260   1   8   0.0048   0.0085   0.0109   0.0050  -0.0083  -0.0051   0.00    7.9
2173 236979.000  -1422329.1573  -4226311.5929   4546317.4266   1   8   0.0048   0.0085   0.0109   0.0050  -0.0083  -0.0051   0.00    6.7
2173 236980.000  -1422329.1569  -4226311.5902   4546317.4279   1   8   0.0048   0.0085   0.0109   0.0050  -0.0083  -0.0051   0.00   14.0
2173 236981.000  -1422329.1572  -4226311.5947   4546317.4299   1   8   0.0048   0.0085   0.0109   0.0050  -0.0083  -0.0051   0.00   14.4
2173 236982.000  -1422329.1549  -4226311.5863   4546317.4213   1   8   0.0048   0.0085   0.0109   0.0050  -0.0083  -0.0051   0.00   13.1
2173 236983.000  -1422329.1562  -4226311.5909   4546317.4281   1   8   0.0048   0.0085   0.0109   0.0050  -0.0083  -0.0051   0.00   12.5
2173 236984.000  -1422329.1549  -4226311.5871   4546317.4231   1   8   0.0048   0.0085   0.0109   0.0050  -0.0083  -0.0051   0.00    9.3
2173 236985.000  -1422329.1575  -4226311.5895   4546317.4253   1   8   0.0048   0.0085   0.0109   0.0050  -0.0083  -0.0051   0.00   10.9
2173 236986.000  -1422329.1558  -4226311.5855   4546317.4203   1   8   0.0048   0.0085   0.0109   0.0050  -0.0083  -0.0051   0.00    9.9
2173 236987.000  -1422329.1548  -4226311.5915   4546317.4289   1   8   0.0048   0.0085   0.0109   0.0050  -0.0083  -0.0051   0.00   10.3
2173 236988.000  -1422329.1560  -4226311.5886   4546317.4272   1   8   0.0048   0.0085   0.0109   0.0050  -0.0083  -0.0051   0.00    7.9
2173 236989.000  -1422329.1578  -4226311.5908   4546317.4284   1   8   0.0048   0.0085   0.0109   0.0050  -0.0083  -0.0051   0.00   10.3
2173 236990.000  -1422329.1580  -4226311.5905   4546317.4282   1   8   0.0048   0.0085   0.0109   0.0050  -0.0083  -0.0051   0.00   13.6
2173 236991.000  -1422329.1571  -4226311.5885   4546317.4272   1   8   0.0048   0.0085   0.0109   0.0050  -0.0083  -0.0051   0.00   12.7
2173 236992.000  -1422329.1561  -4226311.5896   4546317.4245   1   8   0.0048   0.0085   0.0109   0.0050  -0.0083  -0.0051   0.00   10.8
2173 236993.000  -1422329.1542  -4226311.5876   4546317.4225   1   8   0.0048   0.0085   0.0109   0.0050  -0.0083  -0.0051   0.00   12.6
2173 236994.000  -1422329.1555  -4226311.5836   4546317.4205   1   8   0.0048   0.0085   0.0109   0.0050  -0.0083  -0.0051   0.00    8.2
2173 236995.000  -1422329.1552  -4226311.5878   4546317.4256   1   8   0.0048   0.0085   0.0109   0.0050  -0.0083  -0.0051   0.00   10.9
2173 236996.000  -1422329.1537  -4226311.5840   4546317.4203   1   8   0.0048   0.0085   0.0109   0.0050  -0.0083  -0.0051   0.00   12.3
2173 236997.000  -1422329.1542  -4226311.5884   4546317.4238   1   8   0.0048   0.0086   0.0109   0.0050  -0.0083  -0.0051   0.00   10.6
2173 236998.000  -1422329.1539  -4226311.5806   4546317.4194   1   8   0.0048   0.0086   0.0110   0.0050  -0.0083  -0.0051   0.00   11.4
2173 236999.000  -1422329.1572  -4226311.5878   4546317.4193   1   8   0.0048   0.0086   0.0110   0.0050  -0.0083  -0.0051   0.00   11.3
2173 237000.000  -1422329.1556  -4226311.5853   4546317.4235   1   8   0.0048   0.0086   0.0110   0.0050  -0.0083  -0.0051   0.00   10.1
2173 237001.000  -1422329.1567  -4226311.5862   4546317.4214   1   8   0.0048   0.0086   0.0110   0.0050  -0.0083  -0.0051   0.00   11.6
2173 237002.000  -1422329.1557  -4226311.5876   4546317.4238   1   8   0.0048   0.0086   0.0110   0.0050  -0.0083  -0.0051   0.00   15.3
2173 237003.000  -1422329.1540  -4226311.5839   4546317.4205   1   8   0.0048   0.0086   0.0110   0.0050  -0.0083  -0.0051   0.00   20.2
2173 237004.000  -1422329.1544  -4226311.5834   4546317.4183   1   8   0.0048   0.0086   0.0110   0.0050  -0.0083  -0.0051   0.00   15.4
2173 237005.000  -1422329.1559  -4226311.5869   4546317.4213   1   8   0.0048   0.0086   0.0110   0.0050  -0.0083  -0.0051   0.00   16.1
2173 237006.000  -1422329.1543  -4226311.5836   4546317.4192   1   8   0.0048   0.0086   0.0110   0.0050  -0.0083  -0.0051   0.00   15.6
2173 237007.000  -1422329.1557  -4226311.5820   4546317.4180   1   8   0.0048   0.0086   0.0110   0.0050  -0.0083  -0.0051   0.00   19.1
2173 237008.000  -1422329.1564  -4226311.5853   4546317.4194   1   8   0.0048   0.0086   0.0110   0.0050  -0.0083  -0.0051   0.00   15.8
2173 237009.000  -1422329.1548  -4226311.5812   4546317.4205   1   8   0.0048   0.0086   0.0110   0.0050  -0.0083  -0.0051   0.00   19.8
2173 237010.000  -1422329.1541  -4226311.5829   4546317.4184   1   8   0.0048   0.0086   0.0110   0.0050  -0.0083  -0.0051   0.00   20.1
2173 237011.000  -1422329.1545  -4226311.5847   4546317.4249   1   8   0.0048   0.0086   0.0110   0.0050  -0.0083  -0.0051   0.00   20.8
2173 237012.000  -1422329.1542  -4226311.5810   4546317.4174   1   8   0.0048   0.0086   0.0110   0.0050  -0.0083  -0.0051   0.00   19.0
2173 237013.000  -1422329.1543  -4226311.5843   4546317.4162   1   8   0.0048   0.0086   0.0110   0.0050  -0.0083  -0.0051   0.00   14.1
2173 237014.000  -1422329.1542  -4226311.5835   4546317.4195   1   8   0.0048   0.0086   0.0110   0.0050  -0.0083  -0.0051   0.00   17.7
2173 237015.000  -1422329.1547  -4226311.5849   4546317.4212   1   8   0.0048   0.0086   0.0110   0.0050  -0.0083  -0.0051   0.00    9.2
2173 237016.000  -1422329.1569  -4226311.5876   4546317.4266   1   8   0.0048   0.0086   0.0110   0.0050  -0.0083  -0.0051   0.00   15.5
2173 237017.000  -1422329.1555  -4226311.5835   4546317.4157   1   8   0.0048   0.0086   0.0110   0.0050  -0.0083  -0.0051   0.00   31.9
2173 237018.000  -1422329.1532  -4226311.5803   4546317.4176   1   8   0.0048   0.0086   0.0110   0.0050  -0.0083  -0.0051   0.00   21.1
2173 237019.000  -1422329.1553  -4226311.5867   4546317.4227   1   8   0.0048   0.0086   0.0110   0.0050  -0.0083  -0.0051   0.00   20.9
2173 237020.000  -1422329.1540  -4226311.5801   4546317.4203   1   8   0.0048   0.0086   0.0110   0.0050  -0.0083  -0.0051   0.00   13.9
2173 237021.000  -1422329.1563  -4226311.5847   4546317.4199   1   8   0.0048   0.0086   0.0110   0.0050  -0.0083  -0.0051   0.00   34.9
2173 237022.000  -1422329.1561  -4226311.5894   4546317.4282   1   8   0.0048   0.0086   0.0110   0.0050  -0.0083  -0.0051   0.00   27.7
2173 237023.000  -1422329.1562  -4226311.5874   4546317.4235   1   8   0.0047   0.0086   0.0110   0.0050  -0.0083  -0.0051   0.00   24.2
2173 237024.000  -1422329.1539  -4226311.5886   4546317.4221   1   8   0.0047   0.0086   0.0110   0.0050  -0.0083  -0.0051   0.00   15.0
2173 237025.000  -1422329.1544  -4226311.5850   4546317.4192   1   8   0.0047   0.0086   0.0110   0.0050  -0.0083  -0.0051   0.00   23.4
2173 237026.000  -1422329.1551  -4226311.5844   4546317.4206   1   8   0.0047   0.0086   0.0110   0.0050  -0.0083  -0.0051   0.00   20.1
2173 237027.000  -1422329.1543  -4226311.5844   4546317.4188   1   8   0.0047   0.0086   0.0110   0.0050  -0.0083  -0.0051   0.00   19.9
2173 237028.000  -1422329.1547  -4226311.5853   4546317.4212   1   8   0.0047   0.0086   0.0110   0.0050  -0.0083  -0.0051   0.00   23.8
2173 237029.000  -1422329.1577  -4226311.5871   4546317.4245   1   8   0.0047   0.0086   0.0110   0.0050  -0.0083  -0.0051   0.00   27.6
2173 237030.000  -1422329.1563  -4226311.5848   4546317.4252   1   8   0.0047   0.0086   0.0110   0.0050  -0.0083  -0.0051   0.00   11.5
2173 237031.000  -1422329.1524  -4226311.5810   4546317.4202   1   8   0.0047   0.0086   0.0110   0.0050  -0.0083  -0.0051   0.00   16.3
2173 237032.000  -1422329.1548  -4226311.5888   4546317.4247   1   8   0.0047   0.0086   0.0110   0.0050  -0.0083  -0.0051   0.00   12.6
2173 237033.000  -1422329.1569  -4226311.5878   4546317.4209   1   8   0.0047   0.0086   0.0110   0.0050  -0.0083  -0.0051   0.00   16.4
2173 237034.000  -1422329.1539  -4226311.5815   4546317.4182   1   8   0.0047   0.0086   0.0110   0.0050  -0.0083  -0.0051   0.00   17.8
2173 237035.000  -1422329.1513  -4226311.5757   4546317.4144   1   8   0.0047   0.0086   0.0110   0.0050  -0.0083  -0.0051   0.00   10.0
2173 237036.000  -1422329.1534  -4226311.5832   4546317.4197   1   8   0.0047   0.0086   0.0110   0.0050  -0.0083  -0.0051   0.00   14.9
2173 237037.000  -1422329.1539  -4226311.5820   4546317.4176   1   8   0.0047   0.0086   0.0110   0.0050  -0.0083  -0.0051   0.00   21.4
2173 237038.000  -1422329.1546  -4226311.5840   4546317.4168   1   8   0.0047   0.0086   0.0110   0.0050  -0.0083  -0.0051   0.00   15.6
2173 237039.000  -1422329.1520  -4226311.5766   4546317.4145   1   8   0.0047   0.0086   0.0110   0.0050  -0.0083  -0.0051   0.00   10.8
2173 237040.000  -1422329.1504  -4226311.5793   4546317.4153   1   8   0.0047   0.0086   0.0110   0.0050  -0.0083  -0.0051   0.00   13.2
2173 237041.000  -1422329.1541  -4226311.5830   4546317.4194   1   8   0.0047   0.0086   0.0110   0.0050  -0.0083  -0.0052   0.00   13.0
2173 237042.000  -1422329.1570  -4226311.5872   4546317.4239   1   8   0.0047   0.0086   0.0110   0.0050  -0.0083  -0.0052   0.00   13.4
2173 237043.000  -1422329.1556  -4226311.5864   4546317.4213   1   8   0.0047   0.0086   0.0110   0.0050  -0.0083  -0.0052   0.00    8.6
2173 237044.000  -1422329.1533  -4226311.5854   4546317.4203   1   8   0.0047   0.0086   0.0110   0.0050  -0.0083  -0.0052   0.00   10.5
2173 237045.000  -1422329.1541  -4226311.5809   4546317.4169   1   8   0.0047   0.0086   0.0110   0.0050  -0.0083  -0.0052   0.00   11.7
2173 237046.000  -1422329.1515  -4226311.5813   4546317.4193   1   8   0.0047   0.0086   0.0110   0.0050  -0.0083  -0.0052   0.00   12.7
2173 237047.000  -1422329.1549  -4226311.5830   4546317.4209   1   8   0.0047   0.0086   0.0110   0.0050  -0.0083  -0.0052   0.00   11.7
2173 237048.000  -1422329.1537  -4226311.5791   4546317.4169   1   8   0.0047   0.0086   0.0110   0.0050  -0.0083  -0.0052   0.00   11.4
2173 237049.000  -1422329.1532  -4226311.5791   4546317.4149   1   8   0.0047   0.0086   0.0110   0.0050  -0.0083  -0.0052   0.00   11.5
2173 237050.000  -1422329.1540  -4226311.5845   4546317.4250   1   8   0.0047   0.0086   0.0110   0.0050  -0.0083  -0.0052   0.00   12.0
2173 237051.000  -1422329.1538  -4226311.5823   4546317.4189   1   8   0.0047   0.0086   0.0110   0.0050  -0.0083  -0.0052   0.00   10.7
2173 237052.000  -1422329.1557  -4226311.5870   4546317.4208   1   8   0.0047   0.0086   0.0110   0.0050  -0.0083  -0.0052   0.00   11.6
2173 237053.000  -1422329.1523  -4226311.5821   4546317.4151   1   8   0.0047   0.0086   0.0110   0.0050  -0.0083  -0.0052   0.00   10.3
2173 237054.000  -1422329.1523  -4226311.5841   4546317.4207   1   8   0.0047   0.0086   0.0110   0.0050  -0.0083  -0.0052   0.00   14.2
2173 237055.000  -1422329.1518  -4226311.5815   4546317.4144   1   8   0.0047   0.0086   0.0110   0.0050  -0.0083  -0.0052   0.00   11.0
2173 237056.000  -1422329.1528  -4226311.5810   4546317.4175   1   8   0.0047   0.0086   0.0110   0.0050  -0.0083  -0.0052   0.00    9.3
2173 237057.000  -1422329.1524  -4226311.5784   4546317.4145   1   8   0.0047   0.0086   0.0110   0.0050  -0.0083  -0.0052   0.00    9.9
2173 237058.000  -1422329.1538  -4226311.5814   4546317.4165   1   8   0.0047   0.0086   0.0110   0.0050  -0.0083  -0.0052   0.00    8.1
2173 237059.000  -1422329.1555  -4226311.5850   4546317.4191   1   8   0.0047   0.0086   0.0110   0.0050  -0.0083  -0.0052   0.00   10.8
2173 237060.000  -1422329.1560  -4226311.5838   4546317.4186   1   8   0.0047   0.0086   0.0110   0.0050  -0.0083  -0.0052   0.00    9.5
2173 237061.000  -1422329.1550  -4226311.5815   4546317.4168   1   8   0.0047   0.0086   0.0110   0.0050  -0.0083  -0.0052   0.00    8.5
2173 237062.000  -1422329.1536  -4226311.5816   4546317.4171   1   8   0.0047   0.0086   0.0110   0.0050  -0.0083  -0.0052   0.00   14.7
2173 237063.000  -1422329.1540  -4226311.5835   4546317.4178   1   8   0.0047   0.0086   0.0110   0.0050  -0.0083  -0.0052   0.00    9.1
2173 237064.000  -1422329.1561  -4226311.5860   4546317.4244   1   8   0.0047   0.0086   0.0110   0.0050  -0.0083  -0.0052   0.00   11.6
2173 237065.000  -1422329.1533  -4226311.5776   4546317.4120   1   8   0.0047   0.0086   0.0110   0.0050  -0.0083  -0.0052   0.00    8.4
2173 237066.000  -1422329.1565  -4226311.5830   4546317.4194   1   8   0.0047   0.0086   0.0110   0.0050  -0.0083  -0.0052   0.00   11.8
2173 237067.000  -1422329.1558  -4226311.5829   4546317.4197   1   8   0.0047   0.0086   0.0110   0.0050  -0.0083  -0.0052   0.00    9.0
2173 237068.000  -1422329.1543  -4226311.5852   4546317.4195   1   8   0.0047   0.0086   0.0110   0.0050  -0.0083  -0.0052   0.00   11.5
2173 237069.000  -1422329.1519  -4226311.5821   4546317.4168   1   8   0.0047   0.0086   0.0110   0.0050  -0.0083  -0.0052   0.00   10.9
2173 237070.000  -1422329.1563  -4226311.5859   4546317.4192   1   8   0.0047   0.0086   0.0110   0.0050  -0.0083  -0.0052   0.00    7.4
2173 237071.000  -1422329.1579  -4226311.5922   4546317.4306   1   8   0.0047   0.0086   0.0110   0.0050  -0.0083  -0.0052   0.00   14.1
2173 237072.000  -1422329.1548  -4226311.5856   4546317.4197   1   8   0.0047   0.0086   0.0110   0.0050  -0.0083  -0.0052   0.00    9.4
2173 237073.000  -1422329.1551  -4226311.5815   4546317.4210   1   8   0.0047   0.0086   0.0110   0.0050  -0.0083  -0.0052   0.00   10.6
2173 237074.000  -1422329.1551  -4226311.5844   4546317.4221   1   8   0.0047   0.0086   0.0110   0.0050  -0.0084  -0.0052   0.00    8.3
2173 237075.000  -1422329.1556  -4226311.5826   4546317.4233   1   8   0.0047   0.0086   0.0110   0.0050  -0.0084  -0.0052   0.00    6.6
2173 237076.000  -1422329.1555  -4226311.5843   4546317.4229   1   8   0.0047   0.0086   0.0110   0.0050  -0.0084  -0.0052   0.00   11.9
2173 237077.000  -1422329.1536  -4226311.5873   4546317.4248   1   8   0.0047   0.0086   0.0110   0.0050  -0.0084  -0.0052   0.00    9.7
2173 237078.000  -1422329.1540  -4226311.5811   4546317.4157   1   8   0.0047   0.0086   0.0110   0.0050  -0.0084  -0.0052   0.00   10.8
2173 237079.000  -1422329.1554  -4226311.5865   4546317.4236   1   8   0.0047   0.0086   0.0110   0.0050  -0.0084  -0.0052   0.00   13.8
2173 237080.000  -1422329.1552  -4226311.5868   4546317.4254   1   8   0.0047   0.0086   0.0110   0.0050  -0.0084  -0.0052   0.00   13.7
2173 237081.000  -1422329.1548  -4226311.5879   4546317.4200   1   8   0.0047   0.0086   0.0110   0.0050  -0.0084  -0.0052   0.00   12.1
2173 237082.000  -1422329.1553  -4226311.5838   4546317.4172   1   8   0.0047   0.0086   0.0110   0.0050  -0.0084  -0.0052   0.00   13.2
2173 237083.000  -1422329.1548  -4226311.5891   4546317.4263   1   8   0.0047   0.0086   0.0110   0.0050  -0.0084  -0.0052   0.00   12.8
2173 237084.000  -1422329.1566  -4226311.5916   4546317.4253   1   8   0.0047   0.0086   0.0110   0.0050  -0.0084  -0.0052   0.00   13.4
2173 237085.000  -1422329.1563  -4226311.5896   4546317.4234   1   8   0.0047   0.0086   0.0110   0.0050  -0.0084  -0.0052   0.00   13.1
2173 237086.000  -1422329.1532  -4226311.5814   4546317.4171   1   8   0.0047   0.0086   0.0110   0.0050  -0.0084  -0.0052   0.00   11.1
2173 237087.000  -1422329.1565  -4226311.5891   4546317.4292   1   8   0.0047   0.0086   0.0111   0.0050  -0.0084  -0.0052   0.00   13.1
2173 237088.000  -1422329.1580  -4226311.5929   4546317.4264   1   8   0.0047   0.0086   0.0111   0.0050  -0.0084  -0.0052   0.00   16.9
2173 237089.000  -1422329.1533  -4226311.5891   4546317.4245   1   8   0.0047   0.0086   0.0111   0.0050  -0.0084  -0.0052   0.00   12.6
2173 237090.000  -1422329.1559  -4226311.5952   4546317.4276   1   8   0.0047   0.0086   0.0111   0.0050  -0.0084  -0.0052   0.00   14.9
2173 237091.000  -1422329.1563  -4226311.5932   4546317.4308   1   8   0.0047   0.0086   0.0111   0.0050  -0.0084  -0.0052   0.00   13.3
2173 237092.000  -1422329.1579  -4226311.5950   4546317.4298   1   8   0.0047   0.0086   0.0111   0.0050  -0.0084  -0.0052   0.00   10.4
2173 237093.000  -1422329.1533  -4226311.5925   4546317.4270   1   8   0.0047   0.0086   0.0111   0.0050  -0.0084  -0.0052   0.00   11.3
2173 237094.000  -1422329.1544  -4226311.5848   4546317.4216   1   8   0.0047   0.0086   0.0111   0.0050  -0.0084  -0.0052   0.00   14.2
2173 237095.000  -1422329.1551  -4226311.5903   4546317.4299   1   8   0.0047   0.0086   0.0111   0.0050  -0.0084  -0.0052   0.00   11.3
2173 237096.000  -1422329.1546  -4226311.5852   4546317.4248   1   8   0.0047   0.0086   0.0111   0.0050  -0.0084  -0.0052   0.00   12.9
2173 237097.000  -1422329.1582  -4226311.5940   4546317.4281   1   8   0.0047   0.0086   0.0111   0.0050  -0.0084  -0.0052   0.00   11.3
2173 237098.000  -1422329.1571  -4226311.5936   4546317.4308   1   8   0.0047   0.0086   0.0111   0.0050  -0.0084  -0.0052   0.00   12.0
2173 237099.000  -1422329.1559  -4226311.5938   4546317.4291   1   8   0.0047   0.0086   0.0111   0.0050  -0.0084  -0.0052   0.00    9.8
2173 237100.000  -1422329.1562  -4226311.5866   4546317.4235   1   8   0.0047   0.0086   0.0111   0.0050  -0.0084  -0.0052   0.00    9.9
2173 237101.000  -1422329.1551  -4226311.5865   4546317.4242   1   8   0.0047   0.0086   0.0111   0.0050  -0.0084  -0.0052   0.00   13.9
2173 237102.000  -1422329.1552  -4226311.5896   4546317.4259   1   8   0.0047   0.0086   0.0111   0.0050  -0.0084  -0.0052   0.00   10.5
2173 237103.000  -1422329.1565  -4226311.5929   4546317.4289   1   8   0.0047   0.0086   0.0111   0.0050  -0.0084  -0.0052   0.00   10.3
2173 237104.000  -1422329.1574  -4226311.5932   4546317.4337   1   8   0.0047   0.0086   0.0111   0.0050  -0.0084  -0.0052   0.00   11.4
2173 237105.000  -1422329.1555  -4226311.5894   4546317.4279   1   8   0.0047   0.0086   0.0111   0.0050  -0.0084  -0.0052   0.00   12.4
2173 237106.000  -1422329.1571  -4226311.5922   4546317.4314   1   8   0.0047   0.0086   0.0111   0.0050  -0.0084  -0.0052   0.00   10.0
2173 237107.000  -1422329.1558  -4226311.5909   4546317.4241   1   8   0.0047   0.0086   0.0111   0.0050  -0.0084  -0.0052   0.00   12.9
2173 237108.000  -1422329.1559  -4226311.5879   4546317.4267   1   8   0.0047   0.0086   0.0111   0.0050  -0.0084  -0.0052   0.00   11.1
2173 237109.000  -1422329.1587  -4226311.5928   4546317.4302   1   8   0.0047   0.0086   0.0111   0.0050  -0.0084  -0.0052   0.00   11.6
2173 237110.000  -1422329.1570  -4226311.5930   4546317.4275   1   8   0.0047   0.0086   0.0111   0.0050  -0.0084  -0.0052   0.00    8.9
2173 237111.000  -1422329.1581  -4226311.5932   4546317.4284   1   8   0.0047   0.0086   0.0111   0.0050  -0.0084  -0.0052   0.00    9.1
2173 237112.000  -1422329.1567  -4226311.5864   4546317.4257   1   8   0.0047   0.0086   0.0111   0.0050  -0.0084  -0.0052   0.00    8.2
2173 237113.000  -1422329.1572  -4226311.5906   4546317.4287   1   8   0.0047   0.0086   0.0111   0.0050  -0.0084  -0.0052   0.00    7.8
2173 237114.000  -1422329.1555  -4226311.5908   4546317.4257   1   8   0.0047   0.0086   0.0111   0.0050  -0.0084  -0.0052   0.00    9.2
2173 237115.000  -1422329.1539  -4226311.5869   4546317.4253   1   8   0.0047   0.0086   0.0111   0.0050  -0.0084  -0.0052   0.00    8.6
2173 237116.000  -1422329.1564  -4226311.5894   4546317.4217   1   8   0.0047   0.0086   0.0111   0.0050  -0.0084  -0.0052   0.00    8.1
2173 237117.000  -1422329.1563  -4226311.5894   4546317.4282   1   8   0.0047   0.0086   0.0111   0.0050  -0.0084  -0.0052   0.00    6.9
2173 237118.000  -1422329.1569  -4226311.5844   4546317.4248   1   8   0.0047   0.0086   0.0111   0.0049  -0.0084  -0.0052   0.00    7.7
2173 237119.000  -1422329.1548  -4226311.5880   4546317.4213   1   8   0.0047   0.0086   0.0111   0.0049  -0.0084  -0.0052   0.00    6.4
2173 237120.000  -1422329.1542  -4226311.5853   4546317.4270   1   8   0.0047   0.0086   0.0111   0.0049  -0.0084  -0.0052   0.00    8.8
2173 237121.000  -1422329.1551  -4226311.5870   4546317.4215   1   8   0.0047   0.0086   0.0111   0.0049  -0.0084  -0.0052   0.00   10.2
2173 237122.000  -1422329.1550  -4226311.5876   4546317.4209   1   8   0.0047   0.0086   0.0111   0.0049  -0.0084  -0.0052   0.00   13.4
2173 237123.000  -1422329.1568  -4226311.5904   4546317.4249   1   8   0.0047   0.0086   0.0111   0.0049  -0.0084  -0.0052   0.00    8.9
2173 237124.000  -1422329.1566  -4226311.5906   4546317.4232   1   8   0.0047   0.0086   0.0111   0.0049  -0.0084  -0.0052   0.00    6.6
2173 237125.000  -1422329.1546  -4226311.5873   4546317.4177   1   8   0.0047   0.0086   0.0111   0.0049  -0.0084  -0.0052   0.00    9.4
2173 237126.000  -1422329.1533  -4226311.5876   4546317.4159   1   8   0.0047   0.0086   0.0111   0.0049  -0.0084  -0.0052   0.00    5.1
2173 237127.000  -1422329.1534  -4226311.5849   4546317.4175   1   8   0.0047   0.0086   0.0111   0.0049  -0.0084  -0.0052   0.00    8.2
2173 237128.000  -1422329.1525  -4226311.5876   4546317.4185   1   8   0.0047   0.0086   0.0111   0.0049  -0.0084  -0.0052   0.00    9.1
2173 237129.000  -1422329.1555  -4226311.5941   4546317.4231   1   8   0.0047   0.0086   0.0111   0.0049  -0.0084  -0.0052   0.00    9.5
2173 237130.000  -1422329.1559  -4226311.5926   4546317.4243   1   8   0.0047   0.0086   0.0111   0.0049  -0.0084  -0.0052   0.00    6.6
2173 237131.000  -1422329.1549  -4226311.5903   4546317.4200   1   8   0.0047   0.0086   0.0111   0.0049  -0.0084  -0.0052   0.00    6.5
2173 237132.000  -1422329.1563  -4226311.5945   4546317.4251   1   8   0.0047   0.0086   0.0111   0.0049  -0.0084  -0.0052   0.00    8.2
2173 237133.000  -1422329.1532  -4226311.5908   4546317.4215   1   8   0.0047   0.0086   0.0111   0.0049  -0.0084  -0.0052   0.00    7.5
2173 237134.000  -1422329.1539  -4226311.5904   4546317.4184   1   8   0.0047   0.0086   0.0111   0.0049  -0.0084  -0.0052   0.00   13.9
2173 237135.000  -1422329.1533  -4226311.5902   4546317.4187   1   8   0.0047   0.0086   0.0111   0.0049  -0.0084  -0.0052   0.00   14.6
2173 237136.000  -1422329.1545  -4226311.5885   4546317.4196   1   8   0.0047   0.0086   0.0111   0.0049  -0.0084  -0.0052   0.00   25.1
2173 237137.000  -1422329.1538  -4226311.5909   4546317.4190   1   8   0.0047   0.0086   0.0111   0.0049  -0.0084  -0.0052   0.00   10.2
2173 237138.000  -1422329.1537  -4226311.5884   4546317.4220   1   8   0.0047   0.0086   0.0111   0.0049  -0.0084  -0.0052   0.00   11.1
2173 237139.000  -1422329.1557  -4226311.5895   4546317.4205   1   8   0.0047   0.0086   0.0111   0.0049  -0.0084  -0.0052   0.00   10.1
2173 237140.000  -1422329.1540  -4226311.5917   4546317.4206   1   8   0.0047   0.0086   0.0111   0.0049  -0.0084  -0.0052   0.00   20.2
2173 237141.000  -1422329.1541  -4226311.5870   4546317.4170   1   8   0.0047   0.0086   0.0111   0.0049  -0.0084  -0.0052   0.00   13.3
2173 237142.000  -1422329.1560  -4226311.5920   4546317.4242   1   8   0.0047   0.0086   0.0111   0.0049  -0.0084  -0.0052   0.00   15.2
2173 237143.000  -1422329.1557  -4226311.5932   4546317.4189   1   8   0.0047   0.0086   0.0111   0.0049  -0.0084  -0.0052   0.00   14.9
2173 237144.000  -1422329.1565  -4226311.5947   4546317.4228   1   8   0.0047   0.0086   0.0111   0.0049  -0.0084  -0.0052   0.00   13.7
2173 237145.000  -1422329.1567  -4226311.5941   4546317.4242   1   8   0.0047   0.0086   0.0111   0.0049  -0.0084  -0.0052   0.00   13.7
2173 237146.000  -1422329.1556  -4226311.5908   4546317.4231   1   8   0.0047   0.0086   0.0111   0.0049  -0.0084  -0.0052   0.00   12.9
2173 237147.000  -1422329.1547  -4226311.5906   4546317.4216   1   8   0.0047   0.0086   0.0111   0.0049  -0.0084  -0.0052   0.00   10.8
2173 237148.000  -1422329.1584  -4226311.5928   4546317.4218   1   8   0.0047   0.0086   0.0111   0.0049  -0.0084  -0.0052   0.00   13.8
2173 237149.000  -1422329.1514  -4226311.5892   4546317.4228   1   8   0.0047   0.0086   0.0111   0.0049  -0.0084  -0.0052   0.00   16.5
2173 237150.000  -1422329.1536  -4226311.5921   4546317.4247   1   8   0.0047   0.0086   0.0111   0.0049  -0.0084  -0.0052   0.00   12.3
2173 237151.000  -1422329.1525  -4226311.5928   4546317.4238   1   8   0.0047   0.0086   0.0111   0.0049  -0.0084  -0.0052   0.00   16.5
2173 237152.000  -1422329.1550  -4226311.5929   4546317.4191   1   8   0.0047   0.0086   0.0111   0.0049  -0.0084  -0.0052   0.00   16.5
2173 237153.000  -1422329.1540  -4226311.5924   4546317.4249   1   8   0.0047   0.0086   0.0111   0.0049  -0.0084  -0.0052   0.00   15.5
2173 237154.000  -1422329.1528  -4226311.5942   4546317.4210   1   8   0.0047   0.0086   0.0111   0.0049  -0.0084  -0.0052   0.00   13.4
2173 237155.000  -1422329.1551  -4226311.5919   4546317.4195   1   8   0.0047   0.0086   0.0111   0.0049  -0.0084  -0.0052   0.00   11.1
2173 237156.000  -1422329.1558  -4226311.5943   4546317.4210   1   8   0.0047   0.0086   0.0111   0.0049  -0.0084  -0.0052   0.00   10.7
2173 237157.000  -1422329.1582  -4226311.5950   4546317.4253   1   8   0.0047   0.0086   0.0111   0.0049  -0.0084  -0.0052   0.00   13.0
2173 237158.000  -1422329.1556  -4226311.5905   4546317.4219   1   8   0.0047   0.0086   0.0111   0.0049  -0.0084  -0.0052   0.00   17.1
2173 237159.000  -1422329.1547  -4226311.5962   4546317.4258   1   8   0.0047   0.0086   0.0111   0.0049  -0.0084  -0.0052   0.00    9.7
2173 237160.000  -1422329.1555  -4226311.5925   4546317.4239   1   8   0.0047   0.0086   0.0111   0.0049  -0.0084  -0.0052   0.00   12.5
2173 237161.000  -1422329.1531  -4226311.5868   4546317.4194   1   8   0.0047   0.0086   0.0111   0.0049  -0.0084  -0.0052   0.00   10.6
2173 237162.000  -1422329.1523  -4226311.5876   4546317.4167   1   8   0.0047   0.0086   0.0111   0.0049  -0.0084  -0.0052   0.00    7.6
2173 237163.000  -1422329.1559  -4226311.5940   4546317.4234   1   8   0.0047   0.0086   0.0111   0.0049  -0.0084  -0.0052   0.00   15.4
2173 237164.000  -1422329.1512  -4226311.5878   4546317.4168   1   8   0.0047   0.0086   0.0111   0.0049  -0.0084  -0.0052   0.00   13.9
2173 237165.000  -1422329.1524  -4226311.5902   4546317.4163   1   8   0.0047   0.0086   0.0111   0.0049  -0.0084  -0.0052   0.00    9.1
2173 237166.000  -1422329.1553  -4226311.5915   4546317.4216   1   8   0.0047   0.0086   0.0111   0.0049  -0.0084  -0.0052   0.00   10.6
2173 237167.000  -1422329.1531  -4226311.5903   4546317.4190   1   8   0.0047   0.0086   0.0111   0.0049  -0.0084  -0.0052   0.00   10.6
2173 237168.000  -1422329.1547  -4226311.5895   4546317.4209   1   8   0.0047   0.0086   0.0111   0.0049  -0.0084  -0.0052   0.00   11.1
2173 237169.000  -1422329.1523  -4226311.5915   4546317.4235   1   8   0.0047   0.0086   0.0111   0.0049  -0.0084  -0.0052   0.00    7.5
2173 237170.000  -1422329.1565  -4226311.5905   4546317.4165   1   8   0.0047   0.0086   0.0111   0.0049  -0.0084  -0.0052   0.00    9.2
2173 237171.000  -1422329.1552  -4226311.5959   4546317.4254   1   8   0.0047   0.0086   0.0111   0.0049  -0.0084  -0.0052   0.00    6.0
2173 237172.000  -1422329.1536  -4226311.5916   4546317.4245   1   8   0.0047   0.0086   0.0111   0.0049  -0.0084  -0.0052   0.00    9.0
2173 237173.000  -1422329.1538  -4226311.5911   4546317.4209   1   8   0.0047   0.0086   0.0111   0.0049  -0.0084  -0.0052   0.00   12.1
2173 237174.000  -1422329.1562  -4226311.5916   4546317.4221   1   8   0.0047   0.0086   0.0111   0.0049  -0.0084  -0.0052   0.00   10.2
2173 237175.000  -1422329.1539  -4226311.5915   4546317.4227   1   8   0.0047   0.0086   0.0111   0.0049  -0.0084  -0.0052   0.00    9.3
2173 237176.000  -1422329.1567  -4226311.5965   4546317.4272   1   8   0.0047   0.0086   0.0111   0.0049  -0.0084  -0.0052   0.00   10.6
2173 237177.000  -1422329.1580  -4226311.5959   4546317.4251   1   8   0.0047   0.0086   0.0111   0.0049  -0.0084  -0.0052   0.00   10.2
2173 237178.000  -1422329.1540  -4226311.5923   4546317.4170   1   8   0.0047   0.0086   0.0111   0.0049  -0.0084  -0.0052   0.00    6.9
2173 237179.000  -1422329.1552  -4226311.5979   4546317.4243   1   8   0.0047   0.0086   0.0111   0.0049  -0.0084  -0.0052   0.00   10.3
2173 237180.000  -1422329.1559  -4226311.5970   4546317.4242   1   8   0.0047   0.0086   0.0111   0.0049  -0.0084  -0.0052   0.00    7.1
2173 237181.000  -1422329.1549  -4226311.5934   4546317.4211   1   8   0.0047   0.0086   0.0111   0.0049  -0.0084  -0.0052   0.00   11.7
2173 237182.000  -1422329.1582  -4226311.5996   4546317.4251   1   8   0.0047   0.0086   0.0111   0.0049  -0.0084  -0.0052   0.00   12.0
2173 237183.000  -1422329.1551  -4226311.5949   4546317.4216   1   8   0.0047   0.0086   0.0111   0.0049  -0.0084  -0.0052   0.00   10.3
2173 237184.000  -1422329.1547  -4226311.5932   4546317.4133   1   8   0.0047   0.0086   0.0111   0.0049  -0.0084  -0.0052   0.00    9.3
2173 237185.000  -1422329.1598  -4226311.6025   4546317.4302   1   8   0.0047   0.0086   0.0111   0.0049  -0.0084  -0.0052   0.00   10.0
2173 237186.000  -1422329.1553  -4226311.5968   4546317.4259   1   8   0.0047   0.0086   0.0111   0.0049  -0.0084  -0.0052   0.00   11.7
2173 237187.000  -1422329.1566  -4226311.5984   4546317.4245   1   8   0.0047   0.0086   0.0111   0.0049  -0.0084  -0.0052   0.00   10.2
2173 237188.000  -1422329.1560  -4226311.5919   4546317.4216   1   8   0.0047   0.0086   0.0111   0.0049  -0.0084  -0.0052   0.00    9.6
2173 237189.000  -1422329.1571  -4226311.5927   4546317.4188   1   8   0.0047   0.0086   0.0111   0.0049  -0.0084  -0.0052   0.00   11.0
2173 237190.000  -1422329.1544  -4226311.5923   4546317.4186   1   8   0.0047   0.0086   0.0111   0.0049  -0.0084  -0.0052   0.00    7.8
2173 237191.000  -1422329.1556  -4226311.5950   4546317.4181   1   8   0.0047   0.0086   0.0111   0.0049  -0.0084  -0.0052   0.00    9.9
2173 237192.000  -1422329.1567  -4226311.6028   4546317.4250   1   8   0.0047   0.0086   0.0111   0.0049  -0.0084  -0.0052   0.00    8.7
2173 237193.000  -1422329.1574  -4226311.6007   4546317.4285   1   8   0.0047   0.0086   0.0111   0.0049  -0.0084  -0.0052   0.00    8.7
2173 237194.000  -1422329.1546  -4226311.5943   4546317.4199   1   8   0.0047   0.0086   0.0111   0.0049  -0.0084  -0.0052   0.00   12.1
2173 237195.000  -1422329.1560  -4226311.5946   4546317.4184   1   8   0.0047   0.0086   0.0111   0.0049  -0.0084  -0.0052   0.00   13.9
2173 237196.000  -1422329.1535  -4226311.5921   4546317.4205   1   8   0.0047   0.0086   0.0111   0.0049  -0.0084  -0.0052   0.00   12.0
2173 237197.000  -1422329.1554  -4226311.5945   4546317.4216   1   8   0.0047   0.0086   0.0111   0.0049  -0.0084  -0.0052   0.00   10.4
2173 237198.000  -1422329.1578  -4226311.5959   4546317.4235   1   8   0.0047   0.0086   0.0111   0.0049  -0.0084  -0.0052   0.00   12.7
2173 237199.000  -1422329.1524  -4226311.5936   4546317.4207   1   8   0.0047   0.0086   0.0111   0.0049  -0.0084  -0.0052   0.00   11.0
2173 237200.000  -1422329.1510  -4226311.5899   4546317.4138   1   8   0.0047   0.0086   0.0111   0.0049  -0.0084  -0.0052   0.00   10.0
2173 237201.000  -1422329.1572  -4226311.5961   4546317.4251   1   8   0.0047   0.0086   0.0111   0.0049  -0.0084  -0.0052   0.00    9.8
2173 237202.000  -1422329.1565  -4226311.5941   4546317.4206   1   8   0.0047   0.0086   0.0112   0.0049  -0.0084  -0.0052   0.00    7.5
2173 237203.000  -1422329.1543  -4226311.5936   4546317.4238   1   8   0.0047   0.0086   0.0112   0.0049  -0.0084  -0.0052   0.00    9.6
2173 237204.000  -1422329.1544  -4226311.5936   4546317.4208   1   8   0.0047   0.0086   0.0112   0.0049  -0.0084  -0.0052   0.00   11.2
2173 237205.000  -1422329.1548  -4226311.5940   4546317.4250   1   8   0.0047   0.0086   0.0112   0.0049  -0.0084  -0.0052   0.00   11.0
2173 237206.000  -1422329.1549  -4226311.5914   4546317.4186   1   8   0.0047   0.0086   0.0112   0.0049  -0.0084  -0.0052   0.00   10.8
2173 237207.000  -1422329.1538  -4226311.5904   4546317.4216   1   8   0.0047   0.0086   0.0112   0.0049  -0.0084  -0.0052   0.00   13.3
2173 237208.000  -1422329.1544  -4226311.5984   4546317.4272   1   8   0.0047   0.0086   0.0112   0.0049  -0.0084  -0.0052   0.00   11.1
2173 237209.000  -1422329.1547  -4226311.5922   4546317.4259   1   8   0.0047   0.0086   0.0112   0.0049  -0.0084  -0.0052   0.00   10.9
2173 237210.000  -1422329.1554  -4226311.5952   4546317.4202   1   8   0.0047   0.0086   0.0112   0.0049  -0.0084  -0.0052   0.00   12.7
2173 237211.000  -1422329.1541  -4226311.5950   4546317.4213   1   8   0.0047   0.0086   0.0112   0.0049  -0.0084  -0.0052   0.00   13.4
2173 237212.000  -1422329.1564  -4226311.5948   4546317.4265   1   8   0.0047   0.0086   0.0112   0.0049  -0.0084  -0.0052   0.00   11.5
2173 237213.000  -1422329.1569  -4226311.5968   4546317.4248   1   8   0.0047   0.0086   0.0112   0.0049  -0.0084  -0.0052   0.00   11.2
2173 237214.000  -1422329.1576  -4226311.5993   4546317.4289   1   8   0.0047   0.0086   0.0112   0.0049  -0.0084  -0.0052   0.00   11.5
2173 237215.000  -1422329.1534  -4226311.5890   4546317.4193   1   8   0.0047   0.0086   0.0112   0.0049  -0.0084  -0.0052   0.00    9.1
2173 237216.000  -1422329.1547  -4226311.5923   4546317.4237   1   8   0.0047   0.0086   0.0112   0.0049  -0.0084  -0.0052   0.00    8.3
2173 237217.000  -1422329.1547  -4226311.5924   4546317.4229   1   8   0.0047   0.0086   0.0112   0.0049  -0.0084  -0.0052   0.00   13.0
2173 237218.000  -1422329.1534  -4226311.5892   4546317.4208   1   8   0.0047   0.0086   0.0112   0.0049  -0.0084  -0.0052   0.00    7.6
2173 237219.000  -1422329.1555  -4226311.5922   4546317.4228   1   8   0.0047   0.0086   0.0112   0.0049  -0.0084  -0.0052   0.00   10.7
2173 237220.000  -1422329.1567  -4226311.5975   4546317.4300   1   8   0.0047   0.0086   0.0112   0.0049  -0.0084  -0.0052   0.00   10.7
2173 237221.000  -1422329.1529  -4226311.5923   4546317.4229   1   8   0.0047   0.0086   0.0112   0.0049  -0.0084  -0.0052   0.00    7.9
2173 237222.000  -1422329.1530  -4226311.5893   4546317.4260   1   8   0.0047   0.0086   0.0112   0.0049  -0.0084  -0.0052   0.00   10.0
2173 237223.000  -1422329.1559  -4226311.5910   4546317.4239   1   8   0.0047   0.0086   0.0112   0.0049  -0.0084  -0.0052   0.00   10.2
2173 237224.000  -1422329.1546  -4226311.5945   4546317.4255   1   8   0.0047   0.0086   0.0112   0.0049  -0.0084  -0.0052   0.00    9.9
2173 237225.000  -1422329.1575  -4226311.5950   4546317.4289   1   8   0.0047   0.0086   0.0112   0.0049  -0.0084  -0.0052   0.00   10.6
2173 237226.000  -1422329.1562  -4226311.5936   4546317.4246   1   8   0.0047   0.0086   0.0112   0.0049  -0.0084  -0.0052   0.00   11.2
2173 237227.000  -1422329.1552  -4226311.5924   4546317.4220   1   8   0.0047   0.0086   0.0112   0.0049  -0.0084  -0.0052   0.00   10.8
2173 237228.000  -1422329.1561  -4226311.5945   4546317.4294   1   8   0.0047   0.0086   0.0112   0.0049  -0.0084  -0.0052   0.00    7.7
2173 237229.000  -1422329.1545  -4226311.5967   4546317.4287   1   8   0.0047   0.0086   0.0112   0.0049  -0.0084  -0.0052   0.00    8.4
2173 237230.000  -1422329.1556  -4226311.5902   4546317.4216   1   8   0.0047   0.0086   0.0112   0.0049  -0.0084  -0.0052   0.00    8.5
2173 237231.000  -1422329.1520  -4226311.5871   4546317.4232   1   8   0.0047   0.0086   0.0112   0.0049  -0.0084  -0.0052   0.00    8.3
2173 237232.000  -1422329.1552  -4226311.5927   4546317.4241   1   8   0.0047   0.0086   0.0112   0.0049  -0.0084  -0.0052   0.00    8.6
2173 237233.000  -1422329.1531  -4226311.5921   4546317.4219   1   8   0.0047   0.0086   0.0112   0.0049  -0.0084  -0.0052   0.00    7.3
2173 237234.000  -1422329.1571  -4226311.5985   4546317.4299   1   8   0.0047   0.0086   0.0112   0.0049  -0.0084  -0.0052   0.00   11.7
2173 237235.000  -1422329.1543  -4226311.5961   4546317.4234   1   8   0.0047   0.0086   0.0112   0.0049  -0.0084  -0.0052   0.00    9.6
2173 237236.000  -1422329.1546  -4226311.5905   4546317.4233   1   8   0.0047   0.0086   0.0112   0.0049  -0.0084  -0.0052   0.00    9.0
2173 237237.000  -1422329.1555  -4226311.5964   4546317.4284   1   8   0.0047   0.0086   0.0112   0.0049  -0.0084  -0.0052   0.00   15.3
2173 237238.000  -1422329.1542  -4226311.5933   4546317.4248   1   8   0.0047   0.0086   0.0112   0.0049  -0.0084  -0.0052   0.00   11.0
2173 237239.000  -1422329.1542  -4226311.5921   4546317.4220   1   8   0.0047   0.0086   0.0112   0.0049  -0.0084  -0.0052   0.00   16.1
2173 237240.000  -1422329.1567  -4226311.5961   4546317.4276   1   8   0.0047   0.0086   0.0112   0.0049  -0.0084  -0.0052   0.00   11.2
2173 237241.000  -1422329.1560  -4226311.5918   4546317.4221   1   8   0.0047   0.0086   0.0112   0.0049  -0.0084  -0.0052   0.00   14.2
2173 237242.000  -1422329.1564  -4226311.5914   4546317.4264   1   8   0.0047   0.0086   0.0112   0.0049  -0.0084  -0.0052   0.00   13.3
2173 237243.000  -1422329.1566  -4226311.5928   4546317.4287   1   8   0.0047   0.0086   0.0112   0.0049  -0.0084  -0.0052   0.00   12.5
2173 237244.000  -1422329.1539  -4226311.5932   4546317.4229   1   8   0.0047   0.0086   0.0112   0.0049  -0.0084  -0.0052   0.00   11.8
2173 237245.000  -1422329.1561  -4226311.5946   4546317.4266   1   8   0.0047   0.0086   0.0112   0.0049  -0.0084  -0.0052   0.00   12.4
2173 237246.000  -1422329.1593  -4226311.5991   4546317.4307   1   8   0.0047   0.0086   0.0112   0.0049  -0.0084  -0.0052   0.00   11.5
2173 237247.000  -1422329.1544  -4226311.5919   4546317.4184   1   8   0.0047   0.0086   0.0112   0.0049  -0.0084  -0.0052   0.00    8.6
2173 237248.000  -1422329.1559  -4226311.5941   4546317.4266   1   8   0.0047   0.0086   0.0112   0.0049  -0.0084  -0.0052   0.00   12.2
2173 237249.000  -1422329.1543  -4226311.5932   4546317.4246   1   8   0.0047   0.0086   0.0112   0.0049  -0.0084  -0.0052   0.00    8.9
2173 237250.000  -1422329.1552  -4226311.5908   4546317.4214   1   8   0.0047   0.0086   0.0112   0.0049  -0.0084  -0.0052   0.00   17.8
2173 237251.000  -1422329.1555  -4226311.5880   4546317.4193   1   8   0.0047   0.0086   0.0112   0.0049  -0.0084  -0.0052   0.00   11.7
2173 237252.000  -1422329.1565  -4226311.5976   4546317.4290   1   8   0.0047   0.0086   0.0112   0.0049  -0.0084  -0.0052   0.00   14.8
2173 237253.000  -1422329.1551  -4226311.5903   4546317.4204   1   8   0.0047   0.0086   0.0112   0.0049  -0.0084  -0.0052   0.00   16.8
2173 237254.000  -1422329.1554  -4226311.5945   4546317.4293   1   8   0.0047   0.0086   0.0112   0.0049  -0.0084  -0.0052   0.00   13.3
2173 237255.000  -1422329.1572  -4226311.5966   4546317.4295   1   8   0.0047   0.0086   0.0112   0.0049  -0.0084  -0.0052   0.00   16.5
2173 237256.000  -1422329.1557  -4226311.5915   4546317.4215   1   8   0.0047   0.0086   0.0112   0.0049  -0.0084  -0.0052   0.00   18.5
2173 237257.000  -1422329.1557  -4226311.5932   4546317.4223   1   8   0.0047   0.0086   0.0112   0.0049  -0.0084  -0.0052   0.00   17.1
2173 237258.000  -1422329.1549  -4226311.5924   4546317.4234   1   8   0.0047   0.0086   0.0112   0.0049  -0.0084  -0.0052   0.00   14.0
2173 237259.000  -1422329.1575  -4226311.5941   4546317.4265   1   8   0.0047   0.0086   0.0112   0.0049  -0.0084  -0.0052   0.00   14.1
2173 237260.000  -1422329.1537  -4226311.5905   4546317.4239   1   8   0.0047   0.0086   0.0112   0.0049  -0.0084  -0.0052   0.00   20.6
2173 237261.000  -1422329.1563  -4226311.5954   4546317.4216   1   8   0.0047   0.0086   0.0112   0.0049  -0.0084  -0.0052   0.00   16.4
2173 237262.000  -1422329.1573  -4226311.5976   4546317.4320   1   8   0.0047   0.0086   0.0112   0.0049  -0.0084  -0.0052   0.00   21.6
2173 237263.000  -1422329.1549  -4226311.5904   4546317.4227   1   8   0.0047   0.0086   0.0112   0.0049  -0.0084  -0.0052   0.00   23.0
2173 237264.000  -1422329.1543  -4226311.5965   4546317.4261   1   8   0.0047   0.0086   0.0112   0.0049  -0.0084  -0.0052   0.00   12.6
2173 237265.000  -1422329.1563  -4226311.5942   4546317.4202   1   8   0.0047   0.0086   0.0112   0.0049  -0.0084  -0.0052   0.00   11.8
2173 237266.000  -1422329.1554  -4226311.5954   4546317.4257   1   8   0.0047   0.0086   0.0112   0.0049  -0.0084  -0.0052   0.00   22.5
2173 237267.000  -1422329.1560  -4226311.5946   4546317.4233   1   8   0.0047   0.0086   0.0112   0.0049  -0.0084  -0.0052   0.00   15.1
2173 237268.000  -1422329.1567  -4226311.5937   4546317.4221   1   8   0.0047   0.0086   0.0112   0.0049  -0.0084  -0.0052   0.00   17.3
2173 237269.000  -1422329.1585  -4226311.6006   4546317.4324   1   8   0.0047   0.0086   0.0112   0.0049  -0.0084  -0.0052   0.00   14.2
2173 237270.000  -1422329.1538  -4226311.5906   4546317.4172   1   8   0.0047   0.0086   0.0112   0.0049  -0.0084  -0.0052   0.00   10.4
2173 237271.000  -1422329.1553  -4226311.5933   4546317.4234   1   8   0.0047   0.0086   0.0112   0.0049  -0.0084  -0.0052   0.00   13.4
2173 237272.000  -1422329.1560  -4226311.5921   4546317.4196   1   8   0.0047   0.0086   0.0112   0.0049  -0.0084  -0.0052   0.00   11.4
2173 237273.000  -1422329.1541  -4226311.5929   4546317.4254   1   8   0.0047   0.0086   0.0112   0.0049  -0.0084  -0.0052   0.00   16.8
2173 237274.000  -1422329.1553  -4226311.5954   4546317.4284   1   8   0.0047   0.0086   0.0112   0.0049  -0.0084  -0.0052   0.00   17.3
2173 237275.000  -1422329.1542  -4226311.5926   4546317.4232   1   8   0.0047   0.0086   0.0112   0.0049  -0.0084  -0.0052   0.00   13.3
2173 237276.000  -1422329.1552  -4226311.5926   4546317.4205   1   8   0.0047   0.0086   0.0112   0.0049  -0.0084  -0.0052   0.00   18.5
2173 237277.000  -1422329.1529  -4226311.5902   4546317.4191   1   8   0.0047   0.0086   0.0112   0.0049  -0.0084  -0.0052   0.00   22.3
2173 237278.000  -1422329.1540  -4226311.5911   4546317.4214   1   8   0.0047   0.0086   0.0112   0.0049  -0.0084  -0.0052   0.00   11.8
2173 237279.000  -1422329.1548  -4226311.5981   4546317.4266   1   8   0.0047   0.0086   0.0112   0.0049  -0.0084  -0.0052   0.00   14.1
2173 237280.000  -1422329.1548  -4226311.5949   4546317.4248   1   8   0.0047   0.0086   0.0112   0.0049  -0.0084  -0.0052   0.00   20.6
2173 237281.000  -1422329.1553  -4226311.5946   4546317.4243   1   8   0.0047   0.0086   0.0112   0.0049  -0.0084  -0.0052   0.00   15.8
2173 237282.000  -1422329.1552  -4226311.5928   4546317.4243   1   8   0.0047   0.0086   0.0112   0.0049  -0.0084  -0.0052   0.00   20.3
2173 237283.000  -1422329.1547  -4226311.5914   4546317.4157   1   8   0.0047   0.0086   0.0112   0.0049  -0.0084  -0.0052   0.00   18.4
2173 237284.000  -1422329.1538  -4226311.5927   4546317.4218   1   8   0.0047   0.0086   0.0112   0.0049  -0.0084  -0.0052   0.00   18.1
2173 237285.000  -1422329.1558  -4226311.5924   4546317.4214   1   8   0.0047   0.0086   0.0112   0.0049  -0.0084  -0.0052   0.00   13.6
2173 237286.000  -1422329.1529  -4226311.5890   4546317.4197   1   8   0.0047   0.0086   0.0112   0.0049  -0.0084  -0.0052   0.00   12.8
2173 237287.000  -1422329.1531  -4226311.5899   4546317.4215   1   8   0.0047   0.0086   0.0112   0.0049  -0.0084  -0.0052   0.00   14.6
2173 237288.000  -1422329.1554  -4226311.5951   4546317.4195   1   8   0.0047   0.0086   0.0112   0.0049  -0.0084  -0.0052   0.00   15.5
2173 237289.000  -1422329.1530  -4226311.5906   4546317.4169   1   8   0.0047   0.0086   0.0112   0.0049  -0.0084  -0.0052   0.00    9.6
2173 237290.000  -1422329.1517  -4226311.5902   4546317.4134   1   8   0.0047   0.0086   0.0112   0.0049  -0.0084  -0.0052   0.00   10.2
2173 237291.000  -1422329.1540  -4226311.5930   4546317.4197   1   8   0.0047   0.0086   0.0112   0.0049  -0.0084  -0.0052   0.00   10.5
2173 237292.000  -1422329.1546  -4226311.5896   4546317.4195   1   8   0.0047   0.0086   0.0112   0.0049  -0.0084  -0.0052   0.00   13.3
2173 237293.000  -1422329.1515  -4226311.5919   4546317.4185   1   8   0.0047   0.0086   0.0112   0.0049  -0.0084  -0.0052   0.00   13.1
2173 237294.000  -1422329.1553  -4226311.5955   4546317.4251   1   8   0.0047   0.0086   0.0112   0.0049  -0.0084  -0.0052   0.00    9.9
2173 237295.000  -1422329.1540  -4226311.5899   4546317.4149   1   8   0.0047   0.0086   0.0112   0.0049  -0.0084  -0.0052   0.00   12.5
2173 237296.000  -1422329.1525  -4226311.5914   4546317.4237   1   8   0.0047   0.0086   0.0112   0.0049  -0.0084  -0.0052   0.00   12.7
2173 237297.000  -1422329.1565  -4226311.5996   4546317.4292   1   8   0.0047   0.0086   0.0112   0.0049  -0.0084  -0.0052   0.00   11.2
2173 237298.000  -1422329.1557  -4226311.5947   4546317.4271   1   8   0.0047   0.0086   0.0112   0.0049  -0.0084  -0.0052   0.00   10.8
2173 237299.000  -1422329.1532  -4226311.5934   4546317.4221   1   8   0.0047   0.0086   0.0112   0.0049  -0.0084  -0.0052   0.00    6.7
2173 237300.000  -1422329.1527  -4226311.5912   4546317.4223   1   8   0.0047   0.0086   0.0112   0.0049  -0.0084  -0.0052   0.00    8.5
2173 237301.000  -1422329.1541  -4226311.5944   4546317.4253   1   8   0.0047   0.0086   0.0112   0.0049  -0.0084  -0.0052   0.00   11.7
2173 237302.000  -1422329.1535  -4226311.5920   4546317.4229   1   8   0.0047   0.0086   0.0112   0.0049  -0.0084  -0.0052   0.00   13.0
2173 237303.000  -1422329.1523  -4226311.5892   4546317.4207   1   8   0.0047   0.0086   0.0112   0.0049  -0.0084  -0.0052   0.00    7.9
2173 237304.000  -1422329.1530  -4226311.5922   4546317.4251   1   8   0.0047   0.0086   0.0112   0.0049  -0.0084  -0.0052   0.00   10.8
