% program   : rnx2rtkp ver.2.4.3 b31
% inp file  : ngs/21_09_01_11_12_51_talh.obs
% inp file  : ngs/21_09_01_11_12_51_talh_SW.obs
% inp file  : ngs/21_09_01_11_12_51_brdc.nav
% obs start : 2021/09/01 11:00:00.0 GPST (week2173 298800.0s)
% obs end   : 2021/09/01 11:59:59.0 GPST (week2173 302399.0s)
% ref pos   :   546420.2590  -5528946.1897   3122095.9476
%
% (x/y/z-ecef=WGS84,Q=1:fix,2:float,3:sbas,4:dgps,5:single,6:ppp,ns=# of satellites)
%  GPST              x-ecef(m)      y-ecef(m)      z-ecef(m)   Q  ns   sdx(m)   sdy(m)   sdz(m)  sdxy(m)  sdyz(m)  sdzx(m) age(s)  ratio
2173 299546.000    541527.3199  -5479445.8817   3208362.0643   2   6   0.6693   1.5957   0.7501   0.4632  -0.9508  -0.3930 -30.00    1.7
2173 299547.000    541527.3091  -5479445.9037   3208362.0733   2   6   0.4757   1.1355   0.5348   0.3291  -0.6776  -0.2794 -29.00    1.7
2173 299548.000    541527.3089  -5479445.8997   3208362.0720   2   6   0.3894   0.9298   0.4380   0.2693  -0.5550  -0.2287 -28.00    1.7
2173 299549.000    541527.3068  -5479445.9064   3208362.0735   2   6   0.3378   0.8067   0.3800   0.2335  -0.4815  -0.1983 -27.00    1.7
2173 299550.000    541527.3060  -5479445.9107   3208362.0742   2   6   0.3025   0.7224   0.3403   0.2089  -0.4311  -0.1775 -26.00    1.6
2173 299551.000    541527.3083  -5479445.9119   3208362.0743   2   6   0.2764   0.6601   0.3110   0.1908  -0.3939  -0.1622 -25.00    1.6
2173 299552.000    541527.3074  -5479445.9096   3208362.0739   2   6   0.2561   0.6116   0.2881   0.1767  -0.3649  -0.1502 -24.00    1.6
2173 299553.000    541527.3061  -5479445.9140   3208362.0763   2   6   0.2397   0.5723   0.2696   0.1652  -0.3414  -0.1405 -23.00    1.6
2173 299554.000    541527.3053  -5479445.9087   3208362.0734   2   6   0.2261   0.5397   0.2543   0.1557  -0.3220  -0.1325 -22.00    1.5
2173 299555.000    541527.3060  -5479445.9026   3208362.0730   2   6   0.2145   0.5121   0.2413   0.1476  -0.3055  -0.1257 -21.00    1.5
2173 299556.000    541527.3040  -5479445.9032   3208362.0724   2   6   0.2045   0.4883   0.2301   0.1407  -0.2913  -0.1198 -20.00    1.5
2173 299557.000    541527.3044  -5479445.8991   3208362.0735   2   6   0.1958   0.4674   0.2203   0.1346  -0.2789  -0.1146 -19.00    1.4
2173 299558.000    541527.3015  -5479445.9030   3208362.0750   2   6   0.1881   0.4489   0.2116   0.1291  -0.2679  -0.1101 -18.00    1.4
2173 299559.000    541527.3024  -5479445.8994   3208362.0706   2   6   0.1812   0.4325   0.2039   0.1243  -0.2581  -0.1060 -17.00    1.4
2173 299560.000    541527.3031  -5479445.9053   3208362.0741   2   6   0.1750   0.4176   0.1969   0.1199  -0.2492  -0.1023 -16.00    1.3
2173 299561.000    541527.2997  -5479445.9112   3208362.0742   2   6   0.1693   0.4041   0.1907   0.1160  -0.2412  -0.0990 -15.00    1.3
2173 299562.000    541527.2998  -5479445.9088   3208362.0733   2   6   0.1642   0.3918   0.1849   0.1124  -0.2339  -0.0960 -14.00    1.3
2173 299563.000    541527.3012  -5479445.9105   3208362.0706   2   6   0.1595   0.3805   0.1796   0.1090  -0.2272  -0.0932 -13.00    1.2
2173 299564.000    541527.2991  -5479445.9038   3208362.0691   2   6   0.1551   0.3701   0.1748   0.1060  -0.2211  -0.0906 -12.00    1.2
2173 299565.000    541527.2987  -5479445.9099   3208362.0711   2   6   0.1511   0.3605   0.1703   0.1031  -0.2153  -0.0882 -11.00    1.1
2173 299566.000    541527.3005  -5479445.9176   3208362.0714   2   6   0.1474   0.3515   0.1661   0.1005  -0.2100  -0.0860 -10.00    1.1
2173 299567.000    541527.3007  -5479445.9169   3208362.0712   2   6   0.1439   0.3431   0.1623   0.0980  -0.2051  -0.0839  -9.00    1.0
2173 299568.000    541527.2998  -5479445.9184   3208362.0706   2   6   0.1406   0.3353   0.1586   0.0957  -0.2004  -0.0820  -8.00    1.0
2173 299569.000    541527.2968  -5479445.9208   3208362.0729   2   6   0.1376   0.3280   0.1552   0.0935  -0.1961  -0.0802  -7.00    1.0
2173 299570.000    541527.2968  -5479445.9296   3208362.0756   2   6   0.1347   0.3211   0.1520   0.0915  -0.1920  -0.0785  -6.00    1.1
2173 299571.000    541527.2972  -5479445.9327   3208362.0766   2   6   0.1320   0.3146   0.1490   0.0896  -0.1882  -0.0769  -5.00    1.1
2173 299572.000    541527.2987  -5479445.9385   3208362.0792   2   6   0.1295   0.3085   0.1462   0.0878  -0.1845  -0.0754  -4.00    1.0
2173 299573.000    541527.2987  -5479445.9374   3208362.0798   2   6   0.1271   0.3027   0.1435   0.0860  -0.1811  -0.0739  -3.00    1.0
2173 299574.000    541527.2976  -5479445.9436   3208362.0815   2   6   0.1248   0.2972   0.1409   0.0844  -0.1778  -0.0726  -2.00    1.0
2173 299575.000    541527.2967  -5479445.9510   3208362.0840   2   6   0.1227   0.2920   0.1385   0.0829  -0.1748  -0.0713  -1.00    1.0
2173 299576.000    541527.2989  -5479445.9537   3208362.0838   2   6   0.1206   0.2871   0.1362   0.0814  -0.1718  -0.0701   0.00    1.1
2173 299577.000    541527.2964  -5479445.9637   3208362.0871   2   6   0.1187   0.2825   0.1340   0.0800  -0.1690  -0.0689   0.00    1.1
2173 299578.000    541527.2980  -5479445.9652   3208362.0869   2   6   0.1169   0.2780   0.1320   0.0787  -0.1664  -0.0678   0.00    1.1
2173 299579.000    541527.2965  -5479445.9703   3208362.0907   2   6   0.1151   0.2737   0.1300   0.0774  -0.1638  -0.0668   0.00    1.1
2173 299580.000    541527.2957  -5479445.9742   3208362.0932   2   6   0.1135   0.2697   0.1281   0.0762  -0.1614  -0.0657   0.00    1.1
2173 299581.000    541527.2938  -5479445.9783   3208362.0969   2   6   0.1119   0.2657   0.1262   0.0750  -0.1590  -0.0648   0.00    1.1
2173 299582.000    541527.2918  -5479445.9791   3208362.0998   2   6   0.1103   0.2620   0.1245   0.0739  -0.1568  -0.0639   0.00    1.1
2173 299583.000    541527.2930  -5479445.9918   3208362.1059   2   6   0.1088   0.2584   0.1228   0.0728  -0.1546  -0.0630   0.00    1.1
2173 299584.000    541527.2884  -5479445.9934   3208362.1116   2   6   0.1074   0.2549   0.1212   0.0717  -0.1525  -0.0621   0.00    1.0
2173 299585.000    541527.2864  -5479446.0003   3208362.1201   2   6   0.1060   0.2515   0.1196   0.0707  -0.1505  -0.0612   0.00    1.0
2173 299586.000    541527.2876  -5479445.9927   3208362.1181   2   6   0.1047   0.2483   0.1181   0.0697  -0.1486  -0.0604   0.00    1.1
2173 299587.000    541527.2886  -5479445.9940   3208362.1204   2   6   0.1035   0.2451   0.1166   0.0687  -0.1467  -0.0597   0.00    1.1
2173 299588.000    541527.2826  -5479446.0097   3208362.1312   2   6   0.1022   0.2421   0.1152   0.0678  -0.1449  -0.0589   0.00    1.1
2173 299589.000    541527.2785  -5479446.0243   3208362.1386   2   6   0.1010   0.2392   0.1138   0.0669  -0.1431  -0.0582   0.00    1.1
2173 299590.000    541527.2819  -5479446.0080   3208362.1340   2   7   0.0990   0.2326   0.1114   0.0618  -0.1390  -0.0556   0.00    1.0
2173 299591.000    541527.2842  -5479445.9923   3208362.1258   2   7   0.0972   0.2266   0.1091   0.0570  -0.1353  -0.0533   0.00    1.0
2173 299592.000    541527.2902  -5479445.9854   3208362.1238   2   8   0.0953   0.2201   0.1069   0.0537  -0.1314  -0.0515   0.00    1.0
2173 299593.000    541527.2929  -5479445.9713   3208362.1191   2   8   0.0936   0.2142   0.1048   0.0507  -0.1280  -0.0498   0.00    1.1
2173 299594.000    541527.2978  -5479445.9622   3208362.1145   2   8   0.0920   0.2087   0.1029   0.0479  -0.1247  -0.0483   0.00    1.1
2173 299595.000    541527.3006  -5479445.9525   3208362.1102   2   8   0.0904   0.2037   0.1011   0.0454  -0.1218  -0.0469   0.00    1.1
2173 299596.000    541527.3024  -5479445.9470   3208362.1087   2   8   0.0889   0.1990   0.0994   0.0430  -0.1190  -0.0456   0.00    1.1
2173 299597.000    541527.3073  -5479445.9431   3208362.1111   2   8   0.0875   0.1946   0.0979   0.0407  -0.1164  -0.0444   0.00    1.1
2173 299598.000    541527.3102  -5479445.9392   3208362.1104   2   8   0.0862   0.1905   0.0964   0.0386  -0.1140  -0.0432   0.00    1.2
2173 299599.000    541527.3108  -5479445.9301   3208362.1066   2   8   0.0850   0.1867   0.0949   0.0366  -0.1117  -0.0421   0.00    1.2
2173 299600.000    541527.3123  -5479445.9298   3208362.1076   2   8   0.0837   0.1830   0.0936   0.0348  -0.1095  -0.0411   0.00    1.2
2173 299601.000    541527.3178  -5479445.9297   3208362.1061   2   8   0.0826   0.1796   0.0923   0.0330  -0.1075  -0.0402   0.00    1.1
2173 299602.000    541527.3186  -5479445.9192   3208362.0986   2   8   0.0815   0.1763   0.0911   0.0313  -0.1056  -0.0393   0.00    1.1
2173 299603.000    541527.3223  -5479445.9255   3208362.1031   2   8   0.0804   0.1732   0.0899   0.0297  -0.1038  -0.0384   0.00    1.1
2173 299604.000    541527.3208  -5479445.9174   3208362.1010   2   8   0.0794   0.1703   0.0887   0.0282  -0.1020  -0.0376   0.00    1.1
2173 299605.000    541527.3207  -5479445.9187   3208362.1007   2   8   0.0785   0.1675   0.0877   0.0267  -0.1003  -0.0368   0.00    1.1
2173 299606.000    541527.3219  -5479445.9179   3208362.0983   2   8   0.0775   0.1648   0.0866   0.0253  -0.0988  -0.0361   0.00    1.1
2173 299607.000    541527.3236  -5479445.9114   3208362.0949   2   8   0.0766   0.1623   0.0856   0.0239  -0.0972  -0.0354   0.00    1.1
2173 299608.000    541527.3214  -5479445.9125   3208362.0927   2   8   0.0757   0.1598   0.0846   0.0226  -0.0958  -0.0347   0.00    1.1
2173 299609.000    541527.3248  -5479445.9127   3208362.0923   2   8   0.0748   0.1575   0.0837   0.0213  -0.0944  -0.0340   0.00    1.0
2173 299610.000    541527.3275  -5479445.9004   3208362.0851   2   8   0.0740   0.1552   0.0828   0.0201  -0.0931  -0.0334   0.00    1.0
2173 299611.000    541527.3244  -5479445.8946   3208362.0828   2   8   0.0732   0.1531   0.0819   0.0187  -0.0918  -0.0329   0.00    1.0
2173 299612.000    541527.3298  -5479445.8911   3208362.0821   2   8   0.0724   0.1510   0.0810   0.0175  -0.0905  -0.0323   0.00    1.0
2173 299613.000    541527.3279  -5479445.8818   3208362.0773   2   8   0.0717   0.1490   0.0802   0.0163  -0.0893  -0.0318   0.00    1.0
2173 299614.000    541527.3318  -5479445.8749   3208362.0741   2   8   0.0710   0.1470   0.0794   0.0150  -0.0882  -0.0312   0.00    1.1
2173 299615.000    541527.3323  -5479445.8717   3208362.0724   2   8   0.0703   0.1452   0.0786   0.0138  -0.0870  -0.0307   0.00    1.1
2173 299616.000    541527.3370  -5479445.8719   3208362.0715   2   8   0.0696   0.1434   0.0778   0.0125  -0.0860  -0.0301   0.00    1.1
2173 299617.000    541527.3362  -5479445.8646   3208362.0661   2   8   0.0689   0.1416   0.0770   0.0111  -0.0849  -0.0296   0.00    1.1
2173 299618.000    541527.3375  -5479445.8603   3208362.0666   2   8   0.0683   0.1399   0.0763   0.0097  -0.0839  -0.0292   0.00    1.1
2173 299619.000    541527.3362  -5479445.8503   3208362.0575   2   8   0.0677   0.1383   0.0756   0.0081  -0.0829  -0.0287   0.00    1.1
2173 299620.000    541527.3380  -5479445.8414   3208362.0522   2   8   0.0670   0.1367   0.0749   0.0065  -0.0820  -0.0283   0.00    1.1
2173 299621.000    541527.3432  -5479445.8368   3208362.0478   2   8   0.0664   0.1352   0.0742   0.0040  -0.0810  -0.0278   0.00    1.1
2173 299622.000    541527.3430  -5479445.8326   3208362.0451   2   8   0.0658   0.1337   0.0735  -0.0020  -0.0801  -0.0273   0.00    1.2
2173 299623.000    541527.3456  -5479445.8354   3208362.0425   2   8   0.0653   0.1322   0.0729  -0.0052  -0.0792  -0.0269   0.00    1.2
2173 299624.000    541527.3489  -5479445.8232   3208362.0372   2   8   0.0647   0.1308   0.0722  -0.0069  -0.0784  -0.0266   0.00    1.2
2173 299625.000    541527.3517  -5479445.8191   3208362.0316   2   8   0.0642   0.1294   0.0716  -0.0082  -0.0775  -0.0262   0.00    1.2
2173 299626.000    541527.3522  -5479445.8159   3208362.0300   2   8   0.0637   0.1281   0.0710  -0.0092  -0.0767  -0.0258   0.00    1.2
2173 299627.000    541527.3532  -5479445.8047   3208362.0213   2   8   0.0631   0.1268   0.0704  -0.0101  -0.0759  -0.0254   0.00    1.2
2173 299628.000    541527.3547  -5479445.7969   3208362.0163   2   8   0.0626   0.1255   0.0698  -0.0110  -0.0752  -0.0251   0.00    1.2
2173 299629.000    541527.3561  -5479445.7972   3208362.0134   2   8   0.0621   0.1243   0.0692  -0.0116  -0.0744  -0.0246   0.00    1.2
2173 299630.000    541527.3590  -5479445.7928   3208362.0105   2   8   0.0616   0.1231   0.0687  -0.0122  -0.0737  -0.0243   0.00    1.2
2173 299631.000    541527.3585  -5479445.7879   3208362.0064   2   8   0.0612   0.1219   0.0681  -0.0128  -0.0729  -0.0239   0.00    1.2
2173 299632.000    541527.3326  -5479445.8286   3208362.0384   2   8   0.0608   0.1207   0.0675  -0.0133  -0.0722  -0.0235   0.00    1.3
2173 299633.000    541527.3279  -5479445.8446   3208362.0536   2   8   0.0602   0.1196   0.0670  -0.0138  -0.0715  -0.0232   0.00    1.2
2173 299634.000    541527.3233  -5479445.8704   3208362.0737   2   8   0.0598   0.1185   0.0664  -0.0142  -0.0709  -0.0229   0.00    1.2
2173 299635.000    541527.3176  -5479445.8936   3208362.0951   2   8   0.0594   0.1174   0.0659  -0.0146  -0.0702  -0.0226   0.00    1.2
2173 299636.000    541527.3147  -5479445.9060   3208362.1084   2   8   0.0590   0.1164   0.0654  -0.0151  -0.0695  -0.0222   0.00    1.2
2173 299637.000    541527.3057  -5479445.9226   3208362.1234   2   8   0.0586   0.1153   0.0649  -0.0154  -0.0689  -0.0219   0.00    1.2
2173 299638.000    541527.3068  -5479445.9451   3208362.1389   2   8   0.0581   0.1143   0.0644  -0.0157  -0.0683  -0.0216   0.00    1.2
2173 299639.000    541527.3046  -5479445.9645   3208362.1540   2   8   0.0577   0.1133   0.0639  -0.0160  -0.0677  -0.0213   0.00    1.2
2173 299640.000    541527.3002  -5479445.9807   3208362.1686   2   8   0.0574   0.1124   0.0634  -0.0163  -0.0671  -0.0209   0.00    1.2
2173 299641.000    541527.2985  -5479445.9949   3208362.1831   2   8   0.0569   0.1114   0.0629  -0.0165  -0.0665  -0.0206   0.00    1.1
2173 299642.000    541527.2975  -5479446.0032   3208362.1941   2   8   0.0566   0.1105   0.0625  -0.0168  -0.0659  -0.0202   0.00    1.1
2173 299643.000    541527.2957  -5479446.0188   3208362.2073   2   8   0.0562   0.1096   0.0620  -0.0170  -0.0653  -0.0199   0.00    1.1
2173 299644.000    541527.2914  -5479446.0319   3208362.2177   2   8   0.0558   0.1087   0.0615  -0.0172  -0.0648  -0.0197   0.00    1.1
2173 299645.000    541527.2905  -5479446.0436   3208362.2274   2   8   0.0555   0.1078   0.0611  -0.0175  -0.0642  -0.0194   0.00    1.1
2173 299646.000    541527.2871  -5479446.0533   3208362.2354   2   8   0.0551   0.1069   0.0606  -0.0177  -0.0637  -0.0191   0.00    1.1
2173 299647.000    541527.2859  -5479446.0717   3208362.2467   2   8   0.0548   0.1061   0.0602  -0.0179  -0.0631  -0.0188   0.00    1.1
2173 299648.000    541527.2844  -5479446.0915   3208362.2653   2   8   0.0544   0.1053   0.0598  -0.0181  -0.0626  -0.0186   0.00    1.1
2173 299649.000    541527.2796  -5479446.0967   3208362.2724   2   8   0.0541   0.1044   0.0593  -0.0183  -0.0621  -0.0182   0.00    1.0
2173 299650.000    541527.2791  -5479446.1173   3208362.2830   2   8   0.0538   0.1036   0.0589  -0.0185  -0.0616  -0.0179   0.00    1.0
2173 299651.000    541527.2794  -5479446.1304   3208362.2944   2   8   0.0534   0.1029   0.0585  -0.0186  -0.0611  -0.0177   0.00    1.0
2173 299652.000    541527.2735  -5479446.1494   3208362.3065   2   8   0.0531   0.1021   0.0580  -0.0188  -0.0606  -0.0174   0.00    1.0
2173 299653.000    541527.2722  -5479446.1560   3208362.3169   2   8   0.0528   0.1013   0.0576  -0.0188  -0.0601  -0.0172   0.00    1.0
2173 299654.000    541527.2690  -5479446.1670   3208362.3260   2   8   0.0525   0.1006   0.0572  -0.0190  -0.0597  -0.0169   0.00    1.0
2173 299655.000    541527.2643  -5479446.1806   3208362.3373   2   8   0.0522   0.0998   0.0568  -0.0191  -0.0592  -0.0166   0.00    1.0
2173 299656.000    541527.2702  -5479446.1964   3208362.3405   2   8   0.0519   0.0991   0.0564  -0.0193  -0.0587  -0.0163   0.00    1.0
2173 299657.000    541527.2716  -5479446.1923   3208362.3395   2   8   0.0516   0.0984   0.0561  -0.0194  -0.0583  -0.0159   0.00    1.0
2173 299658.000    541527.2726  -5479446.1880   3208362.3360   2   8   0.0513   0.0977   0.0556  -0.0195  -0.0578  -0.0157   0.00    1.0
2173 299659.000    541527.2757  -5479446.1873   3208362.3387   2   8   0.0511   0.0970   0.0553  -0.0197  -0.0574  -0.0154   0.00    1.0
2173 299660.000    541527.2797  -5479446.1832   3208362.3386   2   8   0.0508   0.0963   0.0549  -0.0198  -0.0569  -0.0152   0.00    1.1
2173 299661.000    541527.2795  -5479446.1736   3208362.3350   2   8   0.0505   0.0956   0.0545  -0.0199  -0.0565  -0.0149   0.00    1.1
2173 299662.000    541527.2840  -5479446.1691   3208362.3345   2   8   0.0502   0.0950   0.0541  -0.0200  -0.0561  -0.0147   0.00    1.1
2173 299663.000    541527.2842  -5479446.1643   3208362.3340   2   8   0.0499   0.0943   0.0538  -0.0201  -0.0557  -0.0143   0.00    1.1
2173 299664.000    541527.2817  -5479446.1510   3208362.3301   2   8   0.0496   0.0937   0.0534  -0.0202  -0.0553  -0.0141   0.00    1.1
2173 299665.000    541527.2832  -5479446.1483   3208362.3319   2   8   0.0494   0.0931   0.0531  -0.0203  -0.0549  -0.0139   0.00    1.1
2173 299666.000    541527.2833  -5479446.1422   3208362.3320   2   8   0.0491   0.0924   0.0527  -0.0203  -0.0545  -0.0135   0.00    1.1
2173 299667.000    541527.2813  -5479446.1258   3208362.3280   2   8   0.0488   0.0918   0.0523  -0.0204  -0.0541  -0.0134   0.00    1.1
2173 299668.000    541527.2855  -5479446.1180   3208362.3290   2   8   0.0486   0.0912   0.0520  -0.0205  -0.0537  -0.0131   0.00    1.1
2173 299669.000    541527.2917  -5479446.1023   3208362.3210   2   8   0.0483   0.0906   0.0516  -0.0206  -0.0533  -0.0129   0.00    1.1
2173 299670.000    541527.2967  -5479446.0850   3208362.3131   2   8   0.0481   0.0900   0.0513  -0.0206  -0.0529  -0.0125   0.00    1.2
2173 299671.000    541527.2980  -5479446.0769   3208362.3130   2   8   0.0479   0.0894   0.0510  -0.0207  -0.0526  -0.0122   0.00    1.2
2173 299672.000    541527.3014  -5479446.0665   3208362.3067   2   8   0.0477   0.0889   0.0506  -0.0208  -0.0522  -0.0121   0.00    1.2
2173 299673.000    541527.3044  -5479446.0534   3208362.2990   2   8   0.0474   0.0883   0.0503  -0.0209  -0.0518  -0.0117   0.00    1.1
2173 299674.000    541527.3043  -5479446.0474   3208362.2963   2   8   0.0471   0.0878   0.0500  -0.0209  -0.0515  -0.0115   0.00    1.1
2173 299675.000    541527.3100  -5479446.0346   3208362.2882   2   8   0.0469   0.0872   0.0497  -0.0210  -0.0511  -0.0113   0.00    1.1
2173 299676.000    541527.3126  -5479446.0212   3208362.2805   2   8   0.0467   0.0867   0.0493  -0.0210  -0.0507  -0.0110   0.00    1.1
2173 299677.000    541527.3166  -5479446.0111   3208362.2734   2   8   0.0465   0.0861   0.0490  -0.0212  -0.0504  -0.0106   0.00    1.1
2173 299678.000    541527.3207  -5479446.0039   3208362.2703   2   8   0.0462   0.0856   0.0487  -0.0211  -0.0501  -0.0103   0.00    1.1
2173 299679.000    541527.3239  -5479445.9907   3208362.2645   2   8   0.0460   0.0851   0.0484  -0.0212  -0.0497  -0.0101   0.00    1.1
2173 299680.000    541527.3268  -5479445.9844   3208362.2598   2   8   0.0458   0.0845   0.0481  -0.0213  -0.0494  -0.0099   0.00    1.0
2173 299681.000    541527.3294  -5479445.9703   3208362.2502   2   8   0.0456   0.0840   0.0478  -0.0214  -0.0491  -0.0096   0.00    1.0
2173 299682.000    541527.3338  -5479445.9701   3208362.2466   2   8   0.0454   0.0835   0.0475  -0.0214  -0.0487  -0.0093   0.00    1.0
2173 299683.000    541527.3368  -5479445.9586   3208362.2403   2   8   0.0452   0.0830   0.0471  -0.0214  -0.0484  -0.0092   0.00    1.0
2173 299684.000    541527.3421  -5479445.9532   3208362.2351   2   8   0.0450   0.0825   0.0469  -0.0215  -0.0481  -0.0087   0.00    1.0
2173 299685.000    541527.3451  -5479445.9560   3208362.2343   2   8   0.0447   0.0821   0.0466  -0.0214  -0.0478  -0.0084   0.00    1.0
2173 299686.000    541527.3475  -5479445.9446   3208362.2269   2   8   0.0446   0.0816   0.0463  -0.0215  -0.0475  -0.0080   0.00    1.0
2173 299687.000    541527.3449  -5479445.9315   3208362.2207   2   8   0.0444   0.0811   0.0460  -0.0216  -0.0472  -0.0079   0.00    1.0
2173 299688.000    541527.3533  -5479445.9252   3208362.2124   2   8   0.0442   0.0806   0.0457  -0.0216  -0.0469  -0.0076   0.00    1.0
2173 299689.000    541527.3575  -5479445.9163   3208362.2034   2   8   0.0440   0.0802   0.0454  -0.0217  -0.0465  -0.0074   0.00    1.0
2173 299690.000    541527.3598  -5479445.9096   3208362.2003   2   8   0.0437   0.0797   0.0451  -0.0217  -0.0463  -0.0070   0.00    1.0
2173 299691.000    541527.3597  -5479445.8988   3208362.1878   2   8   0.0436   0.0792   0.0449  -0.0217  -0.0460  -0.0066   0.00    1.0
2173 299692.000    541527.3667  -5479445.8897   3208362.1808   2   8   0.0434   0.0788   0.0446  -0.0218  -0.0457  -0.0062   0.00    1.0
2173 299693.000    541527.3700  -5479445.8860   3208362.1750   2   8   0.0432   0.0784   0.0443  -0.0218  -0.0454  -0.0060   0.00    1.0
2173 299694.000    541527.3739  -5479445.8810   3208362.1680   2   8   0.0430   0.0779   0.0440  -0.0218  -0.0451  -0.0057   0.00    1.0
2173 299695.000    541527.3742  -5479445.8675   3208362.1593   2   8   0.0428   0.0775   0.0438  -0.0218  -0.0448  -0.0055   0.00    1.0
2173 299696.000    541527.3785  -5479445.8611   3208362.1546   2   8   0.0427   0.0771   0.0435  -0.0218  -0.0446  -0.0049   0.00    1.0
2173 299697.000    541527.3819  -5479445.8480   3208362.1436   2   8   0.0425   0.0766   0.0432  -0.0219  -0.0443  -0.0041   0.00    1.0
2173 299698.000    541527.3836  -5479445.8400   3208362.1369   2   8   0.0423   0.0762   0.0430  -0.0219  -0.0440  -0.0044   0.00    1.1
2173 299699.000    541527.3865  -5479445.8313   3208362.1282   2   8   0.0421   0.0758   0.0427  -0.0220  -0.0437  -0.0033   0.00    1.1
2173 299700.000    541527.3875  -5479445.8257   3208362.1244   2   8   0.0419   0.0754   0.0424  -0.0219  -0.0435  -0.0033   0.00    1.1
2173 299701.000    541527.3914  -5479445.8206   3208362.1163   2   8   0.0418   0.0750   0.0422  -0.0220  -0.0432  -0.0025   0.00    1.1
2173 299702.000    541527.3941  -5479445.8138   3208362.1079   2   8   0.0416   0.0746   0.0419  -0.0220  -0.0429  -0.0003   0.00    1.1
2173 299703.000    541527.3997  -5479445.8041   3208362.1025   2   8   0.0415   0.0742   0.0417  -0.0220  -0.0427   0.0013   0.00    1.1
2173 299704.000    541527.4014  -5479445.7957   3208362.0953   2   8   0.0413   0.0738   0.0415  -0.0220  -0.0424   0.0026   0.00    1.1
2173 299705.000    541527.4002  -5479445.7809   3208362.0844   2   8   0.0411   0.0734   0.0412  -0.0221  -0.0422   0.0031   0.00    1.1
2173 299706.000    541527.4049  -5479445.7782   3208362.0760   2   8   0.0410   0.0730   0.0410  -0.0221  -0.0419   0.0038   0.00    1.1
2173 299707.000    541527.4074  -5479445.7684   3208362.0639   2   8   0.0408   0.0726   0.0407  -0.0221  -0.0417   0.0038   0.00    1.1
2173 299708.000    541527.4119  -5479445.7689   3208362.0644   2   8   0.0406   0.0723   0.0405  -0.0222  -0.0415   0.0043   0.00    1.1
2173 299709.000    541527.4134  -5479445.7695   3208362.0594   2   8   0.0405   0.0719   0.0402  -0.0221  -0.0412   0.0047   0.00    1.1
2173 299710.000    541527.4140  -5479445.7564   3208362.0500   2   8   0.0403   0.0715   0.0400  -0.0222  -0.0410   0.0049   0.00    1.1
2173 299711.000    541527.4196  -5479445.7539   3208362.0433   2   8   0.0402   0.0711   0.0398  -0.0222  -0.0407   0.0053   0.00    1.1
2173 299712.000    541527.4192  -5479445.7466   3208362.0385   2   8   0.0400   0.0708   0.0395  -0.0222  -0.0405   0.0058   0.00    1.1
2173 299713.000    541527.4236  -5479445.7451   3208362.0323   2   8   0.0399   0.0704   0.0393  -0.0222  -0.0403   0.0058   0.00    1.1
2173 299714.000    541527.4235  -5479445.7385   3208362.0283   2   8   0.0396   0.0701   0.0391  -0.0222  -0.0400   0.0059   0.00    1.1
2173 299715.000    541527.4239  -5479445.7325   3208362.0215   2   8   0.0395   0.0697   0.0389  -0.0222  -0.0398   0.0063   0.00    1.1
2173 299716.000    541527.4145  -5479445.7116   3208362.0135   2   8   0.0394   0.0694   0.0387  -0.0222  -0.0396   0.0066   0.00    1.1
2173 299717.000    541527.4137  -5479445.6989   3208362.0048   2   8   0.0393   0.0690   0.0384  -0.0222  -0.0394   0.0069   0.00    1.1
2173 299718.000    541527.4143  -5479445.6916   3208361.9994   2   8   0.0391   0.0687   0.0382  -0.0222  -0.0391   0.0065   0.00    1.1
2173 299719.000    541527.4150  -5479445.6823   3208361.9965   2   8   0.0390   0.0684   0.0380  -0.0222  -0.0389   0.0071   0.00    1.2
2173 299720.000    541527.4143  -5479445.6779   3208361.9946   2   8   0.0388   0.0680   0.0378  -0.0222  -0.0387   0.0073   0.00    1.2
2173 299721.000    541527.4162  -5479445.6695   3208361.9893   2   8   0.0387   0.0677   0.0376  -0.0222  -0.0385   0.0074   0.00    1.2
2173 299722.000    541527.4140  -5479445.6630   3208361.9870   2   8   0.0386   0.0674   0.0374  -0.0222  -0.0383   0.0075   0.00    1.2
2173 299723.000    541527.4168  -5479445.6585   3208361.9836   2   8   0.0384   0.0670   0.0371  -0.0223  -0.0381   0.0078   0.00    1.2
2173 299724.000    541527.4158  -5479445.6489   3208361.9809   2   8   0.0384   0.0667   0.0369  -0.0222  -0.0379   0.0079   0.00    1.2
2173 299725.000    541527.4144  -5479445.6385   3208361.9746   2   8   0.0381   0.0664   0.0367  -0.0222  -0.0377   0.0080   0.00    1.2
2173 299726.000    541527.4138  -5479445.6352   3208361.9724   2   8   0.0380   0.0661   0.0365  -0.0223  -0.0375   0.0082   0.00    1.2
2173 299727.000    541527.4162  -5479445.6281   3208361.9691   2   8   0.0379   0.0658   0.0363  -0.0223  -0.0373   0.0082   0.00    1.2
2173 299728.000    541527.4136  -5479445.6233   3208361.9655   2   8   0.0377   0.0654   0.0361  -0.0222  -0.0371   0.0084   0.00    1.2
2173 299729.000    541527.4163  -5479445.6242   3208361.9651   2   8   0.0376   0.0651   0.0359  -0.0222  -0.0369   0.0085   0.00    1.2
2173 299730.000    541527.4143  -5479445.6124   3208361.9583   2   8   0.0375   0.0648   0.0358  -0.0223  -0.0367   0.0085   0.00    1.2
2173 299731.000    541527.4132  -5479445.6089   3208361.9559   2   8   0.0373   0.0645   0.0356  -0.0222  -0.0365   0.0087   0.00    1.2
2173 299732.000    541527.4139  -5479445.6024   3208361.9521   2   8   0.0372   0.0642   0.0354  -0.0222  -0.0363   0.0087   0.00    1.2
2173 299733.000    541527.4158  -5479445.5976   3208361.9496   2   8   0.0371   0.0639   0.0352  -0.0223  -0.0361   0.0088   0.00    1.2
2173 299734.000    541527.4125  -5479445.5915   3208361.9457   2   8   0.0370   0.0636   0.0349  -0.0222  -0.0359   0.0090   0.00    1.2
2173 299735.000    541527.4173  -5479445.5812   3208361.9413   2   8   0.0369   0.0633   0.0348  -0.0223  -0.0358   0.0092   0.00    1.2
2173 299736.000    541527.4141  -5479445.5732   3208361.9350   2   8   0.0366   0.0631   0.0346  -0.0222  -0.0356   0.0091   0.00    1.2
2173 299737.000    541527.4174  -5479445.5669   3208361.9323   2   8   0.0366   0.0628   0.0344  -0.0222  -0.0354   0.0092   0.00    1.2
2173 299738.000    541527.4152  -5479445.5529   3208361.9235   2   8   0.0365   0.0625   0.0342  -0.0222  -0.0352   0.0094   0.00    1.2
2173 299739.000    541527.4165  -5479445.5440   3208361.9178   2   8   0.0364   0.0622   0.0341  -0.0222  -0.0350   0.0096   0.00    1.3
2173 299740.000    541527.4145  -5479445.5456   3208361.9164   2   8   0.0362   0.0619   0.0339  -0.0222  -0.0349   0.0095   0.00    1.3
2173 299741.000    541527.4164  -5479445.5364   3208361.9102   2   8   0.0361   0.0617   0.0337  -0.0222  -0.0347   0.0096   0.00    1.3
2173 299742.000    541527.4177  -5479445.5352   3208361.9070   2   8   0.0360   0.0614   0.0335  -0.0222  -0.0345   0.0096   0.00    1.3
2173 299743.000    541527.4190  -5479445.5332   3208361.9067   2   8   0.0359   0.0611   0.0333  -0.0222  -0.0343   0.0098   0.00    1.3
2173 299744.000    541527.4193  -5479445.5188   3208361.8993   2   8   0.0358   0.0608   0.0331  -0.0222  -0.0342   0.0098   0.00    1.3
2173 299745.000    541527.4230  -5479445.5167   3208361.8952   2   8   0.0356   0.0606   0.0330  -0.0222  -0.0340   0.0099   0.00    1.3
2173 299746.000    541527.4231  -5479445.5075   3208361.8916   2   8   0.0355   0.0603   0.0328  -0.0222  -0.0338   0.0100   0.00    1.3
2173 299747.000    541527.4242  -5479445.5017   3208361.8880   2   8   0.0354   0.0600   0.0326  -0.0222  -0.0337   0.0100   0.00    1.3
2173 299748.000    541527.4247  -5479445.4898   3208361.8806   2   8   0.0353   0.0598   0.0325  -0.0221  -0.0335   0.0100   0.00    1.3
2173 299749.000    541527.4247  -5479445.4838   3208361.8768   2   8   0.0352   0.0595   0.0323  -0.0222  -0.0333   0.0103   0.00    1.3
2173 299750.000    541527.4256  -5479445.4739   3208361.8692   2   8   0.0351   0.0593   0.0321  -0.0222  -0.0332   0.0104   0.00    1.3
2173 299751.000    541527.4281  -5479445.4722   3208361.8649   2   8   0.0349   0.0590   0.0320  -0.0221  -0.0330   0.0103   0.00    1.3
2173 299752.000    541527.4276  -5479445.4678   3208361.8623   2   8   0.0349   0.0588   0.0318  -0.0221  -0.0329   0.0104   0.00    1.3
2173 299753.000    541527.4250  -5479445.4633   3208361.8561   2   8   0.0348   0.0585   0.0317  -0.0221  -0.0327   0.0103   0.00    1.3
2173 299754.000    541527.4244  -5479445.4623   3208361.8538   2   8   0.0347   0.0583   0.0315  -0.0221  -0.0326   0.0106   0.00    1.3
2173 299755.000    541527.4234  -5479445.4591   3208361.8521   2   8   0.0345   0.0580   0.0313  -0.0221  -0.0324   0.0106   0.00    1.3
2173 299756.000    541527.4233  -5479445.4531   3208361.8456   2   8   0.0345   0.0578   0.0312  -0.0221  -0.0323   0.0106   0.00    1.3
2173 299757.000    541527.4228  -5479445.4515   3208361.8458   2   8   0.0344   0.0576   0.0310  -0.0221  -0.0321   0.0107   0.00    1.3
2173 299758.000    541527.4225  -5479445.4455   3208361.8435   2   8   0.0342   0.0573   0.0309  -0.0221  -0.0320   0.0107   0.00    1.3
2173 299759.000    541527.4227  -5479445.4353   3208361.8372   2   8   0.0341   0.0571   0.0307  -0.0220  -0.0318   0.0107   0.00    1.3
2173 299760.000    541527.4221  -5479445.4374   3208361.8368   2   8   0.0340   0.0568   0.0305  -0.0220  -0.0317   0.0107   0.00    1.3
2173 299761.000    541527.4197  -5479445.4294   3208361.8369   2   8   0.0339   0.0566   0.0304  -0.0220  -0.0315   0.0108   0.00    1.3
2173 299762.000    541527.4158  -5479445.4283   3208361.8366   2   8   0.0338   0.0564   0.0303  -0.0220  -0.0314   0.0109   0.00    1.3
2173 299763.000    541527.4164  -5479445.4211   3208361.8318   2   8   0.0337   0.0562   0.0301  -0.0220  -0.0312   0.0110   0.00    1.4
2173 299764.000    541527.4178  -5479445.4171   3208361.8303   2   8   0.0336   0.0559   0.0300  -0.0220  -0.0311   0.0109   0.00    1.4
2173 299765.000    541527.4159  -5479445.4079   3208361.8267   2   8   0.0336   0.0557   0.0298  -0.0219  -0.0310   0.0110   0.00    1.4
2173 299766.000    541527.4191  -5479445.3977   3208361.8231   2   8   0.0334   0.0555   0.0297  -0.0220  -0.0308   0.0110   0.00    1.4
2173 299767.000    541527.4226  -5479445.3886   3208361.8149   2   8   0.0333   0.0553   0.0295  -0.0219  -0.0307   0.0110   0.00    1.4
2173 299768.000    541527.4240  -5479445.3864   3208361.8110   2   8   0.0332   0.0550   0.0294  -0.0219  -0.0306   0.0111   0.00    1.4
2173 299769.000    541527.4247  -5479445.3753   3208361.8059   2   8   0.0331   0.0548   0.0293  -0.0219  -0.0304   0.0111   0.00    1.4
2173 299770.000    541527.4256  -5479445.3638   3208361.8012   2   8   0.0330   0.0546   0.0291  -0.0219  -0.0303   0.0112   0.00    1.4
2173 299771.000    541527.4244  -5479445.3540   3208361.7949   2   8   0.0330   0.0544   0.0290  -0.0219  -0.0302   0.0111   0.00    1.4
2173 299772.000    541527.4285  -5479445.3493   3208361.7936   2   8   0.0328   0.0542   0.0288  -0.0218  -0.0300   0.0113   0.00    1.4
2173 299773.000    541527.4286  -5479445.3407   3208361.7889   2   8   0.0327   0.0539   0.0287  -0.0219  -0.0300   0.0112   0.00    1.4
2173 299774.000    541527.4299  -5479445.3279   3208361.7822   2   8   0.0327   0.0537   0.0286  -0.0218  -0.0298   0.0112   0.00    1.4
2173 299775.000    541527.4332  -5479445.3240   3208361.7809   2   8   0.0326   0.0535   0.0284  -0.0218  -0.0296   0.0112   0.00    1.4
2173 299776.000    541527.4374  -5479445.3206   3208361.7786   2   8   0.0325   0.0533   0.0283  -0.0218  -0.0296   0.0114   0.00    1.4
2173 299777.000    541527.4402  -5479445.3170   3208361.7753   2   8   0.0324   0.0531   0.0282  -0.0218  -0.0294   0.0113   0.00    1.4
2173 299778.000    541527.4432  -5479445.3139   3208361.7681   2   8   0.0323   0.0529   0.0280  -0.0218  -0.0293   0.0113   0.00    1.4
2173 299779.000    541527.4430  -5479445.3081   3208361.7633   2   8   0.0323   0.0527   0.0279  -0.0217  -0.0292   0.0115   0.00    1.4
2173 299780.000    541527.4443  -5479445.3101   3208361.7571   2   8   0.0322   0.0525   0.0278  -0.0217  -0.0290   0.0115   0.00    1.4
2173 299781.000    541527.4433  -5479445.3030   3208361.7479   2   8   0.0320   0.0523   0.0276  -0.0217  -0.0289   0.0114   0.00    1.4
2173 299782.000    541527.4468  -5479445.3066   3208361.7432   2   8   0.0319   0.0521   0.0275  -0.0217  -0.0288   0.0114   0.00    1.4
2173 299783.000    541527.4452  -5479445.3011   3208361.7359   2   8   0.0319   0.0519   0.0274  -0.0217  -0.0287   0.0116   0.00    1.4
2173 299784.000    541527.4484  -5479445.2991   3208361.7292   2   8   0.0318   0.0517   0.0273  -0.0217  -0.0286   0.0115   0.00    1.4
2173 299785.000    541527.4512  -5479445.2985   3208361.7240   2   8   0.0316   0.0515   0.0272  -0.0217  -0.0285   0.0115   0.00    1.4
2173 299786.000    541527.4498  -5479445.2948   3208361.7187   2   8   0.0315   0.0513   0.0270  -0.0216  -0.0283   0.0116   0.00    1.4
2173 299787.000    541527.4479  -5479445.2950   3208361.7110   2   8   0.0316   0.0511   0.0269  -0.0216  -0.0282   0.0116   0.00    1.4
2173 299788.000    541527.4505  -5479445.2906   3208361.7035   2   8   0.0314   0.0509   0.0268  -0.0216  -0.0281   0.0116   0.00    1.4
2173 299789.000    541527.4509  -5479445.2942   3208361.7019   2   8   0.0314   0.0508   0.0266  -0.0216  -0.0280   0.0116   0.00    1.4
2173 299790.000    541527.4492  -5479445.2920   3208361.6957   2   8   0.0313   0.0506   0.0265  -0.0216  -0.0279   0.0116   0.00    1.4
2173 299791.000    541527.4510  -5479445.2884   3208361.6908   2   8   0.0312   0.0504   0.0265  -0.0216  -0.0278   0.0119   0.00    1.4
2173 299792.000    541527.4521  -5479445.2872   3208361.6859   2   8   0.0311   0.0502   0.0263  -0.0215  -0.0277   0.0116   0.00    1.4
2173 299793.000    541527.4484  -5479445.2873   3208361.6808   2   8   0.0310   0.0500   0.0262  -0.0215  -0.0276   0.0117   0.00    1.4
2173 299794.000    541527.4494  -5479445.2850   3208361.6754   2   8   0.0310   0.0498   0.0261  -0.0215  -0.0275   0.0117   0.00    1.4
2173 299795.000    541527.4473  -5479445.2865   3208361.6718   2   8   0.0309   0.0497   0.0260  -0.0215  -0.0274   0.0117   0.00    1.4
2173 299796.000    541527.4517  -5479445.2849   3208361.6663   2   8   0.0308   0.0495   0.0258  -0.0215  -0.0272   0.0117   0.00    1.4
2173 299797.000    541527.4469  -5479445.2771   3208361.6589   2   8   0.0308   0.0493   0.0258  -0.0215  -0.0271   0.0118   0.00    1.4
2173 299798.000    541527.4451  -5479445.2762   3208361.6552   2   8   0.0307   0.0491   0.0257  -0.0214  -0.0270   0.0117   0.00    1.4
2173 299799.000    541527.4458  -5479445.2790   3208361.6521   2   8   0.0306   0.0489   0.0255  -0.0214  -0.0270   0.0117   0.00    1.4
2173 299800.000    541527.4177  -5479445.3368   3208361.6848   2   8   0.0304   0.0488   0.0254  -0.0214  -0.0269   0.0117   0.00    1.4
2173 299801.000    541527.4165  -5479445.3572   3208361.6915   2   8   0.0304   0.0486   0.0254  -0.0214  -0.0268   0.0118   0.00    1.4
2173 299802.000    541527.4128  -5479445.3778   3208361.6986   2   8   0.0303   0.0484   0.0252  -0.0214  -0.0266   0.0118   0.00    1.4
2173 299803.000    541527.4134  -5479445.3954   3208361.7053   2   8   0.0302   0.0483   0.0251  -0.0212  -0.0265   0.0118   0.00    1.3
2173 299804.000    541527.4099  -5479445.4091   3208361.7129   2   8   0.0302   0.0481   0.0250  -0.0213  -0.0265   0.0118   0.00    1.3
2173 299805.000    541527.4043  -5479445.4259   3208361.7183   2   8   0.0301   0.0479   0.0249  -0.0213  -0.0263   0.0117   0.00    1.3
2173 299806.000    541527.4000  -5479445.4410   3208361.7220   2   8   0.0300   0.0478   0.0248  -0.0213  -0.0262   0.0118   0.00    1.3
2173 299807.000    541527.3986  -5479445.4663   3208361.7309   2   8   0.0299   0.0476   0.0247  -0.0213  -0.0262   0.0117   0.00    1.3
2173 299808.000    541527.3966  -5479445.4797   3208361.7363   2   8   0.0299   0.0474   0.0246  -0.0212  -0.0261   0.0118   0.00    1.3
2173 299809.000    541527.3952  -5479445.4939   3208361.7396   2   8   0.0297   0.0473   0.0245  -0.0212  -0.0260   0.0119   0.00    1.3
2173 299810.000    541527.3916  -5479445.5124   3208361.7498   2   8   0.0297   0.0471   0.0244  -0.0212  -0.0259   0.0117   0.00    1.3
2173 299811.000    541527.3855  -5479445.5320   3208361.7538   2   8   0.0297   0.0469   0.0243  -0.0212  -0.0258   0.0120   0.00    1.3
2173 299812.000    541527.3869  -5479445.5442   3208361.7588   2   8   0.0296   0.0468   0.0241  -0.0211  -0.0257   0.0118   0.00    1.3
2173 299813.000    541527.3809  -5479445.5662   3208361.7694   2   8   0.0295   0.0466   0.0241  -0.0211  -0.0256   0.0119   0.00    1.2
2173 299814.000    541527.3794  -5479445.5787   3208361.7743   2   8   0.0294   0.0465   0.0240  -0.0210  -0.0255   0.0118   0.00    1.2
2173 299815.000    541527.3765  -5479445.5920   3208361.7793   2   8   0.0293   0.0463   0.0239  -0.0211  -0.0254   0.0119   0.00    1.2
2173 299816.000    541527.3733  -5479445.6068   3208361.7838   2   8   0.0293   0.0462   0.0237  -0.0211  -0.0253   0.0120   0.00    1.2
2173 299817.000    541527.3706  -5479445.6245   3208361.7882   2   8   0.0292   0.0460   0.0237  -0.0210  -0.0253   0.0120   0.00    1.2
2173 299818.000    541527.3702  -5479445.6374   3208361.7918   2   8   0.0292   0.0458   0.0236  -0.0210  -0.0251   0.0119   0.00    1.2
2173 299819.000    541527.3669  -5479445.6484   3208361.7967   2   8   0.0290   0.0457   0.0235  -0.0210  -0.0251   0.0118   0.00    1.2
2173 299820.000    541527.3631  -5479445.6706   3208361.8049   2   8   0.0291   0.0455   0.0235  -0.0210  -0.0250   0.0119   0.00    1.2
2173 299821.000    541527.3620  -5479445.6804   3208361.8055   2   8   0.0290   0.0454   0.0233  -0.0210  -0.0249   0.0120   0.00    1.2
2173 299822.000    541527.3574  -5479445.6983   3208361.8151   2   8   0.0288   0.0452   0.0232  -0.0209  -0.0248   0.0117   0.00    1.2
2173 299823.000    541527.3604  -5479445.7161   3208361.8206   2   8   0.0288   0.0451   0.0231  -0.0209  -0.0247   0.0120   0.00    1.2
2173 299824.000    541527.3577  -5479445.7232   3208361.8220   2   8   0.0287   0.0450   0.0230  -0.0209  -0.0246   0.0119   0.00    1.1
2173 299825.000    541527.3559  -5479445.7356   3208361.8249   2   8   0.0286   0.0448   0.0229  -0.0208  -0.0246   0.0120   0.00    1.1
2173 299826.000    541527.3575  -5479445.7460   3208361.8244   2   8   0.0287   0.0447   0.0229  -0.0208  -0.0245   0.0119   0.00    1.1
2173 299827.000    541527.3596  -5479445.7537   3208361.8250   2   8   0.0285   0.0445   0.0228  -0.0208  -0.0244   0.0120   0.00    1.1
2173 299828.000    541527.3532  -5479445.7745   3208361.8325   2   8   0.0285   0.0444   0.0227  -0.0208  -0.0243   0.0119   0.00    1.1
2173 299829.000    541527.3517  -5479445.7850   3208361.8370   2   8   0.0284   0.0442   0.0226  -0.0208  -0.0242   0.0119   0.00    1.1
2173 299830.000    541527.3472  -5479445.8016   3208361.8416   2   8   0.0283   0.0441   0.0226  -0.0208  -0.0242   0.0118   0.00    1.1
2173 299831.000    541527.3485  -5479445.8097   3208361.8432   2   8   0.0282   0.0439   0.0224  -0.0207  -0.0241   0.0120   0.00    1.1
2173 299832.000    541527.3467  -5479445.8230   3208361.8466   2   8   0.0281   0.0438   0.0223  -0.0207  -0.0240   0.0117   0.00    1.1
2173 299833.000    541527.3432  -5479445.8393   3208361.8528   2   8   0.0281   0.0437   0.0223  -0.0207  -0.0239   0.0119   0.00    1.1
2173 299834.000    541527.3435  -5479445.8465   3208361.8540   2   8   0.0281   0.0435   0.0222  -0.0207  -0.0238   0.0120   0.00    1.0
2173 299835.000    541527.3427  -5479445.8625   3208361.8597   2   8   0.0280   0.0434   0.0221  -0.0206  -0.0238   0.0118   0.00    1.0
2173 299836.000    541527.3440  -5479445.8729   3208361.8638   2   8   0.0280   0.0432   0.0220  -0.0206  -0.0237   0.0120   0.00    1.0
2173 299837.000    541527.3457  -5479445.8891   3208361.8569   2   8   0.0278   0.0431   0.0220  -0.0206  -0.0236   0.0119   0.00    1.0
2173 299838.000    541527.3445  -5479445.8965   3208361.8553   2   8   0.0278   0.0430   0.0218  -0.0206  -0.0236   0.0119   0.00    1.0
2173 299839.000    541527.3425  -5479445.9170   3208361.8619   2   8   0.0278   0.0429   0.0217  -0.0205  -0.0235   0.0119   0.00    1.0
2173 299840.000    541527.3385  -5479445.9316   3208361.8653   2   8   0.0277   0.0427   0.0216  -0.0205  -0.0234   0.0120   0.00    1.0
2173 299841.000    541527.3373  -5479445.9474   3208361.8688   2   8   0.0276   0.0426   0.0216  -0.0204  -0.0233   0.0119   0.00    1.0
2173 299842.000    541527.3348  -5479445.9634   3208361.8773   2   8   0.0276   0.0425   0.0216  -0.0204  -0.0233   0.0118   0.00    1.0
2173 299843.000    541527.3306  -5479445.9738   3208361.8758   2   8   0.0275   0.0423   0.0215  -0.0204  -0.0232   0.0118   0.00    1.1
2173 299844.000    541527.3298  -5479445.9919   3208361.8803   2   8   0.0274   0.0422   0.0214  -0.0205  -0.0231   0.0120   0.00    1.1
2173 299845.000    541527.3253  -5479446.0114   3208361.8884   2   8   0.0274   0.0421   0.0213  -0.0205  -0.0230   0.0119   0.00    1.1
2173 299846.000    541527.3215  -5479446.0229   3208361.8895   2   8   0.0274   0.0419   0.0213  -0.0204  -0.0229   0.0120   0.00    1.1
2173 299847.000    541527.3212  -5479446.0384   3208361.8937   2   8   0.0273   0.0418   0.0212  -0.0203  -0.0229   0.0119   0.00    1.1
2173 299848.000    541527.3179  -5479446.0513   3208361.8964   2   8   0.0272   0.0417   0.0211  -0.0203  -0.0228   0.0119   0.00    1.1
2173 299849.000    541527.3185  -5479446.0680   3208361.8986   2   8   0.0271   0.0416   0.0210  -0.0203  -0.0227   0.0118   0.00    1.1
2173 299850.000    541527.3156  -5479446.0773   3208361.8988   2   8   0.0270   0.0414   0.0210  -0.0203  -0.0226   0.0118   0.00    1.1
2173 299851.000    541527.3124  -5479446.0888   3208361.9022   2   8   0.0270   0.0413   0.0209  -0.0203  -0.0226   0.0120   0.00    1.1
2173 299852.000    541527.3114  -5479446.1052   3208361.9074   2   8   0.0269   0.0412   0.0208  -0.0202  -0.0226   0.0118   0.00    1.1
2173 299853.000    541527.3082  -5479446.1151   3208361.9092   2   8   0.0268   0.0411   0.0207  -0.0202  -0.0225   0.0119   0.00    1.1
2173 299854.000    541527.3089  -5479446.1276   3208361.9089   2   8   0.0267   0.0409   0.0206  -0.0202  -0.0224   0.0118   0.00    1.1
2173 299855.000    541527.3072  -5479446.1437   3208361.9128   2   8   0.0269   0.0408   0.0206  -0.0202  -0.0224   0.0121   0.00    1.1
2173 299856.000    541527.3119  -5479446.1549   3208361.9140   2   8   0.0267   0.0407   0.0206  -0.0202  -0.0222   0.0120   0.00    1.1
2173 299857.000    541527.3123  -5479446.1703   3208361.9170   2   8   0.0267   0.0406   0.0205  -0.0202  -0.0222   0.0119   0.00    1.1
2173 299858.000    541527.3117  -5479446.1782   3208361.9163   2   8   0.0267   0.0405   0.0204  -0.0201  -0.0222   0.0120   0.00    1.1
2173 299859.000    541527.3077  -5479446.1919   3208361.9187   2   8   0.0265   0.0404   0.0203  -0.0200  -0.0221   0.0117   0.00    1.1
2173 299860.000    541527.3075  -5479446.2043   3208361.9224   2   8   0.0265   0.0402   0.0202  -0.0201  -0.0220   0.0118   0.00    1.1
2173 299861.000    541527.3076  -5479446.2113   3208361.9226   2   8   0.0264   0.0401   0.0201  -0.0200  -0.0220   0.0117   0.00    1.1
2173 299862.000    541527.3060  -5479446.2232   3208361.9249   2   8   0.0264   0.0400   0.0201  -0.0200  -0.0219   0.0117   0.00    1.1
2173 299863.000    541527.3065  -5479446.2280   3208361.9232   2   8   0.0263   0.0399   0.0200  -0.0199  -0.0218   0.0116   0.00    1.1
2173 299864.000    541527.3031  -5479446.2383   3208361.9260   2   8   0.0263   0.0398   0.0200  -0.0200  -0.0217   0.0118   0.00    1.1
2173 299865.000    541527.3029  -5479446.2461   3208361.9266   2   8   0.0262   0.0397   0.0199  -0.0200  -0.0217   0.0118   0.00    1.1
2173 299866.000    541527.3045  -5479446.2541   3208361.9282   2   8   0.0262   0.0396   0.0198  -0.0199  -0.0216   0.0118   0.00    1.1
2173 299867.000    541527.3046  -5479446.2645   3208361.9288   2   8   0.0261   0.0394   0.0198  -0.0199  -0.0216   0.0118   0.00    1.1
2173 299868.000    541527.3053  -5479446.2768   3208361.9303   2   8   0.0261   0.0393   0.0197  -0.0198  -0.0215   0.0117   0.00    1.1
2173 299869.000    541527.3072  -5479446.2844   3208361.9319   2   8   0.0259   0.0392   0.0196  -0.0198  -0.0214   0.0118   0.00    1.1
2173 299870.000    541527.3087  -5479446.2888   3208361.9329   2   8   0.0260   0.0391   0.0195  -0.0198  -0.0214   0.0119   0.00    1.1
2173 299871.000    541527.3062  -5479446.2990   3208361.9327   2   8   0.0258   0.0390   0.0195  -0.0198  -0.0213   0.0117   0.00    1.1
2173 299872.000    541527.3075  -5479446.3069   3208361.9340   2   8   0.0259   0.0389   0.0195  -0.0198  -0.0213   0.0116   0.00    1.1
2173 299873.000    541527.3071  -5479446.3156   3208361.9326   2   8   0.0258   0.0388   0.0193  -0.0198  -0.0212   0.0118   0.00    1.1
2173 299874.000    541527.3063  -5479446.3237   3208361.9333   2   8   0.0258   0.0387   0.0194  -0.0198  -0.0212   0.0118   0.00    1.1
2173 299875.000    541527.3058  -5479446.3287   3208361.9313   2   8   0.0256   0.0386   0.0193  -0.0197  -0.0211   0.0117   0.00    1.1
2173 299876.000    541527.3062  -5479446.3394   3208361.9344   2   8   0.0257   0.0385   0.0192  -0.0197  -0.0211   0.0119   0.00    1.1
2173 299877.000    541527.3064  -5479446.3467   3208361.9326   2   8   0.0255   0.0384   0.0191  -0.0197  -0.0210   0.0117   0.00    1.1
2173 299878.000    541527.3090  -5479446.3558   3208361.9347   2   8   0.0256   0.0383   0.0191  -0.0196  -0.0209   0.0117   0.00    1.1
2173 299879.000    541527.3080  -5479446.3572   3208361.9338   2   8   0.0255   0.0381   0.0190  -0.0196  -0.0209   0.0117   0.00    1.1
2173 299880.000    541527.3089  -5479446.3670   3208361.9360   2   8   0.0254   0.0380   0.0190  -0.0196  -0.0209   0.0117   0.00    1.1
2173 299881.000    541527.3105  -5479446.3749   3208361.9377   2   8   0.0254   0.0379   0.0189  -0.0196  -0.0208   0.0117   0.00    1.1
2173 299882.000    541527.3091  -5479446.3801   3208361.9378   2   8   0.0254   0.0378   0.0188  -0.0195  -0.0207   0.0116   0.00    1.1
2173 299883.000    541527.3120  -5479446.3864   3208361.9382   2   8   0.0252   0.0377   0.0188  -0.0195  -0.0206   0.0116   0.00    1.1
2173 299884.000    541527.3096  -5479446.3930   3208361.9396   2   8   0.0253   0.0376   0.0187  -0.0195  -0.0206   0.0116   0.00    1.1
2173 299885.000    541527.3122  -5479446.3965   3208361.9373   2   8   0.0252   0.0375   0.0186  -0.0195  -0.0206   0.0117   0.00    1.1
2173 299886.000    541527.3124  -5479446.4002   3208361.9339   2   8   0.0251   0.0374   0.0186  -0.0195  -0.0205   0.0117   0.00    1.1
2173 299887.000    541527.3131  -5479446.3963   3208361.9309   2   8   0.0251   0.0373   0.0186  -0.0194  -0.0204   0.0116   0.00    1.1
2173 299888.000    541527.3110  -5479446.4089   3208361.9336   2   8   0.0250   0.0372   0.0185  -0.0194  -0.0204   0.0117   0.00    1.1
2173 299889.000    541527.3111  -5479446.4119   3208361.9305   2   8   0.0250   0.0371   0.0185  -0.0194  -0.0203   0.0117   0.00    1.1
2173 299890.000    541527.3136  -5479446.4188   3208361.9321   2   8   0.0249   0.0370   0.0184  -0.0194  -0.0203   0.0116   0.00    1.1
2173 299891.000    541527.3124  -5479446.4222   3208361.9296   2   8   0.0249   0.0369   0.0183  -0.0194  -0.0203   0.0116   0.00    1.1
2173 299892.000    541527.3134  -5479446.4371   3208361.9345   2   8   0.0248   0.0368   0.0183  -0.0193  -0.0202   0.0114   0.00    1.1
2173 299893.000    541527.3138  -5479446.4372   3208361.9336   2   8   0.0248   0.0368   0.0182  -0.0193  -0.0201   0.0115   0.00    1.1
2173 299894.000    541527.3126  -5479446.4406   3208361.9303   2   8   0.0248   0.0367   0.0181  -0.0193  -0.0200   0.0117   0.00    1.1
2173 299895.000    541527.3225  -5479446.4515   3208361.9174   2   8   0.0246   0.0365   0.0181  -0.0193  -0.0200   0.0116   0.00    1.1
2173 299896.000    541527.3179  -5479446.4527   3208361.9162   2   8   0.0245   0.0365   0.0180  -0.0192  -0.0200   0.0114   0.00    1.1
2173 299897.000    541527.3169  -5479446.4619   3208361.9179   2   8   0.0246   0.0364   0.0180  -0.0192  -0.0199   0.0115   0.00    1.1
2173 299898.000    541527.3156  -5479446.4632   3208361.9150   2   8   0.0244   0.0363   0.0179  -0.0192  -0.0199   0.0114   0.00    1.1
2173 299899.000    541527.3134  -5479446.4683   3208361.9139   2   8   0.0245   0.0361   0.0179  -0.0191  -0.0198   0.0114   0.00    1.1
2173 299900.000    541527.3113  -5479446.4720   3208361.9115   2   8   0.0244   0.0361   0.0178  -0.0191  -0.0197   0.0115   0.00    1.1
2173 299901.000    541527.3104  -5479446.4731   3208361.9087   2   8   0.0243   0.0360   0.0178  -0.0191  -0.0197   0.0114   0.00    1.1
2173 299902.000    541527.3089  -5479446.4760   3208361.9054   2   8   0.0243   0.0359   0.0177  -0.0190  -0.0197   0.0114   0.00    1.1
2173 299903.000    541527.3080  -5479446.4823   3208361.9033   2   8   0.0243   0.0358   0.0177  -0.0190  -0.0196   0.0114   0.00    1.1
2173 299904.000    541527.3023  -5479446.4846   3208361.9000   2   8   0.0241   0.0357   0.0175  -0.0190  -0.0196   0.0113   0.00    1.1
2173 299905.000    541527.2992  -5479446.4878   3208361.8988   2   8   0.0243   0.0356   0.0176  -0.0190  -0.0195   0.0114   0.00    1.1
2173 299906.000    541527.2959  -5479446.4901   3208361.8981   2   8   0.0241   0.0356   0.0176  -0.0190  -0.0195   0.0114   0.00    1.1
2173 299907.000    541527.2933  -5479446.4946   3208361.8983   2   8   0.0241   0.0354   0.0175  -0.0190  -0.0194   0.0114   0.00    1.1
2173 299908.000    541527.2908  -5479446.4945   3208361.8970   2   8   0.0240   0.0354   0.0175  -0.0189  -0.0194   0.0114   0.00    1.1
2173 299909.000    541527.2889  -5479446.5002   3208361.8994   2   8   0.0240   0.0353   0.0174  -0.0189  -0.0194   0.0114   0.00    1.1
2173 299910.000    541527.2866  -5479446.5020   3208361.8975   2   8   0.0239   0.0352   0.0174  -0.0189  -0.0193   0.0113   0.00    1.1
2173 299911.000    541527.2848  -5479446.5041   3208361.8983   2   8   0.0239   0.0351   0.0172  -0.0188  -0.0192   0.0114   0.00    1.1
2173 299912.000    541527.2863  -5479446.5119   3208361.9016   2   8   0.0239   0.0350   0.0173  -0.0189  -0.0192   0.0114   0.00    1.1
2173 299913.000    541527.2686  -5479446.5367   3208361.9272   2   8   0.0238   0.0349   0.0172  -0.0188  -0.0192   0.0114   0.00    1.1
2173 299914.000    541527.2746  -5479446.5432   3208361.9343   2   8   0.0238   0.0348   0.0172  -0.0188  -0.0191   0.0112   0.00    1.1
2173 299915.000    541527.2743  -5479446.5443   3208361.9423   2   8   0.0238   0.0348   0.0171  -0.0187  -0.0191   0.0112   0.00    1.1
2173 299916.000    541527.2748  -5479446.5481   3208361.9482   2   8   0.0237   0.0347   0.0171  -0.0188  -0.0190   0.0113   0.00    1.1
2173 299917.000    541527.2788  -5479446.5511   3208361.9554   2   8   0.0236   0.0346   0.0170  -0.0188  -0.0190   0.0113   0.00    1.1
2173 299918.000    541527.2814  -5479446.5559   3208361.9637   2   8   0.0236   0.0345   0.0170  -0.0186  -0.0189   0.0113   0.00    1.1
2173 299919.000    541527.2798  -5479446.5680   3208361.9734   2   8   0.0236   0.0344   0.0169  -0.0187  -0.0189   0.0114   0.00    1.1
2173 299920.000    541527.2844  -5479446.5691   3208361.9779   2   8   0.0236   0.0343   0.0170  -0.0186  -0.0189   0.0112   0.00    1.1
2173 299921.000    541527.2843  -5479446.5710   3208361.9839   2   8   0.0234   0.0342   0.0168  -0.0186  -0.0188   0.0113   0.00    1.1
2173 299922.000    541527.2891  -5479446.5782   3208361.9913   2   8   0.0234   0.0342   0.0168  -0.0186  -0.0187   0.0112   0.00    1.1
2173 299923.000    541527.2903  -5479446.5770   3208361.9954   2   8   0.0234   0.0341   0.0167  -0.0186  -0.0187   0.0113   0.00    1.1
2173 299924.000    541527.2934  -5479446.5819   3208362.0024   2   8   0.0233   0.0340   0.0167  -0.0185  -0.0186   0.0112   0.00    1.0
2173 299925.000    541527.2939  -5479446.5820   3208362.0059   2   8   0.0234   0.0340   0.0166  -0.0185  -0.0186   0.0112   0.00    1.0
2173 299926.000    541527.2976  -5479446.5835   3208362.0104   2   8   0.0233   0.0338   0.0166  -0.0186  -0.0186   0.0112   0.00    1.0
2173 299927.000    541527.3009  -5479446.5940   3208362.0191   2   8   0.0232   0.0338   0.0166  -0.0185  -0.0186   0.0112   0.00    1.0
2173 299928.000    541527.3020  -5479446.5996   3208362.0243   2   8   0.0232   0.0337   0.0166  -0.0185  -0.0185   0.0111   0.00    1.0
2173 299929.000    541527.3067  -5479446.6017   3208362.0272   2   8   0.0232   0.0336   0.0164  -0.0185  -0.0185   0.0112   0.00    1.0
2173 299930.000    541527.3072  -5479446.6072   3208362.0370   2   8   0.0230   0.0335   0.0164  -0.0184  -0.0184   0.0112   0.00    1.0
2173 299931.000    541527.3097  -5479446.6122   3208362.0433   2   8   0.0230   0.0334   0.0163  -0.0183  -0.0185   0.0111   0.00    1.0
2173 299932.000    541527.3106  -5479446.6176   3208362.0476   2   8   0.0230   0.0334   0.0164  -0.0184  -0.0183   0.0111   0.00    1.0
2173 299933.000    541527.3133  -5479446.6226   3208362.0553   2   8   0.0230   0.0333   0.0164  -0.0183  -0.0183   0.0111   0.00    1.0
2173 299934.000    541527.3147  -5479446.6278   3208362.0605   2   8   0.0230   0.0332   0.0162  -0.0183  -0.0183   0.0111   0.00    1.0
2173 299935.000    541527.3181  -5479446.6319   3208362.0659   2   8   0.0229   0.0332   0.0163  -0.0183  -0.0182   0.0111   0.00    1.0
2173 299936.000    541527.3213  -5479446.6362   3208362.0719   2   8   0.0229   0.0330   0.0163  -0.0183  -0.0182   0.0109   0.00    1.0
2173 299937.000    541527.3236  -5479446.6395   3208362.0762   2   8   0.0227   0.0330   0.0162  -0.0183  -0.0181   0.0110   0.00    1.0
2173 299938.000    541527.3254  -5479446.6436   3208362.0820   2   8   0.0227   0.0329   0.0161  -0.0182  -0.0181   0.0110   0.00    1.0
2173 299939.000    541527.3292  -5479446.6479   3208362.0871   2   8   0.0227   0.0328   0.0161  -0.0182  -0.0181   0.0109   0.00    1.0
2173 299940.000    541527.3332  -5479446.6503   3208362.0907   2   8   0.0227   0.0328   0.0160  -0.0182  -0.0180   0.0111   0.00    1.0
2173 299941.000    541527.3351  -5479446.6524   3208362.0951   2   8   0.0226   0.0327   0.0160  -0.0182  -0.0180   0.0110   0.00    1.0
2173 299942.000    541527.3406  -5479446.6638   3208362.1043   2   8   0.0226   0.0326   0.0159  -0.0181  -0.0179   0.0110   0.00    1.0
2173 299943.000    541527.3429  -5479446.6668   3208362.1085   2   8   0.0225   0.0325   0.0160  -0.0180  -0.0179   0.0109   0.00    1.0
2173 299944.000    541527.3449  -5479446.6673   3208362.1114   2   8   0.0224   0.0325   0.0158  -0.0181  -0.0179   0.0110   0.00    1.0
2173 299945.000    541527.3472  -5479446.6714   3208362.1166   2   8   0.0225   0.0324   0.0158  -0.0180  -0.0178   0.0108   0.00    1.0
2173 299946.000    541527.3534  -5479446.6738   3208362.1185   2   8   0.0224   0.0323   0.0157  -0.0181  -0.0178   0.0110   0.00    1.0
2173 299947.000    541527.3583  -5479446.6721   3208362.1165   2   8   0.0224   0.0323   0.0157  -0.0180  -0.0178   0.0110   0.00    1.0
2173 299948.000    541527.3589  -5479446.6883   3208362.1340   2   8   0.0223   0.0322   0.0157  -0.0180  -0.0177   0.0109   0.00    1.0
2173 299949.000    541527.3619  -5479446.6881   3208362.1344   2   8   0.0223   0.0321   0.0157  -0.0180  -0.0177   0.0110   0.00    1.0
2173 299950.000    541527.3666  -5479446.6913   3208362.1385   2   8   0.0223   0.0320   0.0157  -0.0180  -0.0176   0.0108   0.00    1.0
2173 299951.000    541527.3698  -5479446.6919   3208362.1407   2   8   0.0223   0.0319   0.0156  -0.0179  -0.0176   0.0109   0.00    1.0
2173 299952.000    541527.3733  -5479446.6966   3208362.1458   2   8   0.0221   0.0319   0.0155  -0.0179  -0.0176   0.0109   0.00    1.0
2173 299953.000    541527.3788  -5479446.7017   3208362.1497   2   8   0.0222   0.0318   0.0156  -0.0179  -0.0175   0.0108   0.00    1.0
2173 299954.000    541527.3822  -5479446.7020   3208362.1499   2   8   0.0221   0.0318   0.0154  -0.0179  -0.0175   0.0109   0.00    1.0
2173 299955.000    541527.3894  -5479446.6844   3208362.1520   2   8   0.0220   0.0317   0.0155  -0.0178  -0.0174   0.0108   0.00    1.0
2173 299956.000    541527.3924  -5479446.6847   3208362.1552   2   8   0.0220   0.0316   0.0155  -0.0178  -0.0174   0.0107   0.00    1.1
2173 299957.000    541527.3945  -5479446.6872   3208362.1580   2   8   0.0221   0.0316   0.0153  -0.0178  -0.0174   0.0109   0.00    1.1
2173 299958.000    541527.4001  -5479446.6902   3208362.1606   2   8   0.0219   0.0315   0.0153  -0.0178  -0.0174   0.0109   0.00    1.1
2173 299959.000    541527.3973  -5479446.6921   3208362.1659   2   8   0.0219   0.0314   0.0153  -0.0177  -0.0173   0.0109   0.00    1.1
2173 299960.000    541527.3991  -5479446.7008   3208362.1768   2   8   0.0219   0.0313   0.0152  -0.0178  -0.0173   0.0107   0.00    1.1
2173 299961.000    541527.4021  -5479446.7015   3208362.1810   2   8   0.0220   0.0313   0.0152  -0.0177  -0.0173   0.0108   0.00    1.1
2173 299962.000    541527.4016  -5479446.7067   3208362.1868   2   8   0.0217   0.0312   0.0152  -0.0177  -0.0172   0.0106   0.00    1.1
2173 299963.000    541527.4049  -5479446.7083   3208362.1927   2   8   0.0218   0.0312   0.0151  -0.0177  -0.0171   0.0108   0.00    1.1
2173 299964.000    541527.4073  -5479446.7048   3208362.1940   2   8   0.0217   0.0311   0.0151  -0.0177  -0.0171   0.0109   0.00    1.1
2173 299965.000    541527.4113  -5479446.7104   3208362.1974   2   8   0.0217   0.0310   0.0150  -0.0176  -0.0171   0.0107   0.00    1.1
2173 299966.000    541527.4184  -5479446.7127   3208362.1986   2   8   0.0217   0.0309   0.0151  -0.0176  -0.0171   0.0108   0.00    1.1
2173 299967.000    541527.4214  -5479446.7113   3208362.1987   2   8   0.0216   0.0309   0.0151  -0.0176  -0.0171   0.0107   0.00    1.1
2173 299968.000    541527.4258  -5479446.7165   3208362.2026   2   8   0.0216   0.0308   0.0149  -0.0175  -0.0170   0.0106   0.00    1.1
2173 299969.000    541527.4332  -5479446.7170   3208362.2039   2   8   0.0215   0.0307   0.0149  -0.0175  -0.0170   0.0107   0.00    1.1
2173 299970.000    541527.4395  -5479446.7237   3208362.2047   2   8   0.0215   0.0307   0.0150  -0.0175  -0.0169   0.0106   0.00    1.1
2173 299971.000    541527.4444  -5479446.7225   3208362.2058   2   8   0.0215   0.0306   0.0149  -0.0175  -0.0169   0.0108   0.00    1.1
2173 299972.000    541527.4434  -5479446.7263   3208362.2114   2   8   0.0215   0.0305   0.0149  -0.0175  -0.0169   0.0107   0.00    1.1
2173 299973.000    541527.4458  -5479446.7316   3208362.2157   2   8   0.0214   0.0305   0.0148  -0.0175  -0.0169   0.0107   0.00    1.1
2173 299974.000    541527.4486  -5479446.7314   3208362.2174   2   8   0.0214   0.0304   0.0148  -0.0174  -0.0168   0.0105   0.00    1.1
2173 299975.000    541527.4532  -5479446.7404   3208362.2253   2   8   0.0212   0.0303   0.0148  -0.0174  -0.0168   0.0104   0.00    1.1
2173 299976.000    541527.4540  -5479446.7388   3208362.2263   2   8   0.0214   0.0303   0.0148  -0.0174  -0.0167   0.0106   0.00    1.1
2173 299977.000    541527.4577  -5479446.7429   3208362.2297   2   8   0.0214   0.0302   0.0147  -0.0174  -0.0167   0.0106   0.00    1.1
2173 299978.000    541527.4627  -5479446.7441   3208362.2312   2   8   0.0211   0.0302   0.0146  -0.0174  -0.0167   0.0106   0.00    1.1
