% program   : rnx2rtkp ver.2.4.3 b31
% inp file  : ngs/21_08_29_06_17_06_wihu.obs
% inp file  : ngs/21_08_29_06_17_06_wihu_VZ.obs
% inp file  : ngs/21_08_29_06_17_06_brdc.nav
% obs start : 2021/08/29 06:00:00.0 GPST (week2173  21600.0s)
% obs end   : 2021/08/29 06:59:59.0 GPST (week2173  25199.0s)
% ref pos   :  -243492.0199  -4519372.0099   4479401.6580
%
% (x/y/z-ecef=WGS84,Q=1:fix,2:float,3:sbas,4:dgps,5:single,6:ppp,ns=# of satellites)
%  GPST              x-ecef(m)      y-ecef(m)      z-ecef(m)   Q  ns   sdx(m)   sdy(m)   sdz(m)  sdxy(m)  sdyz(m)  sdzx(m) age(s)  ratio
2173  22605.000   -205922.8994  -4516299.5261   4484350.3531   2   7   0.4197   0.9209   0.9720   0.1127  -0.8168  -0.1196 -30.00    2.7
2173  22606.000   -205922.7940  -4516299.6255   4484350.5780   2   7   0.2985   0.6551   0.6911   0.0796  -0.5809  -0.0845 -29.00    2.7
2173  22607.000   -205922.7286  -4516299.7270   4484350.6085   2   7   0.2444   0.5363   0.5657   0.0650  -0.4755  -0.0691 -28.00    2.5
2173  22608.000   -205922.6883  -4516299.6969   4484350.6155   2   7   0.2120   0.4653   0.4906   0.0562  -0.4124  -0.0599 -27.00    2.4
2173  22609.000   -205922.7606  -4516299.7093   4484350.6227   2   7   0.1899   0.4166   0.4393   0.0503  -0.3693  -0.0536 -26.00    2.8
2173  22610.000   -205922.7517  -4516299.6980   4484350.6214   2   7   0.1735   0.3807   0.4013   0.0459  -0.3374  -0.0489 -25.00    2.7
2173  22611.000   -205922.7616  -4516299.6742   4484350.6677   2   7   0.1608   0.3527   0.3718   0.0424  -0.3125  -0.0453 -24.00    2.8
2173  22612.000   -205922.7569  -4516299.6611   4484350.6588   2   7   0.1505   0.3300   0.3479   0.0396  -0.2924  -0.0424 -23.00    2.8
2173  22613.000   -205922.7743  -4516299.6511   4484350.6630   2   7   0.1419   0.3113   0.3281   0.0373  -0.2758  -0.0399 -22.00    2.9
2173  22614.000   -205923.0778  -4516299.8017   4484350.8411   1   7   0.0165   0.0341   0.0381   0.0067  -0.0310  -0.0073 -21.00    3.1
2173  22615.000   -205923.0762  -4516299.7957   4484350.8398   1   7   0.0158   0.0326   0.0364   0.0064  -0.0296  -0.0069 -20.00    3.1
2173  22616.000   -205923.0746  -4516299.7972   4484350.8384   1   7   0.0151   0.0311   0.0347   0.0061  -0.0282  -0.0066 -19.00    3.1
2173  22617.000   -205923.0752  -4516299.8015   4484350.8420   1   7   0.0144   0.0296   0.0330   0.0058  -0.0269  -0.0062 -18.00    3.2
2173  22618.000   -205923.0742  -4516299.8003   4484350.8420   1   7   0.0136   0.0282   0.0313   0.0054  -0.0255  -0.0059 -17.00    3.2
2173  22619.000   -205923.0737  -4516299.7983   4484350.8403   1   7   0.0129   0.0267   0.0297   0.0051  -0.0242  -0.0056 -16.00    3.3
2173  22620.000   -205923.0738  -4516299.7995   4484350.8418   1   7   0.0122   0.0252   0.0280   0.0048  -0.0228  -0.0053 -15.00    3.4
2173  22621.000   -205923.0735  -4516299.7996   4484350.8429   1   7   0.0116   0.0238   0.0264   0.0045  -0.0215  -0.0049 -14.00    3.5
2173  22622.000   -205923.0716  -4516299.7974   4484350.8406   1   7   0.0108   0.0224   0.0248   0.0042  -0.0202  -0.0046 -13.00    3.5
2173  22623.000   -205923.0726  -4516299.8006   4484350.8434   1   7   0.0102   0.0210   0.0232   0.0039  -0.0189  -0.0042 -12.00    3.7
2173  22624.000   -205923.0717  -4516299.7963   4484350.8365   1   7   0.0095   0.0196   0.0216   0.0036  -0.0176  -0.0039 -11.00    3.8
2173  22625.000   -205923.0720  -4516299.8000   4484350.8401   1   7   0.0088   0.0182   0.0200   0.0033  -0.0164  -0.0036 -10.00    3.8
2173  22626.000   -205923.0716  -4516299.8026   4484350.8400   1   7   0.0082   0.0169   0.0186   0.0030  -0.0152  -0.0033  -9.00    3.8
2173  22627.000   -205923.0724  -4516299.8085   4484350.8419   1   7   0.0075   0.0156   0.0171   0.0027  -0.0140  -0.0030  -8.00    3.8
2173  22628.000   -205923.0720  -4516299.8111   4484350.8455   1   7   0.0069   0.0144   0.0157   0.0025  -0.0129  -0.0028  -7.00    3.7
2173  22629.000   -205923.0747  -4516299.8086   4484350.8442   1   7   0.0063   0.0132   0.0144   0.0021  -0.0118  -0.0026  -6.00    3.6
2173  22630.000   -205923.0760  -4516299.8092   4484350.8413   1   7   0.0058   0.0121   0.0131   0.0021  -0.0109  -0.0021  -5.00    3.5
2173  22631.000   -205923.0749  -4516299.8145   4484350.8460   1   7   0.0052   0.0112   0.0120   0.0017  -0.0100  -0.0013  -4.00    3.7
2173  22632.000   -205923.0785  -4516299.8164   4484350.8444   1   7   0.0049   0.0104   0.0110   0.0016  -0.0093  -0.0019  -3.00    3.8
2173  22633.000   -205923.0804  -4516299.8243   4484350.8503   1   7   0.0047   0.0098   0.0104   0.0008  -0.0087  -0.0016  -2.00    3.8
2173  22634.000   -205923.0780  -4516299.8273   4484350.8478   1   7   0.0041   0.0094   0.0098   0.0012  -0.0083  -0.0010  -1.00    3.9
2173  22635.000   -205923.0775  -4516299.8340   4484350.8540   1   7   0.0046   0.0093   0.0096   0.0010  -0.0082   0.0009   0.00    3.9
2173  22636.000   -205923.0800  -4516299.8321   4484350.8526   1   7   0.0037   0.0092   0.0096   0.0009  -0.0083  -0.0014   0.00    4.0
2173  22637.000   -205923.0781  -4516299.8285   4484350.8487   1   7   0.0043   0.0093   0.0096   0.0011  -0.0082   0.0007   0.00    4.0
2173  22638.000   -205923.0774  -4516299.8258   4484350.8455   1   7   0.0045   0.0093   0.0096   0.0009  -0.0082  -0.0007   0.00    4.0
2173  22639.000   -205923.0792  -4516299.8261   4484350.8469   1   7   0.0039   0.0093   0.0098   0.0011  -0.0082  -0.0013   0.00    4.0
2173  22640.000   -205923.0798  -4516299.8274   4484350.8448   1   7   0.0045   0.0093   0.0099  -0.0008  -0.0081  -0.0008   0.00    4.0
2173  22641.000   -205923.0772  -4516299.8296   4484350.8429   1   7   0.0041   0.0093   0.0100   0.0011  -0.0081  -0.0021   0.00    4.0
2173  22642.000   -205923.0765  -4516299.8264   4484350.8410   1   7   0.0042   0.0092   0.0097   0.0013  -0.0083  -0.0008   0.00    3.9
2173  22643.000   -205923.0755  -4516299.8263   4484350.8398   1   7   0.0038   0.0093   0.0099   0.0008  -0.0081  -0.0020   0.00    3.9
2173  22644.000   -205923.0745  -4516299.8240   4484350.8374   1   7   0.0041   0.0092   0.0096   0.0016  -0.0084  -0.0009   0.00    3.9
2173  22645.000   -205923.0743  -4516299.8254   4484350.8381   1   7   0.0038   0.0092   0.0096   0.0016  -0.0082  -0.0010   0.00    3.9
2173  22646.000   -205923.0742  -4516299.8270   4484350.8430   1   7   0.0038   0.0092   0.0097   0.0014  -0.0082  -0.0008   0.00    3.8
2173  22647.000   -205923.0759  -4516299.8224   4484350.8374   1   7   0.0045   0.0093   0.0097   0.0019  -0.0083  -0.0010   0.00    3.7
2173  22648.000   -205923.0755  -4516299.8189   4484350.8357   1   7   0.0042   0.0093   0.0097  -0.0007  -0.0082  -0.0009   0.00    3.7
2173  22649.000   -205923.0728  -4516299.8171   4484350.8306   1   7   0.0046   0.0093   0.0097   0.0008  -0.0081  -0.0006   0.00    3.7
2173  22650.000   -205923.0762  -4516299.8157   4484350.8329   1   7   0.0044   0.0093   0.0098   0.0011  -0.0082  -0.0017   0.00    3.6
2173  22651.000   -205923.0748  -4516299.8138   4484350.8300   1   7   0.0044   0.0092   0.0097   0.0017  -0.0082   0.0006   0.00    3.6
2173  22652.000   -205923.0748  -4516299.8170   4484350.8326   1   7   0.0046   0.0093   0.0099   0.0014  -0.0081  -0.0013   0.00    3.6
2173  22653.000   -205923.0750  -4516299.8156   4484350.8356   1   7   0.0042   0.0094   0.0099   0.0013  -0.0080  -0.0017   0.00    3.7
2173  22654.000   -205923.0745  -4516299.8170   4484350.8354   1   7   0.0044   0.0093   0.0098   0.0012  -0.0082  -0.0011   0.00    3.7
2173  22655.000   -205923.0739  -4516299.8138   4484350.8328   1   7   0.0040   0.0092   0.0096   0.0011  -0.0083  -0.0011   0.00    3.7
2173  22656.000   -205923.0763  -4516299.8210   4484350.8396   1   7   0.0039   0.0093   0.0098  -0.0007  -0.0081  -0.0014   0.00    3.8
2173  22657.000   -205923.0748  -4516299.8172   4484350.8343   1   7   0.0042   0.0092   0.0097   0.0017  -0.0082  -0.0013   0.00    3.8
2173  22658.000   -205923.0740  -4516299.8167   4484350.8364   1   7   0.0037   0.0093   0.0097   0.0011  -0.0082  -0.0013   0.00    3.8
2173  22659.000   -205923.0753  -4516299.8133   4484350.8328   1   7   0.0045   0.0093   0.0099   0.0004  -0.0081  -0.0021   0.00    3.8
2173  22660.000   -205923.0772  -4516299.8176   4484350.8370   1   7   0.0039   0.0092   0.0095   0.0013  -0.0083  -0.0005   0.00    3.8
2173  22661.000   -205923.0749  -4516299.8202   4484350.8380   1   7   0.0042   0.0093   0.0098   0.0009  -0.0082  -0.0019   0.00    3.8
2173  22662.000   -205923.0736  -4516299.8174   4484350.8368   1   7   0.0048   0.0093   0.0096  -0.0009  -0.0081  -0.0009   0.00    3.9
2173  22663.000   -205923.0742  -4516299.8171   4484350.8368   1   7   0.0043   0.0092   0.0097   0.0008  -0.0081  -0.0014   0.00    3.9
2173  22664.000   -205923.0785  -4516299.8146   4484350.8346   1   7   0.0045   0.0094   0.0099   0.0008  -0.0081  -0.0015   0.00    3.9
2173  22665.000   -205923.0739  -4516299.8146   4484350.8350   1   7   0.0040   0.0092   0.0097   0.0010  -0.0082  -0.0011   0.00    3.9
2173  22666.000   -205923.0763  -4516299.8082   4484350.8302   1   7   0.0043   0.0092   0.0097   0.0013  -0.0082  -0.0014   0.00    3.9
2173  22667.000   -205923.0764  -4516299.8119   4484350.8322   1   7   0.0039   0.0093   0.0097   0.0011  -0.0082  -0.0015   0.00    4.0
2173  22668.000   -205923.0747  -4516299.8072   4484350.8303   1   7   0.0044   0.0093   0.0096   0.0011  -0.0081   0.0007   0.00    4.0
2173  22669.000   -205923.0753  -4516299.8136   4484350.8391   1   7   0.0043   0.0093   0.0097   0.0007  -0.0081  -0.0009   0.00    4.1
2173  22670.000   -205923.0742  -4516299.8109   4484350.8379   1   7   0.0043   0.0093   0.0095  -0.0006  -0.0081  -0.0005   0.00    4.1
2173  22671.000   -205923.0741  -4516299.8096   4484350.8373   1   7   0.0039   0.0092   0.0096   0.0012  -0.0082  -0.0011   0.00    4.2
2173  22672.000   -205923.0736  -4516299.8104   4484350.8370   1   7   0.0042   0.0092   0.0097  -0.0007  -0.0081  -0.0022   0.00    4.2
2173  22673.000   -205923.0765  -4516299.8118   4484350.8420   1   7   0.0039   0.0092   0.0097   0.0014  -0.0082  -0.0015   0.00    4.3
2173  22674.000   -205923.0768  -4516299.8064   4484350.8336   1   7   0.0042   0.0092   0.0096  -0.0006  -0.0082   0.0009   0.00    4.4
2173  22675.000   -205923.0742  -4516299.8048   4484350.8329   1   7   0.0043   0.0092   0.0097   0.0015  -0.0082  -0.0017   0.00    4.4
2173  22676.000   -205923.0714  -4516299.8067   4484350.8344   1   7   0.0044   0.0093   0.0099   0.0011  -0.0081  -0.0017   0.00    4.5
2173  22677.000   -205923.0749  -4516299.8080   4484350.8357   1   7   0.0038   0.0093   0.0096  -0.0002  -0.0081   0.0008   0.00    4.5
2173  22678.000   -205923.0724  -4516299.8089   4484350.8365   1   7   0.0045   0.0092   0.0097   0.0014  -0.0082  -0.0012   0.00    4.5
2173  22679.000   -205923.0726  -4516299.8049   4484350.8354   1   7   0.0041   0.0092   0.0096   0.0012  -0.0082  -0.0009   0.00    4.6
2173  22680.000   -205923.0711  -4516299.8093   4484350.8370   1   7   0.0040   0.0092   0.0096   0.0010  -0.0082  -0.0018   0.00    4.7
2173  22681.000   -205923.0698  -4516299.8136   4484350.8421   1   7   0.0039   0.0093   0.0097   0.0012  -0.0081  -0.0008   0.00    4.8
2173  22682.000   -205923.0716  -4516299.8106   4484350.8373   1   7   0.0040   0.0092   0.0096   0.0009  -0.0083  -0.0013   0.00    4.9
2173  22683.000   -205923.0708  -4516299.8101   4484350.8382   1   7   0.0041   0.0092   0.0097   0.0009  -0.0081  -0.0012   0.00    5.0
2173  22684.000   -205923.0717  -4516299.8080   4484350.8352   1   7   0.0043   0.0092   0.0097   0.0008  -0.0081  -0.0013   0.00    5.1
2173  22685.000   -205923.0716  -4516299.8126   4484350.8351   1   7   0.0039   0.0093   0.0096   0.0005  -0.0081   0.0006   0.00    5.2
2173  22686.000   -205923.0702  -4516299.8161   4484350.8393   1   7   0.0044   0.0093   0.0097   0.0006  -0.0080  -0.0014   0.00    5.2
2173  22687.000   -205923.0693  -4516299.8137   4484350.8359   1   7   0.0044   0.0093   0.0097  -0.0010  -0.0080  -0.0018   0.00    5.3
2173  22688.000   -205923.0713  -4516299.8211   4484350.8396   1   7   0.0041   0.0093   0.0096   0.0012  -0.0081  -0.0019   0.00    5.3
2173  22689.000   -205923.0679  -4516299.8251   4484350.8420   1   7   0.0037   0.0093   0.0097   0.0010  -0.0081  -0.0020   0.00    5.4
2173  22690.000   -205923.0706  -4516299.8226   4484350.8406   1   7   0.0043   0.0093   0.0097   0.0017  -0.0081  -0.0014   0.00    5.4
2173  22691.000   -205923.0690  -4516299.8259   4484350.8430   1   7   0.0041   0.0093   0.0097   0.0012  -0.0081  -0.0007   0.00    5.3
2173  22692.000   -205923.0673  -4516299.8230   4484350.8403   1   7   0.0041   0.0092   0.0097   0.0015  -0.0081  -0.0015   0.00    5.3
2173  22693.000   -205923.0691  -4516299.8245   4484350.8428   1   7   0.0039   0.0092   0.0095   0.0017  -0.0081  -0.0006   0.00    5.3
2173  22694.000   -205923.0681  -4516299.8266   4484350.8468   1   7   0.0044   0.0093   0.0098  -0.0008  -0.0081  -0.0012   0.00    5.3
2173  22695.000   -205923.0703  -4516299.8295   4484350.8484   1   7   0.0045   0.0093   0.0097   0.0008  -0.0081  -0.0012   0.00    5.3
2173  22696.000   -205923.0679  -4516299.8255   4484350.8474   1   7   0.0041   0.0092   0.0097   0.0010  -0.0081  -0.0013   0.00    5.3
2173  22697.000   -205923.0686  -4516299.8202   4484350.8435   1   7   0.0042   0.0093   0.0097   0.0013  -0.0080  -0.0011   0.00    5.3
2173  22698.000   -205923.0675  -4516299.8240   4484350.8474   1   7   0.0041   0.0092   0.0095   0.0013  -0.0082  -0.0013   0.00    5.3
2173  22699.000   -205923.0687  -4516299.8231   4484350.8427   1   7   0.0043   0.0093   0.0097  -0.0007  -0.0079  -0.0004   0.00    5.3
2173  22700.000   -205923.0683  -4516299.8197   4484350.8389   1   7   0.0036   0.0092   0.0096   0.0012  -0.0081   0.0011   0.00    5.3
2173  22701.000   -205923.0726  -4516299.8228   4484350.8434   1   7   0.0043   0.0093   0.0096   0.0015  -0.0081  -0.0018   0.00    5.3
2173  22702.000   -205923.0716  -4516299.8209   4484350.8416   1   7   0.0040   0.0092   0.0095   0.0017  -0.0082   0.0008   0.00    5.3
2173  22703.000   -205923.0697  -4516299.8183   4484350.8413   1   7   0.0040   0.0093   0.0098   0.0013  -0.0079   0.0004   0.00    5.3
2173  22704.000   -205923.0746  -4516299.8199   4484350.8456   1   7   0.0044   0.0093   0.0097  -0.0010  -0.0080  -0.0021   0.00    5.3
2173  22705.000   -205923.0728  -4516299.8180   4484350.8474   1   7   0.0052   0.0092   0.0094   0.0015  -0.0082   0.0011   0.00    5.3
2173  22706.000   -205923.0733  -4516299.8180   4484350.8457   1   7   0.0043   0.0092   0.0096   0.0010  -0.0081  -0.0012   0.00    5.3
2173  22707.000   -205923.0742  -4516299.8155   4484350.8450   1   7   0.0041   0.0092   0.0096   0.0018  -0.0081  -0.0014   0.00    5.3
2173  22708.000   -205923.0723  -4516299.8128   4484350.8434   1   7   0.0047   0.0093   0.0096   0.0007  -0.0080  -0.0013   0.00    5.3
2173  22709.000   -205923.0748  -4516299.8192   4484350.8493   1   7   0.0041   0.0093   0.0098   0.0008  -0.0079  -0.0016   0.00    5.3
2173  22710.000   -205923.0732  -4516299.8141   4484350.8465   1   7   0.0044   0.0092   0.0097   0.0007  -0.0081  -0.0019   0.00    5.3
2173  22711.000   -205923.0730  -4516299.8120   4484350.8437   1   7   0.0043   0.0092   0.0096   0.0013  -0.0081  -0.0011   0.00    5.3
2173  22712.000   -205923.0733  -4516299.8108   4484350.8426   1   7   0.0039   0.0092   0.0095   0.0013  -0.0082  -0.0009   0.00    5.3
2173  22713.000   -205923.0721  -4516299.8069   4484350.8395   1   7   0.0039   0.0092   0.0096   0.0016  -0.0081   0.0004   0.00    5.3
2173  22714.000   -205923.0729  -4516299.8067   4484350.8369   1   7   0.0043   0.0092   0.0097   0.0013  -0.0081  -0.0018   0.00    5.3
2173  22715.000   -205923.0718  -4516299.8048   4484350.8335   1   7   0.0046   0.0092   0.0095   0.0004  -0.0081  -0.0008   0.00    5.3
2173  22716.000   -205923.0699  -4516299.8048   4484350.8308   1   7   0.0036   0.0091   0.0096   0.0014  -0.0081  -0.0013   0.00    5.3
2173  22717.000   -205923.0721  -4516299.7994   4484350.8286   1   7   0.0045   0.0092   0.0097   0.0002  -0.0080  -0.0011   0.00    5.3
2173  22718.000   -205923.0731  -4516299.7952   4484350.8234   1   7   0.0044   0.0093   0.0097  -0.0006  -0.0080  -0.0008   0.00    5.3
2173  22719.000   -205923.0695  -4516299.7988   4484350.8250   1   7   0.0047   0.0093   0.0095  -0.0003  -0.0081  -0.0012   0.00    5.3
2173  22720.000   -205923.0702  -4516299.7936   4484350.8243   1   7   0.0043   0.0091   0.0094   0.0014  -0.0082   0.0013   0.00    5.3
2173  22721.000   -205923.0708  -4516299.7946   4484350.8247   1   7   0.0040   0.0092   0.0097   0.0016  -0.0081   0.0003   0.00    5.3
2173  22722.000   -205923.0726  -4516299.7955   4484350.8261   1   7   0.0037   0.0093   0.0096   0.0012  -0.0080  -0.0023   0.00    5.3
2173  22723.000   -205923.0702  -4516299.7969   4484350.8250   1   7   0.0046   0.0092   0.0097   0.0008  -0.0081  -0.0018   0.00    5.3
2173  22724.000   -205923.0709  -4516299.7964   4484350.8280   1   7   0.0041   0.0092   0.0096   0.0003  -0.0082  -0.0014   0.00    5.3
2173  22725.000   -205923.0722  -4516299.8008   4484350.8293   1   7   0.0047   0.0092   0.0097   0.0014  -0.0081  -0.0017   0.00    5.3
2173  22726.000   -205923.0732  -4516299.8053   4484350.8349   1   7   0.0046   0.0092   0.0097  -0.0007  -0.0081  -0.0018   0.00    5.3
2173  22727.000   -205923.0718  -4516299.8058   4484350.8300   1   7   0.0046   0.0092   0.0098   0.0013  -0.0080  -0.0015   0.00    5.4
2173  22728.000   -205923.0731  -4516299.8065   4484350.8348   1   7   0.0043   0.0091   0.0094   0.0010  -0.0082   0.0004   0.00    5.4
2173  22729.000   -205923.0719  -4516299.8033   4484350.8321   1   7   0.0043   0.0092   0.0096   0.0007  -0.0081  -0.0019   0.00    5.4
2173  22730.000   -205923.0706  -4516299.8044   4484350.8293   1   7   0.0043   0.0092   0.0096   0.0014  -0.0081  -0.0008   0.00    5.4
2173  22731.000   -205923.0706  -4516299.8019   4484350.8297   1   7   0.0046   0.0092   0.0096  -0.0007  -0.0080  -0.0010   0.00    5.4
2173  22732.000   -205923.0695  -4516299.7963   4484350.8259   1   7   0.0042   0.0091   0.0095   0.0007  -0.0082  -0.0019   0.00    5.5
2173  22733.000   -205923.0712  -4516299.8038   4484350.8276   1   7   0.0047   0.0093   0.0097  -0.0003  -0.0080  -0.0014   0.00    5.5
2173  22734.000   -205923.0709  -4516299.7974   4484350.8235   1   7   0.0040   0.0092   0.0097   0.0005  -0.0081  -0.0017   0.00    5.5
2173  22735.000   -205923.0717  -4516299.8033   4484350.8326   1   7   0.0044   0.0093   0.0096   0.0007  -0.0080  -0.0005   0.00    5.5
2173  22736.000   -205923.0708  -4516299.8024   4484350.8299   1   7   0.0041   0.0092   0.0096   0.0004  -0.0081  -0.0005   0.00    5.5
2173  22737.000   -205923.0733  -4516299.8082   4484350.8350   1   7   0.0042   0.0091   0.0094   0.0018  -0.0082   0.0010   0.00    5.5
2173  22738.000   -205923.0713  -4516299.8087   4484350.8326   1   7   0.0039   0.0092   0.0094   0.0019  -0.0081  -0.0007   0.00    5.5
2173  22739.000   -205923.0710  -4516299.8044   4484350.8289   1   7   0.0041   0.0092   0.0094   0.0019  -0.0082   0.0008   0.00    5.5
2173  22740.000   -205923.0703  -4516299.8039   4484350.8276   1   7   0.0040   0.0092   0.0097   0.0009  -0.0081  -0.0019   0.00    5.5
2173  22741.000   -205923.0738  -4516299.8100   4484350.8330   1   7   0.0042   0.0092   0.0096   0.0006  -0.0080  -0.0016   0.00    5.6
2173  22742.000   -205923.0729  -4516299.8105   4484350.8346   1   7   0.0036   0.0092   0.0096   0.0010  -0.0080   0.0004   0.00    5.6
2173  22743.000   -205923.0726  -4516299.8061   4484350.8322   1   7   0.0040   0.0092   0.0095   0.0007  -0.0080  -0.0008   0.00    5.6
2173  22744.000   -205923.0727  -4516299.8010   4484350.8303   1   7   0.0040   0.0092   0.0095  -0.0010  -0.0080  -0.0010   0.00    5.6
2173  22745.000   -205923.0733  -4516299.8047   4484350.8284   1   7   0.0040   0.0091   0.0095   0.0018  -0.0082  -0.0015   0.00    5.6
2173  22746.000   -205923.0751  -4516299.8080   4484350.8319   1   7   0.0047   0.0092   0.0097  -0.0014  -0.0080  -0.0020   0.00    5.6
2173  22747.000   -205923.0733  -4516299.8056   4484350.8285   1   7   0.0043   0.0092   0.0096   0.0011  -0.0080  -0.0008   0.00    5.7
2173  22748.000   -205923.0732  -4516299.8048   4484350.8301   1   7   0.0044   0.0092   0.0096   0.0015  -0.0080  -0.0016   0.00    5.7
2173  22749.000   -205923.0735  -4516299.8047   4484350.8274   1   7   0.0040   0.0091   0.0095   0.0014  -0.0081  -0.0006   0.00    5.7
2173  22750.000   -205923.0714  -4516299.8104   4484350.8305   1   7   0.0040   0.0091   0.0094   0.0014  -0.0082  -0.0015   0.00    5.7
2173  22751.000   -205923.0728  -4516299.8018   4484350.8240   1   7   0.0046   0.0091   0.0095   0.0005  -0.0082  -0.0017   0.00    5.7
2173  22752.000   -205923.0733  -4516299.8006   4484350.8258   1   7   0.0044   0.0092   0.0096   0.0006  -0.0079  -0.0009   0.00    5.7
2173  22753.000   -205923.0736  -4516299.8072   4484350.8293   1   7   0.0044   0.0092   0.0096   0.0007  -0.0080  -0.0010   0.00    5.7
2173  22754.000   -205923.0727  -4516299.8009   4484350.8231   1   7   0.0045   0.0092   0.0095   0.0009  -0.0080  -0.0007   0.00    5.7
2173  22755.000   -205923.0755  -4516299.8008   4484350.8263   1   7   0.0044   0.0093   0.0098   0.0015  -0.0080  -0.0020   0.00    5.7
2173  22756.000   -205923.0738  -4516299.8026   4484350.8257   1   7   0.0041   0.0092   0.0095   0.0016  -0.0081  -0.0019   0.00    5.7
2173  22757.000   -205923.0726  -4516299.8037   4484350.8255   1   7   0.0041   0.0092   0.0094   0.0014  -0.0081  -0.0009   0.00    5.7
2173  22758.000   -205923.0752  -4516299.8037   4484350.8238   1   7   0.0044   0.0092   0.0095   0.0013  -0.0080   0.0001   0.00    5.7
2173  22759.000   -205923.0755  -4516299.8050   4484350.8260   1   7   0.0041   0.0093   0.0096   0.0006  -0.0079  -0.0014   0.00    5.6
2173  22760.000   -205923.0758  -4516299.8030   4484350.8243   1   7   0.0044   0.0092   0.0095   0.0011  -0.0080  -0.0011   0.00    5.6
2173  22761.000   -205923.0755  -4516299.8067   4484350.8310   1   7   0.0032   0.0092   0.0094   0.0012  -0.0081  -0.0006   0.00    5.6
2173  22762.000   -205923.0765  -4516299.8000   4484350.8240   1   7   0.0040   0.0091   0.0092   0.0017  -0.0083  -0.0005   0.00    5.6
2173  22763.000   -205923.0786  -4516299.8074   4484350.8293   1   7   0.0044   0.0092   0.0096   0.0011  -0.0080  -0.0016   0.00    5.6
2173  22764.000   -205923.0782  -4516299.8062   4484350.8282   1   7   0.0044   0.0091   0.0095   0.0011  -0.0081  -0.0006   0.00    5.5
2173  22765.000   -205923.0768  -4516299.8042   4484350.8244   1   7   0.0045   0.0092   0.0095   0.0012  -0.0080  -0.0013   0.00    5.5
2173  22766.000   -205923.0774  -4516299.7996   4484350.8253   1   7   0.0038   0.0091   0.0093   0.0018  -0.0081  -0.0010   0.00    5.5
2173  22767.000   -205923.0792  -4516299.7989   4484350.8224   1   7   0.0039   0.0092   0.0097   0.0015  -0.0079  -0.0021   0.00    5.5
2173  22768.000   -205923.0813  -4516299.8008   4484350.8255   1   7   0.0041   0.0092   0.0095   0.0016  -0.0081  -0.0011   0.00    5.4
2173  22769.000   -205923.0776  -4516299.7994   4484350.8245   1   7   0.0042   0.0091   0.0094   0.0007  -0.0081  -0.0007   0.00    5.4
2173  22770.000   -205923.0795  -4516299.7979   4484350.8254   1   7   0.0039   0.0091   0.0093   0.0014  -0.0081   0.0023   0.00    5.4
2173  22771.000   -205923.0810  -4516299.7966   4484350.8243   1   7   0.0042   0.0092   0.0096  -0.0005  -0.0080  -0.0007   0.00    5.4
2173  22772.000   -205923.0807  -4516299.7965   4484350.8259   1   7   0.0043   0.0092   0.0094  -0.0008  -0.0080  -0.0012   0.00    5.4
2173  22773.000   -205923.0809  -4516299.7972   4484350.8271   1   7   0.0040   0.0091   0.0093  -0.0007  -0.0081  -0.0016   0.00    5.4
2173  22774.000   -205923.0809  -4516299.7915   4484350.8217   1   7   0.0041   0.0092   0.0097  -0.0006  -0.0079  -0.0021   0.00    5.4
2173  22775.000   -205923.0793  -4516299.7901   4484350.8210   1   7   0.0043   0.0092   0.0096   0.0017  -0.0080  -0.0019   0.00    5.4
2173  22776.000   -205923.0785  -4516299.7934   4484350.8220   1   7   0.0047   0.0092   0.0096   0.0015  -0.0080  -0.0012   0.00    5.4
2173  22777.000   -205923.0792  -4516299.7892   4484350.8194   1   7   0.0044   0.0092   0.0096   0.0016  -0.0080  -0.0019   0.00    5.3
2173  22778.000   -205923.0779  -4516299.7924   4484350.8205   1   7   0.0043   0.0092   0.0095   0.0019  -0.0081   0.0010   0.00    5.3
2173  22779.000   -205923.0796  -4516299.7934   4484350.8210   1   7   0.0041   0.0092   0.0096  -0.0009  -0.0080  -0.0019   0.00    5.3
2173  22780.000   -205923.0801  -4516299.7923   4484350.8223   1   7   0.0043   0.0092   0.0095   0.0006  -0.0079   0.0003   0.00    5.3
2173  22781.000   -205923.0780  -4516299.7897   4484350.8182   1   7   0.0042   0.0092   0.0094   0.0015  -0.0081  -0.0016   0.00    5.3
2173  22782.000   -205923.0795  -4516299.7913   4484350.8157   1   7   0.0038   0.0092   0.0095   0.0008  -0.0081  -0.0016   0.00    5.3
2173  22783.000   -205923.0791  -4516299.7901   4484350.8169   1   7   0.0043   0.0092   0.0095   0.0014  -0.0080  -0.0013   0.00    5.3
2173  22784.000   -205923.0778  -4516299.7940   4484350.8181   1   7   0.0044   0.0092   0.0096   0.0011  -0.0081  -0.0022   0.00    5.3
2173  22785.000   -205923.0800  -4516299.7951   4484350.8229   1   7   0.0043   0.0093   0.0096  -0.0012  -0.0079  -0.0025   0.00    5.2
2173  22786.000   -205923.0781  -4516299.7932   4484350.8169   1   7   0.0045   0.0092   0.0095   0.0010  -0.0080  -0.0013   0.00    5.2
2173  22787.000   -205923.0776  -4516299.7897   4484350.8148   1   7   0.0039   0.0092   0.0097  -0.0010  -0.0080  -0.0026   0.00    5.2
2173  22788.000   -205923.0802  -4516299.7945   4484350.8178   1   7   0.0037   0.0091   0.0096   0.0006  -0.0080  -0.0013   0.00    5.2
2173  22789.000   -205923.0793  -4516299.7986   4484350.8175   1   7   0.0040   0.0092   0.0094   0.0008  -0.0080  -0.0009   0.00    5.2
2173  22790.000   -205923.0780  -4516299.7962   4484350.8219   1   7   0.0041   0.0092   0.0096   0.0008  -0.0079  -0.0013   0.00    5.2
2173  22791.000   -205923.0800  -4516299.7987   4484350.8240   1   7   0.0044   0.0092   0.0097   0.0013  -0.0080  -0.0014   0.00    5.2
2173  22792.000   -205923.0793  -4516299.7952   4484350.8183   1   7   0.0038   0.0091   0.0096   0.0012  -0.0081  -0.0020   0.00    5.2
2173  22793.000   -205923.0773  -4516299.7965   4484350.8200   1   7   0.0039   0.0091   0.0093   0.0008  -0.0081  -0.0006   0.00    5.2
2173  22794.000   -205923.0787  -4516299.7980   4484350.8200   1   7   0.0046   0.0092   0.0094   0.0005  -0.0079  -0.0015   0.00    5.2
2173  22795.000   -205923.0785  -4516299.7924   4484350.8179   1   7   0.0043   0.0092   0.0094   0.0008  -0.0079  -0.0008   0.00    5.2
2173  22796.000   -205923.0796  -4516299.7964   4484350.8212   1   7   0.0048   0.0093   0.0096  -0.0009  -0.0078  -0.0014   0.00    5.2
2173  22797.000   -205923.0778  -4516299.7947   4484350.8198   1   7   0.0046   0.0091   0.0093   0.0015  -0.0081  -0.0008   0.00    5.2
2173  22798.000   -205923.0790  -4516299.7920   4484350.8186   1   7   0.0042   0.0091   0.0094   0.0018  -0.0081  -0.0017   0.00    5.2
2173  22799.000   -205923.0770  -4516299.7937   4484350.8229   1   7   0.0042   0.0091   0.0095   0.0010  -0.0079  -0.0019   0.00    5.3
2173  22800.000   -205923.0782  -4516299.7975   4484350.8237   1   7   0.0046   0.0092   0.0095   0.0013  -0.0079  -0.0018   0.00    5.2
2173  22801.000   -205923.0790  -4516299.7946   4484350.8218   1   7   0.0047   0.0092   0.0097   0.0007  -0.0079  -0.0020   0.00    5.3
2173  22802.000   -205923.0802  -4516299.7923   4484350.8204   1   7   0.0042   0.0092   0.0092   0.0012  -0.0081  -0.0016   0.00    5.3
2173  22803.000   -205923.0806  -4516299.7958   4484350.8195   1   7   0.0043   0.0091   0.0094   0.0019  -0.0081   0.0013   0.00    5.3
2173  22804.000   -205923.0819  -4516299.7986   4484350.8217   1   7   0.0038   0.0091   0.0095   0.0013  -0.0080  -0.0016   0.00    5.3
2173  22805.000   -205923.0817  -4516299.7950   4484350.8219   1   7   0.0046   0.0092   0.0094   0.0010  -0.0079  -0.0007   0.00    5.3
2173  22806.000   -205923.0816  -4516299.7959   4484350.8201   1   7   0.0044   0.0092   0.0096   0.0009  -0.0080  -0.0021   0.00    5.3
2173  22807.000   -205923.0823  -4516299.7981   4484350.8243   1   7   0.0039   0.0091   0.0095   0.0005  -0.0080  -0.0012   0.00    5.2
2173  22808.000   -205923.0809  -4516299.7977   4484350.8232   1   7   0.0045   0.0092   0.0096   0.0004  -0.0079  -0.0012   0.00    5.2
2173  22809.000   -205923.0806  -4516299.7978   4484350.8196   1   7   0.0043   0.0092   0.0093   0.0016  -0.0080  -0.0015   0.00    5.2
2173  22810.000   -205923.0818  -4516299.7979   4484350.8213   1   7   0.0043   0.0092   0.0095  -0.0008  -0.0079  -0.0015   0.00    5.2
2173  22811.000   -205923.0833  -4516299.8009   4484350.8255   1   7   0.0042   0.0092   0.0095   0.0012  -0.0079  -0.0008   0.00    5.2
2173  22812.000   -205923.0793  -4516299.7948   4484350.8192   1   7   0.0049   0.0092   0.0094  -0.0008  -0.0079  -0.0011   0.00    5.2
2173  22813.000   -205923.0810  -4516299.7963   4484350.8219   1   7   0.0045   0.0092   0.0094  -0.0003  -0.0079  -0.0016   0.00    5.1
2173  22814.000   -205923.0810  -4516299.7962   4484350.8202   1   7   0.0043   0.0092   0.0094  -0.0001  -0.0079  -0.0021   0.00    5.1
2173  22815.000   -205923.0825  -4516299.7935   4484350.8161   1   7   0.0046   0.0092   0.0094   0.0003  -0.0079  -0.0014   0.00    5.1
2173  22816.000   -205923.0823  -4516299.7933   4484350.8208   1   7   0.0040   0.0092   0.0095   0.0018  -0.0080  -0.0015   0.00    5.1
2173  22817.000   -205923.0815  -4516299.7934   4484350.8186   1   7   0.0037   0.0091   0.0095   0.0011  -0.0080  -0.0008   0.00    5.1
2173  22818.000   -205923.0828  -4516299.7951   4484350.8202   1   7   0.0041   0.0091   0.0094   0.0020  -0.0081  -0.0012   0.00    5.1
2173  22819.000   -205923.0810  -4516299.7946   4484350.8152   1   7   0.0046   0.0092   0.0097   0.0006  -0.0079  -0.0022   0.00    5.1
2173  22820.000   -205923.0803  -4516299.7883   4484350.8103   1   7   0.0044   0.0093   0.0095   0.0009  -0.0078  -0.0019   0.00    5.1
2173  22821.000   -205923.0805  -4516299.7906   4484350.8178   1   7   0.0040   0.0091   0.0093  -0.0004  -0.0080  -0.0007   0.00    5.1
2173  22822.000   -205923.0839  -4516299.7910   4484350.8159   1   7   0.0047   0.0092   0.0095   0.0010  -0.0079   0.0007   0.00    5.0
2173  22823.000   -205923.0819  -4516299.7913   4484350.8155   1   7   0.0045   0.0092   0.0093   0.0011  -0.0079  -0.0007   0.00    5.0
2173  22824.000   -205923.0801  -4516299.7902   4484350.8148   1   7   0.0044   0.0092   0.0095  -0.0010  -0.0079  -0.0023   0.00    5.0
2173  22825.000   -205923.0809  -4516299.7907   4484350.8138   1   7   0.0043   0.0092   0.0094  -0.0012  -0.0079  -0.0011   0.00    5.0
2173  22826.000   -205923.0796  -4516299.7910   4484350.8150   1   7   0.0036   0.0091   0.0093   0.0011  -0.0080  -0.0010   0.00    5.0
2173  22827.000   -205923.0763  -4516299.7875   4484350.8128   1   7   0.0034   0.0091   0.0094   0.0018  -0.0080  -0.0013   0.00    5.0
2173  22828.000   -205923.0782  -4516299.7898   4484350.8137   1   7   0.0042   0.0092   0.0095   0.0019  -0.0080  -0.0014   0.00    5.0
2173  22829.000   -205923.0752  -4516299.7892   4484350.8125   1   7   0.0044   0.0091   0.0094  -0.0001  -0.0080  -0.0013   0.00    5.0
2173  22830.000   -205923.0767  -4516299.7899   4484350.8141   1   7   0.0041   0.0091   0.0094   0.0017  -0.0080  -0.0013   0.00    5.0
2173  22831.000   -205923.0772  -4516299.7938   4484350.8161   1   7   0.0040   0.0091   0.0092   0.0016  -0.0081   0.0017   0.00    5.0
2173  22832.000   -205923.0770  -4516299.7932   4484350.8177   1   7   0.0043   0.0091   0.0093   0.0015  -0.0080  -0.0012   0.00    5.0
2173  22833.000   -205923.0774  -4516299.7972   4484350.8197   1   7   0.0044   0.0091   0.0095   0.0014  -0.0079  -0.0020   0.00    5.0
2173  22834.000   -205923.0760  -4516299.7908   4484350.8149   1   7   0.0037   0.0091   0.0094   0.0014  -0.0080   0.0008   0.00    4.9
2173  22835.000   -205923.0767  -4516299.7924   4484350.8165   1   7   0.0047   0.0092   0.0094   0.0009  -0.0080   0.0003   0.00    4.9
2173  22836.000   -205923.0794  -4516299.7983   4484350.8233   1   7   0.0040   0.0092   0.0094  -0.0002  -0.0080   0.0007   0.00    4.9
2173  22837.000   -205923.0805  -4516299.7898   4484350.8146   1   7   0.0042   0.0091   0.0093   0.0016  -0.0080  -0.0008   0.00    4.9
2173  22838.000   -205923.0837  -4516299.7992   4484350.8244   1   7   0.0040   0.0092   0.0096   0.0010  -0.0079  -0.0015   0.00    4.9
2173  22839.000   -205923.0779  -4516299.7898   4484350.8170   1   7   0.0042   0.0091   0.0093   0.0003  -0.0080   0.0011   0.00    4.9
2173  22840.000   -205923.0793  -4516299.7988   4484350.8251   1   7   0.0049   0.0091   0.0093   0.0011  -0.0080  -0.0008   0.00    4.8
2173  22841.000   -205923.0807  -4516299.7973   4484350.8234   1   7   0.0040   0.0092   0.0094   0.0008  -0.0079  -0.0016   0.00    4.8
2173  22842.000   -205923.0811  -4516299.7925   4484350.8217   1   7   0.0041   0.0091   0.0094   0.0008  -0.0080  -0.0016   0.00    4.8
2173  22843.000   -205923.0791  -4516299.7945   4484350.8254   1   7   0.0045   0.0091   0.0094   0.0005  -0.0079  -0.0012   0.00    4.8
2173  22844.000   -205923.0788  -4516299.7973   4484350.8252   1   7   0.0044   0.0092   0.0093  -0.0003  -0.0080  -0.0010   0.00    4.8
2173  22845.000   -205923.0800  -4516299.7963   4484350.8261   1   7   0.0039   0.0092   0.0093   0.0005  -0.0080  -0.0011   0.00    4.7
2173  22846.000   -205923.0779  -4516299.7899   4484350.8195   1   7   0.0047   0.0092   0.0092   0.0011  -0.0079  -0.0003   0.00    4.7
2173  22847.000   -205923.0786  -4516299.7952   4484350.8243   1   7   0.0043   0.0091   0.0095   0.0014  -0.0079  -0.0019   0.00    4.7
2173  22848.000   -205923.0810  -4516299.7927   4484350.8191   1   7   0.0043   0.0092   0.0096   0.0007  -0.0078  -0.0015   0.00    4.7
2173  22849.000   -205923.0793  -4516299.7910   4484350.8179   1   7   0.0048   0.0092   0.0095  -0.0005  -0.0079  -0.0019   0.00    4.7
2173  22850.000   -205923.0795  -4516299.7889   4484350.8179   1   7   0.0039   0.0091   0.0093   0.0005  -0.0080  -0.0010   0.00    4.7
2173  22851.000   -205923.0787  -4516299.7920   4484350.8168   1   7   0.0042   0.0092   0.0094   0.0008  -0.0079  -0.0017   0.00    4.6
2173  22852.000   -205923.0786  -4516299.7835   4484350.8154   1   7   0.0037   0.0091   0.0093   0.0005  -0.0079  -0.0014   0.00    4.6
2173  22853.000   -205923.0809  -4516299.7892   4484350.8215   1   7   0.0041   0.0091   0.0095   0.0009  -0.0079  -0.0012   0.00    4.6
2173  22854.000   -205923.0792  -4516299.7890   4484350.8200   1   7   0.0042   0.0091   0.0091   0.0013  -0.0080  -0.0016   0.00    4.6
2173  22855.000   -205923.0787  -4516299.7933   4484350.8237   1   7   0.0045   0.0092   0.0095   0.0015  -0.0079  -0.0016   0.00    4.6
2173  22856.000   -205923.0791  -4516299.7877   4484350.8195   1   7   0.0045   0.0093   0.0095  -0.0012  -0.0077  -0.0009   0.00    4.5
2173  22857.000   -205923.0806  -4516299.7895   4484350.8192   1   7   0.0043   0.0092   0.0095  -0.0007  -0.0078  -0.0009   0.00    4.5
2173  22858.000   -205923.0806  -4516299.7898   4484350.8217   1   7   0.0045   0.0092   0.0093   0.0012  -0.0079  -0.0012   0.00    4.5
2173  22859.000   -205923.0791  -4516299.7912   4484350.8195   1   7   0.0046   0.0092   0.0093   0.0016  -0.0079  -0.0015   0.00    4.5
2173  22860.000   -205923.0759  -4516299.7913   4484350.8200   1   7   0.0036   0.0091   0.0092   0.0014  -0.0080  -0.0017   0.00    4.5
2173  22861.000   -205923.0774  -4516299.7931   4484350.8227   1   7   0.0044   0.0091   0.0093   0.0004  -0.0079  -0.0024   0.00    4.5
2173  22862.000   -205923.0778  -4516299.7922   4484350.8224   1   7   0.0040   0.0091   0.0094   0.0009  -0.0079  -0.0017   0.00    4.4
2173  22863.000   -205923.0795  -4516299.7858   4484350.8174   1   7   0.0043   0.0092   0.0095   0.0008  -0.0078  -0.0018   0.00    4.4
2173  22864.000   -205923.0781  -4516299.7879   4484350.8186   1   7   0.0044   0.0091   0.0094   0.0009  -0.0079  -0.0013   0.00    4.4
2173  22865.000   -205923.0809  -4516299.7877   4484350.8196   1   7   0.0050   0.0091   0.0094  -0.0007  -0.0079  -0.0013   0.00    4.4
2173  22866.000   -205923.0769  -4516299.7881   4484350.8198   1   7   0.0045   0.0092   0.0096  -0.0017  -0.0077  -0.0024   0.00    4.4
2173  22867.000   -205923.0787  -4516299.7815   4484350.8155   1   7   0.0044   0.0092   0.0094  -0.0009  -0.0079  -0.0020   0.00    4.4
2173  22868.000   -205923.0792  -4516299.7909   4484350.8234   1   7   0.0043   0.0092   0.0096   0.0016  -0.0078  -0.0017   0.00    4.4
2173  22869.000   -205923.0802  -4516299.7917   4484350.8223   1   7   0.0040   0.0092   0.0094   0.0016  -0.0078  -0.0016   0.00    4.4
2173  22870.000   -205923.0773  -4516299.7916   4484350.8225   1   7   0.0044   0.0091   0.0092   0.0012  -0.0080  -0.0005   0.00    4.3
2173  22871.000   -205923.0776  -4516299.7893   4484350.8211   1   7   0.0044   0.0091   0.0094   0.0009  -0.0079  -0.0002   0.00    4.3
2173  22872.000   -205923.0773  -4516299.7890   4484350.8225   1   7   0.0038   0.0091   0.0093   0.0011  -0.0079   0.0008   0.00    4.3
2173  22873.000   -205923.0770  -4516299.7888   4484350.8217   1   7   0.0037   0.0091   0.0094   0.0018  -0.0079  -0.0016   0.00    4.3
2173  22874.000   -205923.0781  -4516299.7863   4484350.8176   1   7   0.0038   0.0091   0.0093   0.0007  -0.0079  -0.0012   0.00    4.3
2173  22875.000   -205923.0779  -4516299.7908   4484350.8196   1   7   0.0046   0.0091   0.0093   0.0010  -0.0079  -0.0014   0.00    4.3
2173  22876.000   -205923.0786  -4516299.7886   4484350.8208   1   7   0.0043   0.0092   0.0095   0.0010  -0.0079  -0.0016   0.00    4.3
2173  22877.000   -205923.0781  -4516299.7898   4484350.8194   1   7   0.0046   0.0091   0.0093   0.0013  -0.0079  -0.0013   0.00    4.3
2173  22878.000   -205923.0783  -4516299.7878   4484350.8175   1   7   0.0046   0.0092   0.0093   0.0003  -0.0078  -0.0018   0.00    4.3
2173  22879.000   -205923.0774  -4516299.7866   4484350.8133   1   7   0.0045   0.0091   0.0094  -0.0003  -0.0079  -0.0025   0.00    4.3
2173  22880.000   -205923.0786  -4516299.7911   4484350.8195   1   7   0.0040   0.0092   0.0093   0.0010  -0.0079   0.0012   0.00    4.3
2173  22881.000   -205923.0782  -4516299.7940   4484350.8212   1   7   0.0039   0.0092   0.0095   0.0011  -0.0079  -0.0015   0.00    4.2
2173  22882.000   -205923.0788  -4516299.7912   4484350.8220   1   7   0.0045   0.0091   0.0092   0.0010  -0.0080  -0.0013   0.00    4.2
2173  22883.000   -205923.0780  -4516299.7965   4484350.8243   1   7   0.0042   0.0092   0.0095   0.0009  -0.0078  -0.0020   0.00    4.2
2173  22884.000   -205923.0770  -4516299.7970   4484350.8260   1   7   0.0043   0.0092   0.0095  -0.0007  -0.0078  -0.0023   0.00    4.2
2173  22885.000   -205923.0767  -4516299.7994   4484350.8275   1   7   0.0042   0.0091   0.0095   0.0005  -0.0079  -0.0012   0.00    4.2
2173  22886.000   -205923.0783  -4516299.7911   4484350.8195   1   7   0.0042   0.0091   0.0093   0.0005  -0.0079  -0.0015   0.00    4.2
2173  22887.000   -205923.0769  -4516299.7950   4484350.8216   1   7   0.0043   0.0091   0.0095   0.0009  -0.0079  -0.0010   0.00    4.2
2173  22888.000   -205923.0776  -4516299.7901   4484350.8219   1   7   0.0043   0.0091   0.0094   0.0006  -0.0079  -0.0015   0.00    4.2
2173  22889.000   -205923.0779  -4516299.7888   4484350.8204   1   7   0.0041   0.0091   0.0091   0.0006  -0.0080  -0.0007   0.00    4.2
2173  22890.000   -205923.0784  -4516299.7867   4484350.8195   1   7   0.0047   0.0091   0.0091   0.0005  -0.0079  -0.0006   0.00    4.2
2173  22891.000   -205923.0795  -4516299.7935   4484350.8241   1   7   0.0037   0.0090   0.0095   0.0020  -0.0080  -0.0015   0.00    4.2
2173  22892.000   -205923.0777  -4516299.7943   4484350.8248   1   7   0.0039   0.0091   0.0093   0.0011  -0.0079  -0.0011   0.00    4.2
2173  22893.000   -205923.0798  -4516299.7881   4484350.8206   1   7   0.0048   0.0091   0.0092  -0.0004  -0.0079  -0.0007   0.00    4.2
2173  22894.000   -205923.0792  -4516299.7860   4484350.8221   1   7   0.0048   0.0092   0.0094   0.0011  -0.0078  -0.0017   0.00    4.2
2173  22895.000   -205923.0778  -4516299.7821   4484350.8152   1   7   0.0042   0.0091   0.0094   0.0008  -0.0079  -0.0014   0.00    4.2
2173  22896.000   -205923.0799  -4516299.7846   4484350.8180   1   7   0.0036   0.0092   0.0095   0.0010  -0.0078  -0.0016   0.00    4.1
2173  22897.000   -205923.0778  -4516299.7786   4484350.8123   1   7   0.0040   0.0090   0.0090   0.0021  -0.0081  -0.0014   0.00    4.1
2173  22898.000   -205923.0770  -4516299.7837   4484350.8193   1   7   0.0044   0.0091   0.0092   0.0011  -0.0079  -0.0011   0.00    4.1
2173  22899.000   -205923.0779  -4516299.7841   4484350.8178   1   7   0.0044   0.0091   0.0093   0.0014  -0.0079  -0.0012   0.00    4.1
2173  22900.000   -205923.0772  -4516299.7811   4484350.8151   1   7   0.0039   0.0091   0.0095   0.0007  -0.0078  -0.0020   0.00    4.1
2173  22901.000   -205923.0790  -4516299.7849   4484350.8196   1   7   0.0038   0.0092   0.0093   0.0012  -0.0078  -0.0011   0.00    4.1
2173  22902.000   -205923.0771  -4516299.7828   4484350.8201   1   7   0.0049   0.0090   0.0094   0.0008  -0.0080  -0.0013   0.00    4.1
2173  22903.000   -205923.0778  -4516299.7801   4484350.8180   1   7   0.0042   0.0091   0.0094   0.0006  -0.0078  -0.0018   0.00    4.1
2173  22904.000   -205923.0773  -4516299.7864   4484350.8222   1   7   0.0043   0.0092   0.0094   0.0010  -0.0077  -0.0010   0.00    4.1
2173  22905.000   -205923.0766  -4516299.7836   4484350.8207   1   7   0.0040   0.0091   0.0094   0.0008  -0.0078  -0.0010   0.00    4.1
2173  22906.000   -205923.0745  -4516299.7809   4484350.8171   1   7   0.0040   0.0091   0.0094   0.0017  -0.0079  -0.0018   0.00    4.1
2173  22907.000   -205923.0768  -4516299.7761   4484350.8186   1   7   0.0040   0.0091   0.0093  -0.0006  -0.0079  -0.0014   0.00    4.1
2173  22908.000   -205923.0751  -4516299.7845   4484350.8250   1   7   0.0045   0.0092   0.0095   0.0013  -0.0078  -0.0014   0.00    4.1
2173  22909.000   -205923.0753  -4516299.7815   4484350.8224   1   7   0.0041   0.0091   0.0093   0.0014  -0.0080  -0.0017   0.00    4.0
2173  22910.000   -205923.0736  -4516299.7814   4484350.8201   1   7   0.0048   0.0091   0.0093   0.0006  -0.0078  -0.0019   0.00    4.0
2173  22911.000   -205923.0720  -4516299.7782   4484350.8212   1   7   0.0033   0.0091   0.0090   0.0017  -0.0079   0.0014   0.00    4.0
2173  22912.000   -205923.0738  -4516299.7780   4484350.8159   1   7   0.0046   0.0092   0.0095   0.0009  -0.0078  -0.0014   0.00    4.0
2173  22913.000   -205923.0738  -4516299.7812   4484350.8185   1   7   0.0045   0.0091   0.0093   0.0003  -0.0078  -0.0011   0.00    4.0
2173  22914.000   -205923.0759  -4516299.7763   4484350.8160   1   7   0.0041   0.0092   0.0095   0.0009  -0.0078  -0.0026   0.00    4.0
2173  22915.000   -205923.0748  -4516299.7839   4484350.8243   1   7   0.0034   0.0091   0.0094   0.0014  -0.0079  -0.0017   0.00    4.0
2173  22916.000   -205923.0761  -4516299.7758   4484350.8141   1   7   0.0043   0.0091   0.0091   0.0010  -0.0079  -0.0002   0.00    4.0
2173  22917.000   -205923.0740  -4516299.7816   4484350.8205   1   7   0.0039   0.0091   0.0095   0.0008  -0.0078  -0.0014   0.00    4.0
2173  22918.000   -205923.0743  -4516299.7789   4484350.8187   1   7   0.0042   0.0092   0.0095   0.0010  -0.0077  -0.0017   0.00    4.0
2173  22919.000   -205923.0759  -4516299.7752   4484350.8198   1   7   0.0038   0.0092   0.0094   0.0004  -0.0077  -0.0014   0.00    3.9
2173  22920.000   -205923.0754  -4516299.7791   4484350.8182   1   7   0.0049   0.0092   0.0093   0.0006  -0.0077  -0.0020   0.00    3.9
2173  22921.000   -205923.0758  -4516299.7765   4484350.8190   1   7   0.0042   0.0092   0.0093   0.0011  -0.0078  -0.0018   0.00    3.9
2173  22922.000   -205923.0738  -4516299.7751   4484350.8222   1   7   0.0038   0.0090   0.0091   0.0014  -0.0080  -0.0010   0.00    3.9
2173  22923.000   -205923.0731  -4516299.7741   4484350.8170   1   7   0.0038   0.0091   0.0091   0.0016  -0.0080  -0.0016   0.00    3.9
2173  22924.000   -205923.0739  -4516299.7768   4484350.8200   1   7   0.0041   0.0091   0.0095   0.0013  -0.0079  -0.0017   0.00    3.9
2173  22925.000   -205923.0768  -4516299.7780   4484350.8239   1   7   0.0041   0.0091   0.0094   0.0013  -0.0078  -0.0016   0.00    3.9
2173  22926.000   -205923.0749  -4516299.7709   4484350.8168   1   7   0.0037   0.0091   0.0094   0.0008  -0.0078  -0.0014   0.00    3.9
2173  22927.000   -205923.0737  -4516299.7746   4484350.8205   1   7   0.0044   0.0091   0.0092   0.0008  -0.0079  -0.0008   0.00    3.9
2173  22928.000   -205923.0740  -4516299.7730   4484350.8151   1   7   0.0036   0.0092   0.0095   0.0010  -0.0078  -0.0016   0.00    3.9
2173  22929.000   -205923.0753  -4516299.7693   4484350.8126   1   7   0.0042   0.0091   0.0094   0.0013  -0.0077  -0.0014   0.00    3.9
2173  22930.000   -205923.0777  -4516299.7650   4484350.8083   1   7   0.0045   0.0091   0.0092   0.0012  -0.0079   0.0007   0.00    3.9
2173  22931.000   -205923.0792  -4516299.7633   4484350.8080   1   7   0.0043   0.0092   0.0092   0.0016  -0.0078  -0.0010   0.00    3.9
2173  22932.000   -205923.0784  -4516299.7753   4484350.8179   1   7   0.0049   0.0091   0.0095   0.0006  -0.0077  -0.0014   0.00    3.9
2173  22933.000   -205923.0794  -4516299.7688   4484350.8122   1   7   0.0044   0.0091   0.0095  -0.0012  -0.0077  -0.0019   0.00    3.9
2173  22934.000   -205923.0797  -4516299.7714   4484350.8140   1   7   0.0037   0.0091   0.0092   0.0015  -0.0079  -0.0009   0.00    3.9
2173  22935.000   -205923.0827  -4516299.7622   4484350.8091   1   7   0.0043   0.0091   0.0093   0.0006  -0.0079  -0.0016   0.00    3.8
2173  22936.000   -205923.0817  -4516299.7697   4484350.8148   1   7   0.0044   0.0092   0.0093   0.0013  -0.0077  -0.0016   0.00    3.8
2173  22937.000   -205923.0805  -4516299.7699   4484350.8176   1   7   0.0045   0.0092   0.0094   0.0010  -0.0077  -0.0019   0.00    3.8
2173  22938.000   -205923.0830  -4516299.7659   4484350.8156   1   7   0.0038   0.0090   0.0093   0.0010  -0.0079  -0.0017   0.00    3.8
2173  22939.000   -205923.0830  -4516299.7605   4484350.8085   1   7   0.0040   0.0091   0.0091   0.0016  -0.0079  -0.0017   0.00    3.8
2173  22940.000   -205923.0820  -4516299.7657   4484350.8141   1   7   0.0042   0.0092   0.0094   0.0007  -0.0076  -0.0012   0.00    3.8
2173  22941.000   -205923.0825  -4516299.7637   4484350.8118   1   7   0.0042   0.0091   0.0093   0.0006  -0.0078  -0.0013   0.00    3.7
2173  22942.000   -205923.0820  -4516299.7644   4484350.8130   1   7   0.0042   0.0091   0.0090   0.0004  -0.0079   0.0015   0.00    3.7
2173  22943.000   -205923.0857  -4516299.7559   4484350.8058   1   7   0.0038   0.0092   0.0092  -0.0007  -0.0078  -0.0006   0.00    3.7
2173  22944.000   -205923.0869  -4516299.7552   4484350.8070   1   7   0.0048   0.0091   0.0095   0.0008  -0.0078  -0.0022   0.00    3.7
2173  22945.000   -205923.0834  -4516299.7581   4484350.8062   1   7   0.0042   0.0090   0.0091   0.0011  -0.0079  -0.0010   0.00    3.7
2173  22946.000   -205923.0837  -4516299.7561   4484350.8049   1   7   0.0046   0.0091   0.0094   0.0010  -0.0078  -0.0014   0.00    3.7
2173  22947.000   -205923.0828  -4516299.7582   4484350.8091   1   7   0.0045   0.0092   0.0094   0.0012  -0.0077  -0.0016   0.00    3.6
2173  22948.000   -205923.0847  -4516299.7529   4484350.8016   1   7   0.0044   0.0091   0.0092   0.0014  -0.0079  -0.0019   0.00    3.6
2173  22949.000   -205923.0827  -4516299.7552   4484350.8052   1   7   0.0047   0.0091   0.0094   0.0014  -0.0078  -0.0015   0.00    3.6
2173  22950.000   -205923.0840  -4516299.7572   4484350.8070   1   7   0.0046   0.0091   0.0091   0.0010  -0.0078   0.0011   0.00    3.6
2173  22951.000   -205923.0871  -4516299.7569   4484350.8040   1   7   0.0047   0.0091   0.0092   0.0013  -0.0078  -0.0020   0.00    3.6
2173  22952.000   -205923.0846  -4516299.7587   4484350.8073   1   7   0.0045   0.0091   0.0091   0.0011  -0.0079   0.0002   0.00    3.6
2173  22953.000   -205923.0840  -4516299.7615   4484350.8093   1   7   0.0043   0.0091   0.0094   0.0012  -0.0077  -0.0016   0.00    3.6
2173  22954.000   -205923.0854  -4516299.7559   4484350.8024   1   7   0.0038   0.0090   0.0092   0.0018  -0.0079  -0.0017   0.00    3.6
2173  22955.000   -205923.0828  -4516299.7614   4484350.8112   1   7   0.0040   0.0091   0.0092   0.0014  -0.0079  -0.0009   0.00    3.5
2173  22956.000   -205923.0834  -4516299.7557   4484350.8007   1   7   0.0042   0.0091   0.0094  -0.0001  -0.0077  -0.0020   0.00    3.5
2173  22957.000   -205923.0861  -4516299.7571   4484350.8030   1   7   0.0047   0.0091   0.0093  -0.0007  -0.0078  -0.0018   0.00    3.5
2173  22958.000   -205923.0859  -4516299.7608   4484350.8064   1   7   0.0050   0.0091   0.0092  -0.0009  -0.0078  -0.0007   0.00    3.5
2173  22959.000   -205923.0844  -4516299.7557   4484350.8006   1   7   0.0040   0.0091   0.0091  -0.0005  -0.0078  -0.0018   0.00    3.5
2173  22960.000   -205923.0850  -4516299.7597   4484350.8012   1   7   0.0044   0.0091   0.0092   0.0014  -0.0079  -0.0014   0.00    3.5
2173  22961.000   -205923.0836  -4516299.7520   4484350.7968   1   7   0.0045   0.0091   0.0091   0.0012  -0.0078  -0.0011   0.00    3.5
2173  22962.000   -205923.0851  -4516299.7552   4484350.7996   1   7   0.0035   0.0091   0.0092   0.0010  -0.0078  -0.0019   0.00    3.5
2173  22963.000   -205923.0848  -4516299.7586   4484350.7982   1   7   0.0046   0.0091   0.0095  -0.0009  -0.0077  -0.0026   0.00    3.5
2173  22964.000   -205923.0851  -4516299.7617   4484350.8014   1   7   0.0044   0.0090   0.0091   0.0013  -0.0079  -0.0008   0.00    3.4
2173  22965.000   -205923.0842  -4516299.7616   4484350.8024   1   7   0.0038   0.0090   0.0092   0.0014  -0.0080  -0.0017   0.00    3.4
2173  22966.000   -205923.0857  -4516299.7675   4484350.8071   1   7   0.0044   0.0091   0.0094   0.0011  -0.0078  -0.0017   0.00    3.4
2173  22967.000   -205923.0856  -4516299.7640   4484350.8042   1   7   0.0045   0.0092   0.0094   0.0007  -0.0076  -0.0018   0.00    3.4
2173  22968.000   -205923.0842  -4516299.7640   4484350.8022   1   7   0.0042   0.0092   0.0094   0.0016  -0.0077  -0.0016   0.00    3.4
2173  22969.000   -205923.0861  -4516299.7663   4484350.8063   1   7   0.0046   0.0092   0.0091  -0.0007  -0.0077  -0.0009   0.00    3.4
2173  22970.000   -205923.0843  -4516299.7736   4484350.8091   1   7   0.0045   0.0092   0.0094   0.0003  -0.0077  -0.0018   0.00    3.4
2173  22971.000   -205923.0870  -4516299.7656   4484350.8054   1   7   0.0044   0.0092   0.0092   0.0007  -0.0078  -0.0017   0.00    3.3
2173  22972.000   -205923.0849  -4516299.7691   4484350.8050   1   7   0.0042   0.0091   0.0093   0.0015  -0.0077  -0.0017   0.00    3.3
2173  22973.000   -205923.0863  -4516299.7708   4484350.8075   1   7   0.0042   0.0091   0.0095  -0.0008  -0.0077  -0.0026   0.00    3.3
2173  22974.000   -205923.0841  -4516299.7693   4484350.8030   1   7   0.0046   0.0091   0.0092  -0.0007  -0.0078  -0.0008   0.00    3.3
2173  22975.000   -205923.0846  -4516299.7729   4484350.8066   1   7   0.0044   0.0091   0.0092   0.0005  -0.0078  -0.0005   0.00    3.3
2173  22976.000   -205923.0867  -4516299.7747   4484350.8094   1   7   0.0043   0.0091   0.0092   0.0013  -0.0077  -0.0007   0.00    3.3
2173  22977.000   -205923.0844  -4516299.7727   4484350.8058   1   7   0.0046   0.0091   0.0094   0.0011  -0.0078  -0.0017   0.00    3.2
2173  22978.000   -205923.0854  -4516299.7739   4484350.8094   1   7   0.0042   0.0092   0.0093   0.0011  -0.0077  -0.0019   0.00    3.2
2173  22979.000   -205923.0843  -4516299.7754   4484350.8092   1   7   0.0043   0.0092   0.0094  -0.0014  -0.0076  -0.0019   0.00    3.2
2173  22980.000   -205923.0846  -4516299.7745   4484350.8081   1   7   0.0043   0.0091   0.0091  -0.0013  -0.0077  -0.0018   0.00    3.2
2173  22981.000   -205923.0868  -4516299.7753   4484350.8083   1   7   0.0041   0.0091   0.0092  -0.0001  -0.0078  -0.0009   0.00    3.2
2173  22982.000   -205923.0851  -4516299.7778   4484350.8108   1   7   0.0037   0.0091   0.0091   0.0017  -0.0078  -0.0015   0.00    3.2
2173  22983.000   -205923.0856  -4516299.7758   4484350.8090   1   7   0.0044   0.0091   0.0092   0.0006  -0.0078  -0.0014   0.00    3.2
2173  22984.000   -205923.0861  -4516299.7766   4484350.8110   1   7   0.0043   0.0091   0.0091   0.0011  -0.0078   0.0006   0.00    3.2
2173  22985.000   -205923.0861  -4516299.7743   4484350.8107   1   7   0.0045   0.0091   0.0091   0.0015  -0.0079  -0.0004   0.00    3.2
2173  22986.000   -205923.0856  -4516299.7807   4484350.8170   1   7   0.0040   0.0090   0.0090   0.0015  -0.0080  -0.0016   0.00    3.1
2173  22987.000   -205923.0871  -4516299.7812   4484350.8174   1   7   0.0046   0.0090   0.0091   0.0006  -0.0079  -0.0014   0.00    3.1
2173  22988.000   -205923.0876  -4516299.7793   4484350.8141   1   7   0.0040   0.0092   0.0094  -0.0006  -0.0076  -0.0011   0.00    3.1
2173  22989.000   -205923.0852  -4516299.7810   4484350.8173   1   7   0.0037   0.0090   0.0091   0.0017  -0.0078   0.0013   0.00    3.1
2173  22990.000   -205923.0868  -4516299.7758   4484350.8129   1   7   0.0042   0.0091   0.0091   0.0012  -0.0078  -0.0019   0.00    3.1
2173  22991.000   -205923.0844  -4516299.7822   4484350.8178   1   7   0.0040   0.0091   0.0094  -0.0002  -0.0078  -0.0021   0.00    3.1
2173  22992.000   -205923.0851  -4516299.7794   4484350.8176   1   7   0.0043   0.0091   0.0092   0.0004  -0.0077  -0.0013   0.00    3.1
2173  22993.000   -205923.0837  -4516299.7709   4484350.8103   1   7   0.0035   0.0091   0.0091   0.0013  -0.0078  -0.0014   0.00    3.1
2173  22994.000   -205923.0867  -4516299.7756   4484350.8144   1   7   0.0040   0.0091   0.0092  -0.0010  -0.0077  -0.0021   0.00    3.1
2173  22995.000   -205923.0854  -4516299.7768   4484350.8174   1   7   0.0045   0.0092   0.0093   0.0009  -0.0077  -0.0015   0.00    3.0
2173  22996.000   -205923.0860  -4516299.7780   4484350.8155   1   7   0.0048   0.0091   0.0092   0.0012  -0.0077  -0.0014   0.00    3.0
2173  22997.000   -205923.0864  -4516299.7790   4484350.8142   1   7   0.0039   0.0091   0.0092   0.0013  -0.0077  -0.0008   0.00    3.0
2173  22998.000   -205923.0893  -4516299.7770   4484350.8163   1   7   0.0044   0.0091   0.0092   0.0018  -0.0078   0.0021   0.00    3.0
2173  22999.000   -205922.7794  -4516300.0131   4484350.5830   2   7   0.0204   0.0321   0.0170   0.0101  -0.0176  -0.0040   0.00    3.0
2173  23000.000   -205922.7809  -4516300.0174   4484350.5847   2   7   0.0203   0.0321   0.0167   0.0101  -0.0176  -0.0033   0.00    3.0
2173  23001.000   -205922.7802  -4516300.0174   4484350.5858   2   7   0.0204   0.0321   0.0169   0.0100  -0.0174  -0.0036   0.00    3.0
2173  23002.000   -205922.7836  -4516300.0124   4484350.5810   2   7   0.0203   0.0320   0.0168   0.0100  -0.0174  -0.0037   0.00    3.0
2173  23003.000   -205922.7819  -4516300.0170   4484350.5851   2   7   0.0202   0.0319   0.0168   0.0101  -0.0174  -0.0037   0.00    2.9
2173  23004.000   -205922.7808  -4516300.0189   4484350.5844   2   7   0.0202   0.0319   0.0166   0.0100  -0.0174  -0.0035   0.00    2.9
2173  23005.000   -205922.7839  -4516300.0150   4484350.5845   2   7   0.0202   0.0318   0.0166   0.0100  -0.0173  -0.0037   0.00    2.9
2173  23006.000   -205922.7849  -4516300.0229   4484350.5886   2   7   0.0202   0.0317   0.0165   0.0100  -0.0173  -0.0035   0.00    2.9
2173  23007.000   -205922.7810  -4516300.0229   4484350.5898   2   7   0.0202   0.0317   0.0167   0.0100  -0.0172  -0.0034   0.00    2.9
2173  23008.000   -205922.7823  -4516300.0261   4484350.5940   2   7   0.0201   0.0316   0.0166   0.0101  -0.0172  -0.0037   0.00    2.9
2173  23009.000   -205922.7835  -4516300.0216   4484350.5904   2   7   0.0201   0.0316   0.0165   0.0101  -0.0172  -0.0035   0.00    2.9
2173  23010.000   -205922.7828  -4516300.0260   4484350.5966   2   7   0.0201   0.0315   0.0164   0.0101  -0.0172  -0.0036   0.00    2.9
2173  23011.000   -205922.7815  -4516300.0330   4484350.6031   2   7   0.0201   0.0315   0.0164   0.0101  -0.0171  -0.0037   0.00    2.9
2173  23012.000   -205922.7814  -4516300.0332   4484350.6004   2   7   0.0200   0.0314   0.0165   0.0101  -0.0170  -0.0038   0.00    2.9
2173  23013.000   -205922.7819  -4516300.0338   4484350.6024   2   7   0.0201   0.0313   0.0163   0.0103  -0.0171  -0.0032   0.00    2.9
2173  23014.000   -205922.7830  -4516300.0328   4484350.6033   2   7   0.0201   0.0313   0.0162   0.0100  -0.0170  -0.0034   0.00    2.8
2173  23015.000   -205922.7840  -4516300.0326   4484350.6039   2   7   0.0200   0.0312   0.0161   0.0101  -0.0170  -0.0035   0.00    2.8
2173  23016.000   -205922.7828  -4516300.0350   4484350.6049   2   7   0.0200   0.0312   0.0161   0.0102  -0.0170  -0.0035   0.00    2.8
2173  23017.000   -205922.7865  -4516300.0291   4484350.6048   2   7   0.0200   0.0311   0.0162   0.0102  -0.0169  -0.0037   0.00    2.8
2173  23018.000   -205922.7841  -4516300.0368   4484350.6113   2   7   0.0199   0.0311   0.0161   0.0100  -0.0169  -0.0037   0.00    2.8
2173  23019.000   -205922.7875  -4516300.0362   4484350.6149   2   7   0.0199   0.0310   0.0162   0.0100  -0.0168  -0.0036   0.00    2.8
2173  23020.000   -205922.7849  -4516300.0364   4484350.6125   2   7   0.0197   0.0309   0.0160   0.0102  -0.0168  -0.0034   0.00    2.8
2173  23021.000   -205922.7872  -4516300.0318   4484350.6069   2   7   0.0198   0.0309   0.0161   0.0101  -0.0167  -0.0039   0.00    2.8
2173  23022.000   -205922.7862  -4516300.0346   4484350.6127   2   7   0.0198   0.0308   0.0160   0.0101  -0.0167  -0.0037   0.00    2.8
2173  23023.000   -205922.7859  -4516300.0363   4484350.6146   2   7   0.0197   0.0308   0.0161   0.0101  -0.0166  -0.0039   0.00    2.8
2173  23024.000   -205922.7873  -4516300.0399   4484350.6155   2   7   0.0197   0.0307   0.0160   0.0101  -0.0166  -0.0038   0.00    2.8
2173  23025.000   -205922.7879  -4516300.0408   4484350.6193   2   7   0.0197   0.0307   0.0158   0.0102  -0.0167  -0.0035   0.00    2.8
2173  23026.000   -205922.7883  -4516300.0407   4484350.6209   2   7   0.0197   0.0306   0.0158   0.0101  -0.0166  -0.0033   0.00    2.8
2173  23027.000   -205922.7876  -4516300.0379   4484350.6199   2   7   0.0197   0.0306   0.0160   0.0101  -0.0166  -0.0040   0.00    2.8
2173  23028.000   -205922.7883  -4516300.0383   4484350.6224   2   7   0.0197   0.0305   0.0158   0.0101  -0.0165  -0.0038   0.00    2.8
2173  23029.000   -205922.7875  -4516300.0406   4484350.6245   2   7   0.0196   0.0305   0.0158   0.0101  -0.0165  -0.0037   0.00    2.8
2173  23030.000   -205922.7892  -4516300.0399   4484350.6249   2   7   0.0195   0.0304   0.0157   0.0101  -0.0165  -0.0036   0.00    2.8
2173  23031.000   -205922.7881  -4516300.0392   4484350.6273   2   7   0.0195   0.0303   0.0159   0.0102  -0.0164  -0.0042   0.00    2.8
2173  23032.000   -205922.7883  -4516300.0422   4484350.6306   2   7   0.0194   0.0303   0.0156   0.0102  -0.0164  -0.0038   0.00    2.8
2173  23033.000   -205922.7868  -4516300.0377   4484350.6277   2   7   0.0196   0.0303   0.0157   0.0101  -0.0164  -0.0037   0.00    2.8
2173  23034.000   -205922.7858  -4516300.0369   4484350.6279   2   7   0.0195   0.0302   0.0157   0.0102  -0.0163  -0.0038   0.00    2.8
2173  23035.000   -205922.7859  -4516300.0363   4484350.6265   2   7   0.0194   0.0301   0.0155   0.0102  -0.0164  -0.0033   0.00    2.8
2173  23036.000   -205922.7858  -4516300.0440   4484350.6320   2   7   0.0194   0.0301   0.0155   0.0101  -0.0164  -0.0037   0.00    2.8
2173  23037.000   -205922.7857  -4516300.0434   4484350.6346   2   7   0.0194   0.0300   0.0155   0.0101  -0.0163  -0.0034   0.00    2.8
