     2.11           OBSERVATION DATA    M (MIXED)           RINEX VERSION / TYPE
CONVBIN 2.4.3                           20210831 165357 UTC PGM / RUN BY / DATE 
log: logs/21_08_31_08_48_18_nvbm_SW.rtcm                    COMMENT             
format: RTCM 3, station ID: 662                             COMMENT             
0662                                                        MARKER NAME         
                                                            MARKER NUMBER       
                                                            OBSERVER / AGENCY   
                    SWFT                                    REC # / TYPE / VERS 
                    NULL                                    ANT # / TYPE        
 -2221570.6064 -4730182.0172  3644377.9959                  APPROX POSITION XYZ 
        0.0000        0.0000        0.0000                  ANTENNA: DELTA H/E/N
     1     1                                                WAVELENGTH FACT L1/2
     5    C1    L1    P2    L2    C2                        # / TYPES OF OBSERV 
  2021     8    31     8    48   23.0000000     GPS         TIME OF FIRST OBS   
  2021     8    31     9    18   21.0000000     GPS         TIME OF LAST OBS    
                                                            END OF HEADER       
 21  8 31  8 48 23.0000000  0 22G 1G 7G13G14G15G17G19G21G30C19C23C27
                                C28E 1E 4E 5E 9E12E24E26E31E33
  22828530.602   119964690.405    22828533.926    93478966.716                  
  21971802.566   115462606.372    21971802.494    89970862.977                  
  21549695.413   113244421.902    21549695.002    88242408.504                  
  20618450.834   108350700.704    20618451.084    84429122.101                  
  23571562.978   123869409.992    23571563.067    96521620.464                  
  20584780.842   108173760.577    20584780.627    84291243.223                  
  22361841.827   117512280.836    22361840.237    91568013.746                  
  24052408.683   126396262.145    24052407.772    98490594.828                  
  20505833.264   107758841.529    20505835.373    83967918.593                  
                 131664732.234                   131664732.234    25284828.085  
                 135726143.691                   135726143.691    26064772.305  
                 116977740.738                   116977740.738    22464345.208  
                 119165845.562                   119165845.562    22884546.594  
  27145547.744   142650781.445                                                  
  27704296.421   145587059.692                                                  
  26072233.944   137010504.956                                                  
  23445904.560   123209045.120                                                  
  25095919.919   131879953.934                                                  
  25292701.659   132914087.456                                                  
  26585127.831   139705764.030                                                  
  24004045.761   126142093.472                                                  
  25457872.793   133782048.285                                                  
 21  8 31  8 48 24.0000000  0 22G 1G 7G13G14G15G17G19G21G30C19C23C27
                                C28E 1E 4E 5E 9E12E24E26E31E33
  22828308.347   119963522.483    22828311.653    93478056.649                  
  21972228.956   115464847.169    21972228.903    89972609.051                  
  21549544.777   113243630.299    21549544.366    88241791.673                  
  20618467.041   108350785.920    20618467.291    84429188.508                  
  23571275.519   123867899.411    23571275.608    96520443.386                  
  20584520.401   108172391.951    20584520.186    84290176.758                  
  22361213.874   117508980.946    22361212.302    91565442.399                  
  24052593.967   126397235.815    24052593.056    98491353.535                  
  20505945.107   107759429.290    20505947.233    83968376.591                  
                 131666171.316                   131666171.316    25285104.447  
                 135728421.645                   135728421.645    26065209.756  
                 116975542.489                   116975542.489    22463923.052  
                 119166728.228                   119166728.228    22884716.100  
  27145876.284   142652507.878                                                  
  27704863.977   145590042.321                                                  
  26072139.274   137010007.547                                                  
  23446270.339   123210967.360                                                  
  25095360.440   131877013.925                                                  
  25292473.615   132912889.124                                                  
  26585319.905   139706773.349                                                  
  24004120.525   126142486.321                                                  
  25457621.305   133780726.665                                                  
 21  8 31  8 48 25.0000000  0 22G 1G 7G13G14G15G17G19G21G30C19C23C27
                                C28E 1E 4E 5E 9E12E24E26E31E33
  22828086.218   119962355.145    22828089.541    93477147.035                  
  21972655.436   115467088.360    21972655.401    89974355.433                  
  21549394.266   113242839.360    21549393.855    88241175.356                  
  20618483.320   108350871.395    20618483.552    84429255.109                  
  23570988.185   123866389.405    23570988.256    96519266.765                  
  20584260.067   108171023.893    20584259.834    84289110.739                  
  22360585.974   117505681.376    22360584.402    91562871.308                  
  24052779.340   126398210.017    24052778.447    98492112.653                  
  20506057.038   107760017.532    20506059.182    83968834.961                  
                 131667610.753                   131667610.753    25285380.863  
                 135730699.719                   135730699.719    26065647.243  
                 116973344.656                   116973344.656    22463500.986  
                 119167611.429                   119167611.429    22884885.695  
  27146204.806   142654234.332                                                  
  27705431.569   145593024.894                                                  
  26072044.729   137009510.589                                                  
  23446636.207   123212889.934                                                  
  25094800.997   131874073.971                                                  
  25292245.606   132911690.860                                                  
  26585512.069   139707783.116                                                  
  24004195.307   126142879.244                                                  
  25457369.888   133779405.450                                                  
 21  8 31  8 48 26.0000000  0 22G 1G 7G13G14G15G17G19G21G30C19C23C27
                                C28E 1E 4E 5E 9E12E24E26E31E33
  22827864.177   119961188.394    22827867.501    93476237.880                  
  21973082.006   115469329.938    21973081.952    89976102.117                  
  21549243.880   113242049.075    21549243.451    88240559.548                  
  20618499.616   108350957.116    20618499.884    84429321.907                  
  23570700.940   123864879.990    23570701.012    96518090.595                  
  20583999.840   108169656.399    20583999.626    84288045.159                  
  22359958.164   117502382.126    22359956.574    91560300.461                  
  24052964.821   126399184.747    24052963.945    98492872.183                  
  20506169.077   107760606.238    20506171.203    83969293.691                  
                 131669050.548                   131669050.548    25285657.368  
                 135732977.923                   135732977.923    26066084.749  
                 116971147.247                   116971147.247    22463078.991  
                 119168495.167                   119168495.167    22885055.415  
  27146533.346   142655960.788                                                  
  27705999.107   145596007.418                                                  
  26071950.238   137009014.083                                                  
  23447002.129   123214812.825                                                  
  25094241.535   131871134.074                                                  
  25292017.579   132910492.637                                                  
  26585704.304   139708793.329                                                  
  24004270.071   126143272.231                                                  
  25457118.542   133778084.667                                                  
 21  8 31  8 48 27.0000000  0 22G 1G 7G13G14G15G17G19G21G30C19C23C27
                                C28E 1E 4E 5E 9E12E24E26E31E33
  22827642.262   119960022.217    22827645.585    93475329.169                  
  21973508.646   115471571.901    21973508.575    89977849.101                  
  21549093.620   113241259.453    21549093.209    88239944.258                  
  20618515.984   108351043.090    20618516.235    84429388.895                  
  23570413.821   123863371.149    23570413.892    96516914.875                  
  20583739.721   108168289.477    20583739.506    84286980.028                  
  22359330.408   117499083.207    22359328.817    91557729.880                  
  24053150.408   126400159.999    24053149.515    98493632.122                  
  20506281.205   107761195.414    20506283.314    83969752.789                  
                 131670490.692                   131670490.692    25285933.927  
                 135735256.249                   135735256.249    26066522.254  
                 116968950.254                   116968950.254    22462657.086  
                 119169379.444                   119169379.444    22885225.242  
  27146861.886   142657687.247                                                  
  27706566.663   145598989.894                                                  
  26071855.835   137008518.044                                                  
  23447368.086   123216736.042                                                  
  25093682.128   131868194.226                                                  
  25291789.606   132909294.507                                                  
  26585896.628   139709803.988                                                  
  24004344.889   126143665.306                                                  
  25456867.286   133776764.294                                                  
 21  8 31  8 48 28.0000000  0 22G 1G 7G13G14G15G17G19G21G30C19C23C27
                                C28E 1E 4E 5E 9E12E24E26E31E33
  22827420.454   119958856.640    22827423.777    93474420.927                  
  21973935.341   115473814.254    21973935.305    89979596.391                  
  21548943.484   113240470.485    21548943.055    88239329.476                  
  20618532.406   108351129.313    20618532.638    84429456.086                  
  23570126.809   123861862.878    23570126.880    96515739.599                  
  20583479.726   108166923.125    20583479.476    84285915.335                  
  22358702.687   117495784.585    22358701.096    91555159.525                  
  24053336.103   126401135.782    24053335.192    98494392.472                  
  20506393.405   107761785.068    20506395.513    83970212.257                  
                 131671931.190                   131671931.190    25286210.558  
                 135737534.703                   135737534.703    26066959.813  
                 116966753.677                   116966753.677    22462235.252  
                 119170264.258                   119170264.258    22885395.158  
  27147190.426   142659413.718                                                  
  27707134.201   145601972.312                                                  
  26071761.541   137008022.466                                                  
  23447734.115   123218659.579                                                  
  25093122.702   131865254.434                                                  
  25291561.597   132908096.436                                                  
  26586089.024   139710815.105                                                  
  24004419.688   126144058.449                                                  
  25456616.101   133775444.324                                                  
 21  8 31  8 48 29.0000000  0 22G 1G 7G13G14G15G17G19G21G30C19C23C27
                                C28E 1E 4E 5E 9E12E24E26E31E33
  22827198.788   119957691.643    22827202.094    93473513.142                  
  21974362.125   115476056.991    21974362.053    89981343.977                  
  21548793.474   113239682.181    21548793.063    88238715.215                  
  20618548.846   108351215.794    20618549.096    84429523.472                  
  23569839.904   123860355.199    23569839.975    96514564.784                  
  20583219.822   108165557.347    20583219.571    84284851.093                  
  22358075.037   117492486.312    22358073.465    91552589.442                  
  24053521.887   126402112.106    24053520.994    98495153.241                  
  20506505.694   107762375.194    20506507.820    83970672.098                  
                 131673372.043                   131673372.043    25286487.260  
                 135739813.280                   135739813.280    26067397.407  
                 116964557.518                   116964557.518    22461813.507  
                 119171149.614                   119171149.614    22885565.182  
  27147518.948   142661140.198                                                  
  27707701.721   145604954.689                                                  
  26071667.317   137007527.339                                                  
  23448100.216   123220583.445                                                  
  25092563.277   131862314.694                                                  
  25291333.642   132906898.430                                                  
  26586281.527   139711826.668                                                  
  24004494.524   126144451.677                                                  
  25456365.005   133774124.790                                                  
 21  8 31  8 48 30.0000000  0 22G 1G 7G13G14G15G17G19G21G30C19C23C27
                                C28E 1E 4E 5E 9E12E24E26E31E33
  22826977.195   119956527.242    22826980.518    93472605.812                  
  21974788.980   115478300.110    21974788.926    89983091.859                  
  21548643.588   113238894.510    21548643.177    88238101.450                  
  20618565.357   108351302.518    20618565.607    84429591.052                  
  23569553.124   123858848.081    23569553.195    96513390.411                  
  20582960.024   108164192.125    20582959.792    84283787.285                  
  22357447.459   117489188.341    22357445.887    91550019.594                  
  24053707.761   126403088.943    24053706.885    98495914.413                  
  20506618.072   107762965.784    20506620.216    83971132.296                  
                 131674813.251                   131674813.251    25286764.015  
                 135742091.984                   135742091.984    26067835.002  
                 116962361.781                   116962361.781    22461391.834  
                 119172035.501                   119172035.501    22885735.295  
  27147847.488   142662866.687                                                  
  27708269.241   145607937.013                                                  
  26071573.183   137007032.676                                                  
  23448466.388   123222507.636                                                  
  25092003.887   131859375.011                                                  
  25291105.687   132905700.489                                                  
  26586474.101   139712838.683                                                  
  24004569.359   126144844.981                                                  
  25456113.981   133772805.670                                                  
 21  8 31  8 48 31.0000000  0 22G 1G 7G13G14G15G17G19G21G30C19C23C27
                                C28E 1E 4E 5E 9E12E24E26E31E33
  22826755.726   119955363.425    22826759.032    93471698.941                  
  21975215.906   115480543.622    21975215.835    89984840.050                  
  21548493.828   113238107.527    21548493.417    88237488.211                  
  20618581.903   108351389.495    20618582.153    84429658.824                  
  23569266.415   123857341.556    23569266.505    96512216.488                  
  20582700.333   108162827.474    20582700.119    84282723.919                  
  22356819.935   117485890.696    22356818.362    91547450.001                  
  24053893.760   126404066.313    24053892.866    98496676.003                  
  20506730.557   107763556.844    20506732.684    83971592.864                  
                 131676254.808                   131676254.808    25287040.860  
                 135744370.813                   135744370.813    26068272.614  
                 116960166.460                   116960166.460    22460970.232  
                 119172921.930                   119172921.930    22885905.533  
  27148176.045   142664593.184                                                  
  27708836.743   145610919.290                                                  
  26071479.139   137006538.465                                                  
  23448832.613   123224432.162                                                  
  25091444.479   131856435.392                                                  
  25290877.714   132904502.609                                                  
  26586666.765   139713851.135                                                  
  24004644.213   126145238.352                                                  
  25455863.047   133771486.973                                                  
 21  8 31  8 48 32.0000000  0 22G 1G 7G13G14G15G17G19G21G30C19C23C27
                                C28E 1E 4E 5E 9E12E24E26E31E33
  22826534.382   119954200.187    22826537.706    93470792.524                  
  21975642.905   115482787.513    21975642.833    89986588.534                  
  21548344.175   113237321.182    21548343.782    88236875.476                  
  20618598.504   108351476.719    20618598.754    84429726.790                  
  23568979.868   123855835.603    23568979.939    96511043.018                  
  20582440.768   108161463.384    20582440.536    84281660.992                  
  22356192.482   117482593.380    22356190.892    91544880.661                  
  24054079.848   126405044.215    24054078.954    98497438.004                  
  20506843.114   107764148.379    20506845.259    83972053.801                  
                 131677696.722                   131677696.722    25287317.758  
                 135746649.765                   135746649.765    26068710.280  
                 116957971.558                   116957971.558    22460548.738  
                 119173808.890                   119173808.890    22886075.861  
  27148504.585   142666319.687                                                  
  27709404.246   145613901.505                                                  
  26071385.183   137006044.712                                                  
  23449198.893   123226356.995                                                  
  25090885.108   131853495.811                                                  
  25290649.777   132903304.802                                                  
  26586859.518   139714864.045                                                  
  24004719.084   126145631.809                                                  
  25455612.183   133770168.696                                                  
 21  8 31  8 48 33.0000000  0 22G 1G 7G13G14G15G17G19G21G30C19C23C27
                                C28E 1E 4E 5E 9E12E24E26E31E33
  22826313.128   119953037.552    22826316.434    93469886.575                  
  21976069.974   115485031.802    21976069.921    89988337.331                  
  21548194.683   113236535.499    21548194.254    88236263.257                  
  20618615.140   108351564.195    20618615.408    84429794.953                  
  23568693.391   123854330.225    23568693.481    96509870.004                  
  20582181.274   108160099.860    20582181.059    84280598.508                  
  22355565.083   117479296.368    22355563.492    91542311.563                  
  24054266.043   126406022.651    24054265.131    98498200.422                  
  20506955.779   107764740.383    20506957.905    83972515.100                  
                 131679138.989                   131679138.989    25287594.746  
                 135748928.844                   135748928.844    26069147.946  
                 116955777.074                   116955777.074    22460127.315  
                 119174696.394                   119174696.394    22886246.296  
  27148833.125   142668046.199                                                  
  27709971.712   145616883.665                                                  
  26071291.317   137005551.425                                                  
  23449565.243   123228282.161                                                  
  25090325.718   131850556.292                                                  
  25290421.858   132902107.039                                                  
  26587052.361   139715877.410                                                  
  24004793.973   126146025.345                                                  
  25455361.392   133768850.829                                                  
 21  8 31  8 48 34.0000000  0 22G 1G 7G13G14G15G17G19G21G30C19C23C27
                                C28E 1E 4E 5E 9E12E24E26E31E33
  22826091.999   119951875.484    22826095.323    93468981.068                  
  21976497.115   115487276.467    21976497.062    89990086.421                  
  21548045.298   113235750.478    21548044.887    88235651.548                  
  20618631.847   108351651.929    20618632.097    84429863.317                  
  23568407.040   123852825.434    23568407.112    96508697.437                  
  20581921.923   108158736.906    20581921.708    84279536.465                  
  22354937.737   117475999.689    22354936.165    91539742.720                  
  24054452.327   126407001.616    24054451.434    98498963.254                  
  20507068.514   107765332.863    20507070.659    83972976.778                  
                 131680581.610                   131680581.610    25287871.787  
                 135751208.046                   135751208.046    26069585.648  
                 116953583.012                   116953583.012    22459705.963  
                 119175584.434                   119175584.434    22886416.838  
  27149161.665   142669772.714                                                  
  27710539.197   145619865.798                                                  
  26071197.541   137005058.585                                                  
  23449931.666   123230207.649                                                  
  25089766.364   131847616.823                                                  
  25290193.956   132900909.368                                                  
  26587245.275   139716891.227                                                  
  24004868.880   126146418.948                                                  
  25455110.707   133767533.388                                                  
 21  8 31  8 48 35.0000000  0 22G 1G 7G13G14G15G17G19G21G30C19C23C27
                                C28E 1E 4E 5E 9E12E24E26E31E33
  22825870.977   119950714.003    22825874.301    93468076.020                  
  21976924.346   115489521.532    21976924.274    89991835.820                  
  21547896.038   113234966.115    21547895.627    88235040.355                  
  20618648.573   108351739.915    20618648.841    84429931.876                  
  23568120.796   123851321.206    23568120.886    96507525.311                  
  20581662.661   108157374.512    20581662.447    84278474.864                  
  22354310.463   117472703.311    22354308.873    91537174.116                  
  24054638.719   126407981.102    24054637.826    98499726.488                  
  20507181.357   107765925.803    20507183.484    83973438.805                  
                 131682024.586                   131682024.586    25288148.882  
                 135753487.375                   135753487.375    26070023.367  
                 116951389.366                   116951389.366    22459284.701  
                 119176473.008                   119176473.008    22886587.487  
  27149490.223   142671499.238                                                  
  27711106.681   145622847.855                                                  
  26071103.836   137004566.211                                                  
  23450298.123   123232133.466                                                  
  25089206.992   131844677.403                                                  
  25289966.055   132899711.755                                                  
  26587438.278   139717905.490                                                  
  24004943.805   126146812.634                                                  
  25454860.076   133766216.361                                                  
 21  8 31  8 48 36.0000000  0 22G 1G 7G13G14G15G17G19G21G30C19C23C27
                                C28E 1E 4E 5E 9E12E24E26E31E33
  22825650.062   119949553.121    22825653.386    93467171.438                  
  21977351.648   115491766.978    21977351.576    89993585.520                  
  21547746.903   113234182.394    21547746.474    88234429.669                  
  20618665.387   108351828.146    20618665.620    84430000.629                  
  23567834.660   123849817.575    23567834.731    96506353.648                  
  20581403.525   108156012.690    20581403.292    84277413.702                  
  22353683.242   117469407.254    22353681.652    91534605.762                  
  24054825.200   126408961.126    24054824.325    98500490.145                  
  20507294.271   107766519.225    20507296.398    83973901.211                  
                 131683467.913                   131683467.913    25288426.066  
                 135755766.827                   135755766.827    26070461.122  
                 116949196.142                   116949196.142    22458863.528  
                 119177362.120                   119177362.120    22886758.225  
  27149818.762   142673225.777                                                  
  27711674.148   145625829.871                                                  
  26071010.220   137004074.292                                                  
  23450664.635   123234059.579                                                  
  25088647.656   131841738.031                                                  
  25289738.153   132898514.200                                                  
  26587631.388   139718920.207                                                  
  24005018.712   126147206.396                                                  
  25454609.535   133764899.750                                                  
 21  8 31  8 48 37.0000000  0 22G 1G 7G13G14G15G17G19G21G30C19C23C27
                                C28E 1E 4E 5E 9E12E24E26E31E33
  22825429.255   119948392.828    22825432.578    93466267.309                  
  21977779.003   115494012.802    21977778.932    89995335.513                  
  21547597.875   113233399.351    21547597.482    88233819.503                  
  20618682.220   108351916.628    20618682.452    84430069.579                  
  23567548.648   123848314.515    23567548.720    96505182.433                  
  20581144.477   108154651.438    20581144.263    84276352.984                  
  22353056.093   117466111.528    22353054.503    91532037.659                  
  24055011.806   126409941.663    24055010.895    98501254.200                  
  20507407.293   107767113.125    20507409.419    83974363.993                  
                 131684911.593                   131684911.593    25288703.304  
                 135758046.406                   135758046.406    26070898.878  
                 116947003.333                   116947003.333    22458442.409  
                 119178251.770                   119178251.770    22886929.071  
  27150147.320   142674952.327                                                  
  27712241.579   145628811.831                                                  
  26070916.693   137003582.836                                                  
  23451031.236   123235986.050                                                  
  25088088.337   131838798.726                                                  
  25289510.305   132897316.714                                                  
  26587824.553   139719935.362                                                  
  24005093.654   126147600.234                                                  
  25454359.082   133763583.562                                                  
 21  8 31  8 48 38.0000000  0 22G 1G 7G13G14G15G17G19G21G30C19C23C27
                                C28E 1E 4E 5E 9E12E24E26E31E33
  22825208.572   119947233.122    22825211.896    93465363.640                  
  21978206.448   115496259.011    21978206.395    89997085.805                  
  21547449.008   113232616.962    21547448.597    88233209.847                  
  20618699.106   108352005.363    20618699.356    84430138.723                  
  23567262.726   123846812.036    23567262.797    96504011.672                  
  20580885.555   108153290.746    20580885.323    84275292.706                  
  22352428.998   117462816.107    22352427.425    91529469.804                  
  24055198.484   126410922.737    24055197.609    98502018.671                  
  20507520.404   107767707.492    20507522.513    83974827.133                  
                 131686355.624                   131686355.624    25288980.614  
                 135760326.108                   135760326.108    26071336.687  
                 116944810.946                   116944810.946    22458021.379  
                 119179141.956                   119179141.956    22887100.024  
  27150475.860   142676678.886                                                  
  27712809.027   145631793.750                                                  
  26070823.274   137003091.835                                                  
  23451397.908   123237912.833                                                  
  25087529.019   131835859.492                                                  
  25289282.439   132896119.306                                                  
  26588017.824   139720950.969                                                  
  24005168.615   126147994.152                                                  
  25454108.684   133762267.781                                                  
 21  8 31  8 48 39.0000000  0 22G 1G 7G13G14G15G17G19G21G30C19C23C27
                                C28E 1E 4E 5E 9E12E24E26E31E33
  22824987.997   119946074.000    22824991.321    93464460.433                  
  21978633.965   115498505.601    21978633.893    89998836.395                  
  21547300.249   113231835.225    21547299.838    88232600.706                  
  20618716.046   108352094.353    20618716.278    84430208.063                  
  23566976.929   123845310.141    23566977.000    96502841.362                  
  20580626.723   108151930.617    20580626.508    84274232.868                  
  22351801.956   117459521.015    22351800.383    91526902.199                  
  24055385.287   126411904.342    24055384.376    98502783.563                  
  20507633.604   107768302.325    20507635.713    83975290.637                  
                 131687800.010                   131687800.010    25289257.994  
                 135762605.941                   135762605.941    26071774.496  
                 116942618.977                   116942618.977    22457600.438  
                 119180032.685                   119180032.685    22887271.084  
  27150804.418   142678405.445                                                  
  27713376.458   145634775.613                                                  
  26070729.926   137002601.298                                                  
  23451764.616   123239839.938                                                  
  25086969.701   131832920.298                                                  
  25289054.574   132894921.937                                                  
  26588211.167   139721967.030                                                  
  24005243.593   126148388.145                                                  
  25453858.374   133760952.438                                                  
 21  8 31  8 48 40.0000000  0 22G 1G 7G13G14G15G17G19G21G30C19C23C27
                                C28E 1E 4E 5E 9E12E24E26E31E33
  22824767.547   119944915.468    22824770.853    93463557.683                  
  21979061.535   115500752.587    21979061.481    90000587.289                  
  21547151.614   113231054.157    21547151.203    88231992.077                  
  20618733.022   108352183.589    20618733.254    84430277.601                  
  23566691.239   123843808.828    23566691.328    96501671.512                  
  20580368.015   108150571.055    20580367.783    84273173.469                  
  22351174.985   117456226.240    22351173.395    91524334.840                  
  24055572.179   126412886.473    24055571.286    98503548.855                  
  20507746.876   107768897.622    20507749.002    83975754.507                  
                 131689244.754                   131689244.754    25289535.447  
                 135764885.895                   135764885.895    26072212.340  
                 116940427.425                   116940427.425    22457179.587  
                 119180923.946                   119180923.946    22887442.234  
  27151132.975   142680132.007                                                  
  27713943.889   145637757.426                                                  
  26070636.668   137002111.210                                                  
  23452131.396   123241767.372                                                  
  25086410.400   131829981.152                                                  
  25288826.743   132893724.655                                                  
  26588404.599   139722983.550                                                  
  24005318.608   126148782.218                                                  
  25453608.155   133759637.503                                                  
 21  8 31  8 48 41.0000000  0 22G 1G 7G13G14G15G17G19G21G30C19C23C27
                                C28E 1E 4E 5E 9E12E24E26E31E33
  22824547.204   119943757.523    22824550.528    93462655.386                  
  21979489.194   115502999.952    21979489.158    90002338.485                  
  21547003.105   113230273.738    21547002.694    88231383.960                  
  20618750.033   108352273.081    20618750.301    84430347.332                  
  23566405.656   123842308.119    23566405.745    96500502.126                  
  20580109.396   108149212.062    20580109.182    84272114.511                  
  22350548.069   117452931.772    22350546.478    91521767.727                  
  24055759.160   126413869.132    24055758.285    98504314.567                  
  20507860.237   107769493.406    20507862.381    83976218.755                  
                 131690689.847                   131690689.847    25289812.953  
                 135767165.972                   135767165.972    26072650.203  
                 116938236.294                   116938236.294    22456758.771  
                 119181815.742                   119181815.742    22887613.508  
  27151461.533   142681858.592                                                  
  27714511.284   145640739.175                                                  
  26070543.499   137001621.586                                                  
  23452498.247   123243695.122                                                  
  25085851.118   131827042.070                                                  
  25288598.913   132892527.433                                                  
  26588598.121   139724000.503                                                  
  24005393.604   126149176.367                                                  
  25453358.024   133758322.988                                                  
 21  8 31  8 48 42.0000000  0 22G 1G 7G13G14G15G17G19G21G30C19C23C27
                                C28E 1E 4E 5E 9E12E24E26E31E33
  22824326.968   119942600.171    22824330.274    93461753.555                  
  21979916.943   115505247.707    21979916.871    90004089.980                  
  21546854.720   113229493.970    21546854.291    88230776.347                  
  20618767.116   108352362.820    20618767.384    84430417.263                  
  23566120.199   123840807.976    23566120.288    96499333.184                  
  20579850.903   108147853.609    20579850.689    84271055.981                  
  22349921.223   117449637.625    22349919.615    91519200.855                  
  24055946.267   126414852.316    24055945.356    98505080.680                  
  20507973.705   107770089.645    20507975.832    83976683.359                  
                 131692135.294                   131692135.294    25290090.548  
                 135769446.180                   135769446.180    26073088.083  
                 116936045.582                   116936045.582    22456338.081  
                 119182708.079                   119182708.079    22887784.854  
  27151790.109   142683585.181                                                  
  27715078.679   145643720.895                                                  
  26070450.401   137001132.419                                                  
  23452865.134   123245623.193                                                  
  25085291.835   131824103.044                                                  
  25288371.101   132891330.266                                                  
  26588791.731   139725017.906                                                  
  24005468.618   126149570.587                                                  
  25453107.965   133757008.886                                                  
 21  8 31  8 48 43.0000000  0 22G 1G 7G13G14G15G17G19G21G30C19C23C27
                                C28E 1E 4E 5E 9E12E24E26E31E33
  22824106.840   119941443.403    22824110.163    93460852.175                  
  21980344.745   115507495.847    21980344.691    90005841.782                  
  21546706.461   113228714.862    21546706.032    88230169.250                  
  20618784.234   108352452.813    20618784.502    84430487.383                  
  23565834.848   123839308.423    23565834.920    96498164.698                  
  20579592.499   108146495.722    20579592.285    84269997.883                  
  22349294.414   117446343.801    22349292.841    91516634.243                  
  24056133.463   126415836.031    24056132.552    98505847.216                  
  20508087.263   107770686.362    20508089.407    83977148.333                  
                 131693581.091                   131693581.091    25290368.197  
                 135771726.507                   135771726.507    26073525.999  
                 116933855.288                   116933855.288    22455917.462  
                 119183600.951                   119183600.951    22887956.325  
  27152118.666   142685311.778                                                  
  27715646.074   145646702.550                                                  
  26070357.393   137000643.716                                                  
  23453232.092   123247551.598                                                  
  25084732.553   131821164.067                                                  
  25288143.307   132890133.172                                                  
  26588985.414   139726035.772                                                  
  24005543.632   126149964.883                                                  
  25452857.959   133755695.210                                                  
 21  8 31  8 48 44.0000000  0 22G 1G 7G13G14G15G17G19G21G30C19C23C27
                                C28E 1E 4E 5E 9E12E24E26E31E33
  22823886.819   119940287.218    22823890.142    93459951.254                  
  21980772.619   115509744.380    21980772.583    90007593.883                  
  21546558.327   113227936.417    21546557.916    88229562.672                  
  20618801.424   108352543.053    20618801.674    84430557.702                  
  23565549.587   123837809.418    23565549.658    96496996.645                  
  20579334.220   108145138.422    20579334.006    84268940.247                  
  22348667.676   117443050.302    22348666.103    91514067.880                  
  24056320.766   126416820.277    24056319.855    98506614.161                  
  20508200.892   107771283.555    20508203.036    83977613.676                  
                 131695027.242                   131695027.242    25290645.917  
                 135774006.961                   135774006.961    26073963.933  
                 116931665.419                   116931665.419    22455496.915  
                 119184494.361                   119184494.361    22888127.904  
  27152447.224   142687038.384                                                  
  27716213.451   145649684.152                                                  
  26070264.492   137000155.468                                                  
  23453599.122   123249480.320                                                  
  25084173.324   131818225.150                                                  
  25287915.513   132888936.143                                                  
  26589179.203   139727054.082                                                  
  24005618.700   126150359.258                                                  
  25452608.061   133754381.953                                                  
 21  8 31  8 48 45.0000000  0 22G 1G 7G13G14G15G17G19G21G30C19C23C27
                                C28E 1E 4E 5E 9E12E24E26E31E33
  22823666.922   119939131.632    22823670.246    93459050.798                  
  21981200.582   115511993.309    21981200.546    90009346.293                  
  21546410.318   113227158.630    21546409.907    88228956.601                  
  20618818.632   108352633.546    20618818.900    84430628.214                  
  23565264.469   123836311.051    23565264.540    96495829.086                  
  20579076.049   108143781.660    20579075.799    84267883.031                  
  22348041.027   117439757.117    22348039.419    91511501.762                  
  24056508.141   126417805.043    24056507.265    98507381.509                  
  20508314.646   107771881.220    20508316.755    83978079.391                  
                 131696473.745                   131696473.745    25290923.691  
                 135776287.544                   135776287.544    26074401.903  
                 116929475.966                   116929475.966    22455076.457  
                 119185388.306                   119185388.306    22888299.554  
  27152775.782   142688764.993                                                  
  27716780.829   145652665.704                                                  
  26070171.680   136999667.669                                                  
  23453966.205   123251409.370                                                  
  25083614.059   131815286.288                                                  
  25287687.736   132887739.188                                                  
  26589373.064   139728072.843                                                  
  24005693.768   126150753.710                                                  
  25452358.234   133753069.125                                                  
 21  8 31  8 48 46.0000000  0 22G 1G 7G13G14G15G17G19G21G30C19C23C27
                                C28E 1E 4E 5E 9E12E24E26E31E33
  22823447.116   119937976.637    22823450.439    93458150.801                  
  21981628.616   115514242.613    21981628.563    90011099.000                  
  21546262.434   113226381.497    21546262.023    88228351.043                  
  20618835.894   108352724.288    20618836.162    84430698.922                  
  23564979.422   123834813.226    23564979.494    96494661.953                  
  20578817.966   108142425.481    20578817.734    84266826.269                  
  22347414.396   117436464.249    22347412.824    91508935.891                  
  24056695.640   126418790.343    24056694.765    98508149.277                  
  20508428.454   107772479.360    20508430.581    83978545.472                  
                 131697920.603                   131697920.603    25291201.554  
                 135778568.246                   135778568.246    26074839.873  
                 116927286.929                   116927286.929    22454656.088  
                 119186282.788                   119186282.788    22888471.346  
  27153104.340   142690491.613                                                  
  27717348.188   145655647.203                                                  
  26070078.940   136999180.345                                                  
  23454333.360   123253338.741                                                  
  25083054.812   131812347.473                                                  
  25287459.978   132886542.282                                                  
  26589567.015   139729092.047                                                  
  24005768.818   126151148.246                                                  
  25452108.497   133751756.696                                                  
 21  8 31  8 48 47.0000000  0 22G 1G 7G13G14G15G17G19G21G30C19C23C27
                                C28E 1E 4E 5E 9E12E24E26E31E33
  22823227.434   119936822.216    22823230.757    93457251.255                  
  21982056.722   115516492.305    21982056.669    90012852.005                  
  21546114.675   113225605.030    21546114.264    88227746.009                  
  20618853.226   108352815.285    20618853.477    84430769.829                  
  23564694.519   123833315.986    23564694.608    96493495.269                  
  20578559.991   108141069.880    20578559.777    84265769.956                  
  22346787.854   117433171.707    22346786.264    91506370.274                  
  24056883.247   126419776.176    24056882.336    98508917.457                  
  20508542.351   107773077.964    20508544.496    83979011.919                  
                 131699367.809                   131699367.809    25291479.471  
                 135780849.079                   135780849.079    26075277.896  
                 116925098.316                   116925098.316    22454235.773  
                 119187177.809                   119187177.809    22888643.229  
  27153432.897   142692218.231                                                  
  27717915.547   145658628.650                                                  
  26069986.271   136998693.464                                                  
  23454700.568   123255268.446                                                  
  25082495.601   131809408.720                                                  
  25287232.237   132885345.446                                                  
  26589761.037   139730111.706                                                  
  24005843.921   126151542.848                                                  
  25451858.813   133750444.692                                                  
 21  8 31  8 48 48.0000000  0 22G 1G 7G13G14G15G17G19G21G30C19C23C27
                                C28E 1E 4E 5E 9E12E24E26E31E33
  22823007.877   119935668.391    22823011.201    93456352.168                  
  21982484.882   115518742.379    21982484.846    90014605.309                  
  21545967.041   113224829.218    21545966.648    88227141.477                  
  20618870.577   108352906.532    20618870.845    84430840.930                  
  23564409.704   123831819.317    23564409.776    96492329.032                  
  20578302.141   108139714.837    20578301.927    84264714.079                  
  22346161.366   117429879.479    22346159.776    91503804.901                  
  24057070.943   126420762.536    24057070.032    98509686.046                  
  20508656.356   107773677.040    20508658.500    83979478.727                  
                 131700815.371                   131700815.371    25291757.460  
                 135783130.034                   135783130.034    26075715.938  
                 116922910.122                   116922910.122    22453815.565  
                 119188073.362                   119188073.362    22888815.200  
  27153761.473   142693944.878                                                  
  27718482.889   145661610.055                                                  
  26069893.727   136998207.056                                                  
  23455067.848   123257198.441                                                  
  25081936.372   131806470.022                                                  
  25287004.496   132884148.685                                                  
  26589955.166   139731131.812                                                  
  24005919.025   126151937.531                                                  
  25451609.236   133749133.105                                                  
 21  8 31  8 48 49.0000000  0 22G 1G 7G13G14G15G17G19G21G30C19C23C27
                                C28E 1E 4E 5E 9E12E24E26E31E33
  22822788.428   119934515.141    22822791.733    93455453.536                  
  21982913.149   115520992.837    21982913.077    90016358.910                  
  21545819.532   113224054.066    21545819.121    88226537.465                  
  20618888.000   108352998.028    20618888.232    84430912.226                  
  23564124.997   123830323.224    23564125.086    96491163.247                  
  20578044.399   108138360.372    20578044.184    84263658.651                  
  22345534.932   117426587.586    22345533.342    91501239.794                  
  24057258.747   126421749.423    24057257.835    98510455.051                  
  20508770.467   107774276.586    20508772.576    83979945.906                  
                 131702263.284                   131702263.284    25292035.520  
                 135785411.114                   135785411.114    26076153.979  
                 116920722.346                   116920722.346    22453395.428  
                 119188969.456                   119188969.456    22888987.297  
  27154090.049   142695671.519                                                  
  27719050.195   145664591.381                                                  
  26069801.255   136997721.096                                                  
  23455435.164   123259128.792                                                  
  25081377.179   131803531.378                                                  
  25286776.773   132882951.972                                                  
  26590149.384   139732152.372                                                  
  24005994.146   126152332.293                                                  
  25451359.731   133747821.938                                                  
 21  8 31  8 48 50.0000000  0 22G 1G 7G13G14G15G17G19G21G30C19C23C27
                                C28E 1E 4E 5E 9E12E24E26E31E33
  22822569.085   119933362.495    22822572.391    93454555.371                  
  21983341.452   115523243.676    21983341.398    90018112.813                  
  21545672.166   113223279.577    21545671.737    88225933.965                  
  20618905.458   108353089.776    20618905.708    84430983.718                  
  23563840.415   123828827.717    23563840.504    96489997.917                  
  20577786.763   108137006.461    20577786.513    84262603.656                  
  22344908.551   117423296.000    22344906.979    91498674.918                  
  24057446.640   126422736.829    24057445.746    98511224.462                  
  20508884.632   107774876.605    20508886.759    83980413.457                  
                 131703711.552                   131703711.552    25292313.633  
                 135787692.322                   135787692.322    26076592.074  
                 116918534.993                   116918534.993    22452975.363  
                 119189866.085                   119189866.085    22889159.483  
  27154418.624   142697398.175                                                  
  27719617.536   145667572.684                                                  
  26069708.854   136997235.601                                                  
  23455802.569   123261059.445                                                  
  25080817.986   131800592.800                                                  
  25286549.068   132881755.331                                                  
  26590343.656   139733173.375                                                  
  24006069.285   126152727.120                                                  
  25451110.297   133746511.190                                                  
 21  8 31  8 48 51.0000000  0 22G 1G 7G13G14G15G17G19G21G30C19C23C27
                                C28E 1E 4E 5E 9E12E24E26E31E33
  22822349.868   119932210.431    22822353.174    93453657.656                  
  21983769.861   115525494.911    21983769.808    90019867.020                  
  21545524.908   113222505.739    21545524.497    88225330.972                  
  20618922.951   108353181.768    20618923.219    84431055.402                  
  23563555.940   123827332.786    23563556.012    96488833.036                  
  20577529.217   108135653.129    20577529.002    84261549.114                  
  22344282.260   117420004.735    22344280.688    91496110.297                  
  24057634.640   126423724.782    24057633.746    98511994.292                  
  20508998.905   107775477.101    20509001.031    83980881.372                  
                 131705160.157                   131705160.157    25292591.836  
                 135789973.652                   135789973.652    26077030.186  
                 116916348.063                   116916348.063    22452555.388  
                 119190763.275                   119190763.275    22889331.776  
  27154747.200   142699124.837                                                  
  27720184.842   145670553.919                                                  
  26069616.561   136996750.572                                                  
  23456170.027   123262990.432                                                  
  25080258.793   131797654.264                                                  
  25286321.364   132880558.762                                                  
  26590538.035   139734194.833                                                  
  24006144.424   126153122.036                                                  
  25450860.953   133745200.871                                                  
 21  8 31  8 48 52.0000000  0 22G 1G 7G13G14G15G17G19G21G30C19C23C27
                                C28E 1E 4E 5E 9E12E24E26E31E33
  22822130.740   119931058.953    22822134.064    93452760.399                  
  21984198.325   115527746.528    21984198.271    90021621.527                  
  21545377.774   113221732.562    21545377.363    88224728.496                  
  20618940.517   108353274.016    20618940.767    84431127.281                  
  23563271.572   123825838.421    23563271.662    96487668.598                  
  20577271.796   108134300.351    20577271.581    84260495.001                  
  22343656.022   117416713.789    22343654.414    91493545.926                  
  24057822.747   126424713.245    24057821.835    98512764.528                  
  20509113.267   107776078.062    20509115.393    83981349.655                  
                 131706609.126                   131706609.126    25292870.092  
                 135792255.110                   135792255.110    26077468.299  
                 116914161.550                   116914161.550    22452135.483  
                 119191660.977                   119191660.977    22889504.158  
  27155075.757   142700851.499                                                  
  27720752.147   145673535.099                                                  
  26069524.357   136996265.977                                                  
  23456537.522   123264921.731                                                  
  25079699.617   131794715.790                                                  
  25286093.659   132879362.259                                                  
  26590732.504   139735216.746                                                  
  24006219.599   126153517.018                                                  
  25450611.698   133743890.966                                                  
 21  8 31  8 48 53.0000000  0 22G 1G 7G13G14G15G17G19G21G30C19C23C27
                                C28E 1E 4E 5E 9E12E24E26E31E33
  22821911.738   119929908.074    22821915.043    93451863.614                  
  21984626.860   115529998.533    21984626.824    90023376.333                  
  21545230.766   113220960.051    21545230.355    88224126.542                  
  20618958.118   108353366.513    20618958.368    84431199.359                  
  23562987.312   123824344.637    23562987.401    96486504.610                  
  20577014.482   108132948.151    20577014.267    84259441.339                  
  22343029.820   117413423.175    22343028.248    91490981.814                  
  24058010.943   126425702.254    24058010.032    98513535.184                  
  20509227.718   107776679.492    20509229.844    83981818.302                  
                 131708058.447                   131708058.447    25293148.420  
                 135794536.693                   135794536.693    26077906.465  
                 116911975.452                   116911975.452    22451715.669  
                 119192559.213                   119192559.213    22889676.666  
  27155404.333   142702578.187                                                  
