     2.11           OBSERVATION DATA    M (MIXED)           RINEX VERSION / TYPE
CONVBIN 2.4.3                           20210831 165318 UTC PGM / RUN BY / DATE 
log: logs/21_08_31_08_18_08_txlu_SNTX.rtcm                  COMMENT             
format: RTCM 3, station ID: 3938                            COMMENT             
3938                                                        MARKER NAME         
                                                            MARKER NUMBER       
                                                            OBSERVER / AGENCY   
1702670             LEICA GR10          4.50                REC # / TYPE / VERS 
                    GPPNULLANTENNA                          ANT # / TYPE        
 -1092200.8902 -5208620.0908  3503609.0493                  APPROX POSITION XYZ 
        0.0000        0.0000        0.0000                  ANTENNA: DELTA H/E/N
     1     1                                                WAVELENGTH FACT L1/2
     7    C1    L1    C2    L2    P2    C5    L5            # / TYPES OF OBSERV 
  2021     8    31     8    18   15.0000000     GPS         TIME OF FIRST OBS   
  2021     8    31     8    48   12.0000000     GPS         TIME OF LAST OBS    
                                                            END OF HEADER       
 21  8 31  8 18 15.0000000  0 20G 1G 7G 8G 9G13G14G17G19G21G30R 2R 3
                                R12R13R21R22E 1E 9E31E33
  22284669.216   117106726.551    22284668.662    91251991.272    22284668.358  
  22284669.966    87449831.236  
  20619906.856   108358341.706    20619903.032    84435053.333    20619902.442  
                                
  23931839.738   125762666.204    23931838.987    97996874.746    23931837.844  
  23931839.398    93913677.450  
  24626712.791   129414248.992    24626711.665   100842264.664    24626711.094  
  24626714.239    96640515.279  
  22927550.131   120485088.813                    93884464.828    22927545.325  
                                
  21241764.848   111626227.445    21241761.506    86981460.426    21241761.041  
  21241767.331    83357256.975  
  21386952.678   112389194.569    21386949.194    87575979.314    21386948.533  
                                
  23937969.813   125794879.971                    98021959.634    23937963.702  
                                
  22845861.160   120055810.337                    93549961.831    22845856.139  
                                
  20421234.466   107314311.060    20421232.929    83621531.110    20421232.054  
  20421234.805    80137311.279  
  22690625.560   121081525.766    22690625.238    94174518.247    22690624.470  
                                
  22591506.393   120934102.364    22591503.516    94059844.960    22591502.605  
                                
  20064699.622   107182023.370    20064698.479    83363791.171    20064697.728  
                                
  21826228.621   116550842.882    21826227.299    90650649.807    21826226.477  
                                
  22470747.572   120245508.709    22470744.981    93524274.088    22470744.159  
                                
  19817673.549   105788087.124    19817672.227    82279617.908    19817670.601  
                                
  25672087.141   134907728.725                                                  
  25672090.947   100742798.473  
  23738624.119   124747311.640                                                  
  23738628.800    93155478.030  
  24092269.202   126605729.118                                                  
  24092273.901    94543257.497  
  25084933.025   131822213.059                                                  
  25084936.742    98438679.434  
 21  8 31  8 18 16.0000000  0 20G 1G 7G 8G 9G13G14G17G19G21G30R 2R 3
                                R12R13R21R22E 1E 9E31E33
  22284293.234   117104750.740    22284292.662    91250451.681    22284292.376  
  22284293.966    87448355.799  
  20620122.999   108359477.595    20620119.193    84435938.442    20620118.603  
                                
  23932498.015   125766125.478    23932497.264    97999570.285    23932496.121  
  23932497.693    93916260.670  
  24627393.708   129417827.177    24627392.565   100845052.859    24627392.011  
  24627395.138    96643187.312  
  22927198.969   120483243.391                    93883026.834    22927194.163  
                                
  21241566.930   111625187.342    21241563.589    86980649.953    21241563.106  
  21241569.414    83356480.281  
  21386520.605   112386923.958    21386517.121    87574210.006    21386516.460  
                                
  23937283.786   125791274.969                    98019150.546    23937277.692  
                                
  22845929.831   120056171.283                    93550243.090    22845924.810  
                                
  20421069.964   107313446.622    20421068.427    83620857.521    20421067.569  
  20421070.303    80136665.759  
  22691241.112   121084810.521    22691240.808    94177073.054    22691240.004  
                                
  22591648.434   120934862.642    22591645.539    94060436.288    22591644.628  
                                
  20064643.210   107181721.959    20064642.048    83363556.740    20064641.298  
                                
  21825772.550   116548407.541    21825771.246    90648755.649    21825770.424  
                                
  22471372.595   120248853.302    22471370.021    93526875.436    22471369.182  
                                
  19817675.872   105788099.534    19817674.550    82279627.559    19817672.924  
                                
  25672324.781   134908977.477                                                  
  25672328.552   100743730.986  
  23738856.237   124748531.446                                                  
  23738860.919    93156388.920  
  24092193.991   126605333.974                                                  
  24092198.709    94542962.427  
  25084579.022   131820352.701                                                  
  25084582.721    98437290.215  
 21  8 31  8 18 17.0000000  0 20G 1G 7G 8G 9G13G14G17G19G21G30R 2R 3
                                R12R13R21R22E 1E 9E31E33
  22283917.234   117102774.970    22283916.698    91248912.120    22283916.376  
  22283918.002    87446880.384  
  20620339.179   108360613.535    20620335.355    84436823.587    20620334.747  
                                
  23933156.220   125769584.404    23933155.470    98002265.549    23933154.344  
  23933155.898    93918843.634  
  24628074.518   129421404.844    24628073.374   100847840.643    24628072.838  
  24628075.947    96645858.945  
  22926847.807   120481398.081                    93881588.928    22926843.018  
                                
  21241368.959   111624146.980    21241365.618    86979839.277    21241365.153  
  21241371.425    83355703.379  
  21386088.514   112384653.358    21386085.048    87572440.703    21386084.387  
                                
  23936597.722   125787669.635                    98016341.195    23936591.629  
                                
  22845998.537   120056532.332                    93550524.424    22845993.516  
                                
  20420905.461   107312582.180    20420903.925    83620183.928    20420903.067  
  20420905.801    80136020.232  
  22691856.646   121088095.037    22691856.325    94179627.675    22691855.538  
                                
  22591790.511   120935623.222    22591787.634    94061027.845    22591786.705  
                                
  20064586.726   107181420.327    20064585.582    83363322.137    20064584.832  
                                
  21825316.407   116545971.712    21825315.085    90646861.114    21825314.281  
                                
  22471997.635   120252197.996    22471995.044    93529476.860    22471994.222  
                                
  19817678.285   105788112.429    19817676.962    82279637.589    19817675.336  
                                
  25672562.332   134910225.808                                                  
  25672566.102   100744663.185  
  23739088.338   124749751.179                                                  
  23739093.020    93157299.766  
  24092118.727   126604938.431                                                  
  24092123.426    94542667.062  
  25084224.983   131818492.232                                                  
  25084228.682    98435900.905  
 21  8 31  8 18 18.0000000  0 20G 1G 7G 8G 9G13G14G17G19G21G30R 2R 3
                                R12R13R21R22E 1E 9E31E33
  22283541.323   117100799.494    22283540.769    91247372.788    22283540.466  
  22283542.074    87445405.191  
  20620555.394   108361749.762    20620551.552    84437708.957    20620550.980  
                                
  23933814.426   125773043.226    23933813.675    98004960.733    23933812.531  
  23933814.086    93921426.525  
  24628755.256   129424982.227    24628754.148   100850628.215    24628753.577  
  24628756.721    96648530.381  
  22926496.735   120479553.137                    93880151.310    22926491.946  
                                
  21241170.971   111623106.595    21241167.629    86979028.590    21241167.182  
  21241173.454    83354926.477  
  21385656.477   112382382.996    21385652.993    87570671.587    21385652.332  
                                
  23935911.641   125784064.281                    98013531.826    23935905.548  
                                
  22846067.315   120056893.744                    93550806.049    22846062.276  
                                
  20420741.013   107311717.982    20420739.494    83619510.527    20420738.636  
  20420741.352    80135374.892  
  22692472.181   121091379.598    22692471.859    94182182.333    22692471.073  
                                
  22591932.677   120936384.310    22591929.800    94061619.801    22591928.906  
                                
  20064530.278   107181118.740    20064529.116    83363087.574    20064528.366  
                                
  21824860.229   116543535.718    21824858.907    90644966.448    21824858.085  
                                
  22472622.729   120255543.013    22472620.138    93532078.540    22472619.316  
                                
  19817680.840   105788126.078    19817679.535    82279648.205    19817677.891  
                                
  25672799.829   134911473.985                                                  
  25672803.635   100745595.267  
  23739320.492   124750971.100                                                  
  23739325.174    93158210.743  
  24092043.427   126604542.744                                                  
  24092048.144    94542371.580  
  25083870.980   131816631.917                                                  
  25083874.679    98434511.709  
 21  8 31  8 18 19.0000000  0 20G 1G 7G 8G 9G13G14G17G19G21G30R 2R 3
                                R12R13R21R22E 1E 9E31E33
  22283165.502   117098824.537    22283164.966    91245833.860    22283164.644  
  22283166.270    87443930.385  
  20620771.734   108362886.544    20620767.892    84438594.757    20620767.303  
                                
  23934472.631   125776502.181    23934471.898    98007656.027    23934470.755  
  23934472.309    93924009.511  
  24629436.012   129428559.587    24629434.869   100853415.777    24629434.333  
  24629437.460    96651201.777  
  22926145.769   120477708.784                    93878714.153    22926140.962  
                                
  21240973.035   111622066.441    21240969.694    86978218.078    21240969.229  
  21240975.537    83354149.739  
  21385224.547   112380113.132    21385221.063    87568902.865    21385220.402  
                                
  23935225.614   125780459.117                    98010722.600    23935219.520  
                                
  22846136.200   120057255.776                    93551088.152    22846131.179  
                                
  20420576.654   107310854.271    20420575.117    83618837.510    20420574.259  
  20420576.993    80134729.915  
  22693087.750   121094664.427    22693087.429    94184737.201    22693086.643  
                                
  22592075.021   120937146.185    22592072.144    94062212.369    22592071.215  
                                
  20064473.865   107180817.440    20064472.721    83362853.229    20064471.971  
                                
  21824404.069   116541099.749    21824402.729    90643071.805    21824401.907  
                                
  22473247.931   120258888.589    22473245.340    93534680.655    22473244.518  
                                
  19817683.592   105788140.710    19817682.269    82279659.588    19817680.625  
                                
  25673037.362   134912722.232                                                  
  25673041.168   100746527.397  
  23739552.718   124752191.434                                                  
  23739557.418    93159122.030  
  24091968.145   126604147.142                                                  
  24091972.862    94542076.163  
  25083517.066   131814772.014                                                  
  25083520.765    98433122.812  
 21  8 31  8 18 20.0000000  0 20G 1G 7G 8G 9G13G14G17G19G21G30R 2R 3
                                R12R13R21R22E 1E 9E31E33
  22282789.949   117096851.050    22282789.413    91244296.085    22282789.091  
  22282790.717    87442456.679  
  20620988.325   108364024.793    20620984.501    84439481.699    20620983.911  
                                
  23935131.069   125779962.213    23935130.318    98010352.153    23935129.157  
  23935130.747    93926593.303  
  24630116.947   129432137.871    24630115.804   100856204.052    24630115.232  
  24630118.377    96653873.864  
  22925795.090   120475865.953                    93877278.179    22925790.301  
                                
  21240775.315   111621027.468    21240772.009    86977408.489    21240771.526  
  21240777.816    83353373.877  
  21384792.867   112377844.695    21384789.401    87567135.249    21384788.740  
                                
  23934539.783   125776855.113                    98007914.292    23934533.689  
                                
  22846205.389   120057619.328                    93551371.443    22846200.350  
                                
  20420412.562   107309991.993    20420411.043    83618165.607    20420410.186  
  20420412.902    80134086.008  
  22693703.553   121097950.505    22693703.231    94187293.036    22693702.463  
                                
  22592217.670   120937909.784    22592214.793    94062806.278    22592213.864  
                                
  20064417.685   107180517.377    20064416.541    83362619.849    20064415.791  
                                
  21823948.087   116538664.814    21823946.747    90641177.967    21823945.925  
                                
  22473873.436   120262235.722    22473870.827    93537283.980    22473869.987  
                                
  19817686.701   105788157.272    19817685.379    82279672.467    19817683.735  
                                
  25673275.109   134913971.485                                                  
  25673278.880   100747460.283  
  23739785.194   124753413.142                                                  
  23739789.876    93160034.348  
  24091893.059   126603752.579                                                  
  24091897.776    94541781.515  
  25083163.367   131812913.411                                                  
  25083167.065    98431734.898  
 21  8 31  8 18 21.0000000  0 20G 1G 7G 8G 9G13G14G17G19G21G30R 2R 3
                                R12R13R21R22E 1E 9E31E33
  22282414.360   117094877.252    22282413.806    91242758.063    22282413.484  
  22282415.110    87440982.746  
  20621204.861   108365162.713    20621201.037    84440368.391    20621200.448  
                                
  23935789.346   125783421.566    23935788.613    98013047.756    23935787.452  
  23935789.024    93929176.591  
  24630797.686   129435715.281    24630796.578   100858991.637    24630796.006  
  24630799.151    96656545.312  
  22925444.356   120474022.891                    93875842.026    22925439.585  
                                
  21240577.505   111619987.886    21240574.163    86976598.425    21240573.698  
  21240580.006    83352597.569  
  21384361.116   112375575.909    21384357.667    87565367.362    21384357.006  
                                
  23933853.845   125773250.451                    98005105.463    23933847.751  
                                
  22846274.524   120057982.674                    93551654.566    22846269.503  
                                
  20420248.417   107309129.376    20420246.881    83617493.436    20420246.023  
  20420248.757    80133441.846  
  22694319.266   121101236.034    22694318.944    94189848.448    22694318.158  
                                
  22592360.300   120938673.377    22592357.423    94063400.176    22592356.530  
                                
  20064361.397   107180216.744    20064360.272    83362386.026    20064359.503  
                                
  21823491.944   116536229.044    21823490.604    90639283.479    21823489.782  
                                
  22474498.869   120265582.576    22474496.278    93539887.087    22474495.456  
                                
  19817689.828   105788173.979    19817688.506    82279685.457    19817686.880  
                                
  25673512.678   134915219.993                                                  
  25673516.466   100748392.610  
  23740017.617   124754634.445                                                  
  23740022.298    93160946.345  
  24091817.848   126603357.265                                                  
  24091822.548    94541486.324  
  25082809.596   131811054.379                                                  
  25082813.295    98430346.667  
 21  8 31  8 18 22.0000000  0 20G 1G 7G 8G 9G13G14G17G19G21G30R 2R 3
                                R12R13R21R22E 1E 9E31E33
  22282038.842   117092903.905    22282038.288    91241220.386    22282037.984  
  22282039.593    87439509.146  
  20621421.488   108366301.095    20621417.681    84441255.443    20621417.074  
                                
  23936447.641   125786880.967    23936446.890    98015743.398    23936445.764  
  23936447.319    93931759.909  
  24631478.442   129439292.567    24631477.298   100861779.138    24631476.744  
  24631479.871    96659216.673  
  22925093.730   120472180.339                    93874406.274    22925088.941  
                                
  21240379.712   111618948.440    21240376.371    86975788.467    21240375.906  
  21240382.178    83351821.364  
  21383929.454   112373307.539    21383926.005    87563599.801    21383925.344  
                                
  23933167.942   125769645.933                    98002296.754    23933161.813  
                                
  22846343.767   120058346.522                    93551938.091    22846338.746  
                                
  20420084.344   107308267.162    20420082.807    83616821.578    20420081.950  
  20420084.684    80132797.987  
  22694935.014   121104521.775    22694934.693    94192404.024    22694933.924  
                                
  22592503.092   120939437.693    22592500.215    94063994.643    22592499.321  
                                
  20064305.164   107179916.302    20064304.020    83362152.354    20064303.270  
                                
  21823035.802   116533793.286    21823034.480    90637389.008    21823033.658  
                                
  22475124.392   120268929.918    22475121.784    93542490.575    22475120.962  
                                
  19817693.116   105788191.542    19817691.811    82279699.119    19817690.168  
                                
  25673750.247   134916468.481                                                  
  25673754.053   100749324.923  
  23740250.057   124755856.061                                                  
  23740254.756    93161858.611  
  24091742.620   126602961.971                                                  
  24091747.319    94541191.132  
  25082455.878   131809195.647                                                  
  25082459.577    98428958.657  
 21  8 31  8 18 23.0000000  0 20G 1G 7G 8G 9G13G14G17G19G21G30R 2R 3
                                R12R13R21R22E 1E 9E31E33
  22281663.450   117090931.137    22281662.878    91239683.168    22281662.574  
  22281664.182    87438035.959  
  20621638.221   108367440.063    20621634.397    84442142.953    20621633.807  
                                
  23937105.971   125790340.550    23937105.238    98018439.178    23937104.077  
  23937105.649    93934343.362  
  24632159.162   129442869.880    24632158.019   100864566.661    24632157.482  
  24632160.610    96661888.026  
  22924743.229   120470338.412                    93872971.011    22924738.441  
                                
  21240181.956   111617909.267    21240178.632    86974978.724    21240178.150  
  21240184.440    83351045.355  
  21383497.917   112371039.709    21383494.451    87561832.665    21383493.789  
                                
  23932482.058   125766041.638                    97999488.222    23932475.929  
                                
  22846413.116   120058711.016                    93552222.112    22846408.113  
                                
  20419920.378   107307405.476    20419918.823    83616150.137    20419917.966  
  20419920.717    80132154.516  
  22695550.834   121107807.868    22695550.513    94194959.877    22695549.727  
                                
  22592646.026   120940202.826    22592643.149    94064589.741    22592642.256  
                                
  20064248.983   107179616.183    20064247.822    83361918.932    20064247.089  
                                
  21822579.677   116531357.597    21822578.337    90635494.588    21822577.515  
                                
  22475750.023   120272277.867    22475747.450    93545094.535    22475746.610  
                                
  19817696.600   105788210.160    19817695.296    82279713.598    19817693.652  
                                
  25673987.851   134917717.091                                                  
  25673991.657   100750257.322  
  23740482.622   124757078.159                                                  
  23740487.322    93162771.203  
  24091667.427   126602566.795                                                  
  24091672.126    94540896.033  
  25082102.268   131807337.360                                                  
  25082105.967    98427570.966  
 21  8 31  8 18 24.0000000  0 20G 1G 7G 8G 9G13G14G17G19G21G30R 2R 3
                                R12R13R21R22E 1E 9E31E33
  22281288.057   117088958.469    22281287.503    91238146.024    22281287.182  
  22281288.790    87436562.869  
  20621854.972   108368579.125    20621851.148    84443030.538    20621850.576  
                                
  23937764.248   125793799.868    23937763.515    98021134.754    23937762.372  
  23937763.926    93936926.624  
  24632839.811   129446446.714    24632838.667   100867353.798    24632838.131  
  24632841.258    96664559.052  
  22924392.764   120468496.673                    93871535.892    22924387.958  
                                
  21239984.164   111616869.909    21239980.822    86974168.835    21239980.375  
  21239986.647    83350269.213  
  21383066.362   112368771.935    21383062.896    87560065.571    21383062.252  
                                
  23931796.119   125762437.132                    97996679.513    23931790.026  
                                
  22846482.520   120059075.700                    93552506.281    22846477.499  
                                
  20419756.412   107306543.857    20419754.875    83615478.744    20419754.017  
  20419756.733    80131511.097  
  22696166.619   121111093.856    22696166.297    94197515.647    22696165.511  
                                
  22592789.032   120940968.293    22592786.137    94065185.100    22592785.244  
                                
  20064192.785   107179315.947    20064191.624    83361685.411    20064190.856  
                                
  21822123.463   116528921.556    21822122.159    90633599.889    21822121.337  
                                
  22476375.707   120275625.932    22476373.098    93547698.583    22476372.294  
                                
  19817700.192   105788229.318    19817698.870    82279728.498    19817697.226  
                                
  25674225.420   134918965.368                                                  
  25674229.190   100751189.470  
  23740715.188   124758300.257                                                  
  23740719.887    93163683.805  
  24091592.162   126602171.299                                                  
  24091596.862    94540600.693  
  25081748.640   131805479.024                                                  
  25081752.339    98426183.252  
 21  8 31  8 18 25.0000000  0 20G 1G 7G 8G 9G13G14G17G19G21G30R 2R 3
                                R12R13R21R22E 1E 9E31E33
  22280912.826   117086986.649    22280912.272    91236609.541    22280911.968  
  22280913.594    87435090.413  
  20622071.902   108369719.073    20622068.078    84443918.809    20622067.488  
                                
  23938422.614   125797259.644    23938421.882    98023830.688    23938420.738  
  23938422.311    93939510.227  
  24633520.549   129450023.871    24633519.406   100870141.188    24633518.870  
  24633521.961    96667230.299  
  22924042.442   120466655.843                    93870101.481    22924037.671  
                                
  21239786.497   111615831.099    21239783.155    86973359.373    21239782.690  
  21239788.980    83349493.486  
  21382634.986   112366504.992    21382631.520    87558299.119    21382630.859  
                                
  23931110.324   125758833.174                    97993871.232    23931104.213  
                                
  22846552.102   120059441.309                    93552791.176    22846547.063  
                                
  20419592.606   107305683.054    20419591.088    83614807.986    20419590.212  
  20419592.946    80130868.294  
  22696782.528   121114380.458    22696782.207    94200071.896    22696781.403  
                                
  22592932.234   120941734.867    22592929.357    94065781.326    22592928.446  
                                
  20064136.712   107179016.359    20064135.551    83361452.400    20064134.783  
                                
  21821667.338   116526485.885    21821666.034    90631705.478    21821665.212  
                                
  22477001.551   120278974.905    22476998.942    93550303.340    22476998.102  
                                
  19817704.016   105788249.773    19817702.694    82279744.405    19817701.085  
                                
  25674463.024   134920214.043                                                  
  25674466.812   100752121.925  
  23740947.896   124759523.101                                                  
  23740952.560    93164596.971  
  24091516.987   126601776.214                                                  
  24091521.687    94540305.662  
  25081395.155   131803621.427                                                  
  25081398.854    98424796.086  
 21  8 31  8 18 26.0000000  0 20G 1G 7G 8G 9G13G14G17G19G21G30R 2R 3
                                R12R13R21R22E 1E 9E31E33
  22280537.862   117085016.193    22280537.308    91235074.123    22280537.004  
  22280538.613    87433618.969  
  20622289.082   108370860.374    20622285.276    84444808.132    20622284.669  
                                
  23939081.195   125800720.395    23939080.445    98026527.379    23939079.319  
  23939080.855    93942094.541  
  24634201.395   129453601.827    24634200.269   100872929.201    24634199.715  
  24634202.824    96669902.144  
  22923692.424   120464816.449                    93868668.185    22923687.635  
                                
  21239589.008   111614793.373    21239585.702    86972550.752    21239585.220  
  21239591.510    83348718.545  
  21382203.843   112364239.363    21382200.376    87556533.698    21382199.733  
                                
  23930424.708   125755230.256                    97991063.759    23930418.614  
                                
  22846621.934   120059808.359                    93553077.189    22846616.913  
                                
  20419429.051   107304823.575    20419427.515    83614138.264    20419426.657  
  20419429.391    80130226.466  
  22697398.634   121117668.184    22697398.313    94202629.018    22697397.544  
                                
  22593075.740   120942503.075    22593072.845    94066378.821    22593071.952  
                                
  20064080.818   107178717.898    20064079.657    83361220.261    20064078.924  
                                
  21821211.410   116524051.120    21821210.070    90629811.770    21821209.248  
                                
  22477627.646   120282325.331    22477625.037    93552909.224    22477624.215  
                                
  19817708.197   105788272.060    19817706.875    82279761.740    19817705.249  
                                
  25674700.825   134921463.616                                                  
  25674704.596   100753055.045  
  23741180.836   124760747.206                                                  
  23741185.518    93165511.073  
  24091441.973   126601382.067                                                  
  24091446.691    94540011.325  
  25081041.903   131801765.051                                                  
  25081045.619    98423409.824  
 21  8 31  8 18 27.0000000  0 20G 1G 7G 8G 9G13G14G17G19G21G30R 2R 3
                                R12R13R21R22E 1E 9E31E33
  22280163.006   117083046.368    22280162.452    91233539.195    22280162.148  
  22280163.774    87432147.998  
  20622506.370   108372002.267    20622502.563    84445697.920    20622501.956  
                                
  23939739.776   125804181.372    23939739.061    98029224.246    23939737.899  
  23939739.454    93944679.045  
  24634882.276   129457179.817    24634881.133   100875717.241    24634880.596  
  24634883.724    96672574.027  
  22923342.530   120462977.756                    93867235.435    22923337.759  
                                
  21239391.591   111613755.937    21239388.285    86971742.363    21239387.803  
  21239394.093    83347943.845  
  21381772.824   112361974.309    21381769.357    87554768.721    21381768.696  
                                
  23929739.163   125751627.598                    97988256.484    23929733.069  
                                
  22846691.909   120060176.098                    93553363.736    22846686.888  
                                
  20419265.603   107303964.671    20419264.067    83613468.988    20419263.209  
  20419265.943    80129585.077  
  22698014.830   121120956.273    22698014.508    94205186.420    22698013.704  
                                
  22593219.407   120943272.166    22593216.530    94066977.007    22593215.619  
                                
  20064025.031   107178419.765    20064023.869    83360988.380    20064023.101  
                                
  21820755.482   116521616.459    21820754.142    90627918.142    21820753.320  
                                
  22478253.884   120285676.455    22478251.275    93555515.653    22478250.471  
                                
  19817712.593   105788295.430    19817711.271    82279779.914    19817709.627  
                                
  25674938.626   134922713.360                                                  
  25674942.432   100753988.295  
  23741413.849   124761971.816                                                  
  23741418.548    93166425.555  
  24091366.995   126600988.079                                                  
  24091371.694    94539717.116  
  25080688.721   131799909.130                                                  
  25080692.420    98422023.913  
 21  8 31  8 18 28.0000000  0 20G 1G 7G 8G 9G13G14G17G19G21G30R 2R 3
                                R12R13R21R22E 1E 9E31E33
  22279788.310   117081077.268    22279787.738    91232004.836    22279787.435  
  22279789.061    87430677.568  
  20622723.818   108373144.930    20622720.012    84446588.304    20622719.404  
                                
  23940398.446   125807642.700    23940397.713    98031921.390    23940396.570  
  23940398.124    93947263.810  
  24635563.193   129460757.996    24635562.050   100878505.430    24635561.513  
  24635564.623    96675246.045  
  22922992.798   120461139.835                    93865803.286    22922988.009  
                                
  21239194.263   111612718.944    21239190.940    86970934.316    21239190.457  
  21239196.765    83347169.467  
  21381341.930   112359709.951    21381338.464    87553004.289    21381337.802  
                                
  23929053.689   125748025.366                    97985449.543    23929047.578  
                                
  22846762.045   120060544.630                    93553650.901    22846757.024  
                                
  20419102.298   107303106.468    20419100.779    83612800.256    20419099.904  
  20419102.638    80128944.213  
  22698631.097   121124244.850    22698630.775    94207744.210    22698629.989  
                                
  22593363.289   120944042.275    22593360.394    94067575.984    22593359.482  
                                
  20063969.280   107178122.088    20063968.136    83360756.852    20063967.386  
                                
  21820299.590   116519182.115    21820298.250    90626024.763    21820297.446  
                                
  22478880.265   120289028.342    22478877.656    93558122.678    22478876.834  
                                
  19817717.185   105788319.995    19817715.863    82279799.017    19817714.237  
                                
  25675176.499   134923963.376                                                  
  25675180.287   100754921.747  
  23741647.021   124763197.054                                                  
  23741651.703    93167340.507  
  24091292.088   126600594.394                                                  
  24091296.787    94539423.138  
  25080335.647   131798053.819                                                  
  25080339.346    98420638.461  
 21  8 31  8 18 29.0000000  0 20G 1G 7G 8G 9G13G14G17G19G21G30R 2R 3
                                R12R13R21R22E 1E 9E31E33
  22279413.668   117079108.614    22279413.114    91230470.822    22279412.811  
  22279414.437    87429207.458  
  20622941.355   108374288.026    20622937.531    84447479.026    20622936.942  
                                
  23941057.116   125811104.064    23941056.383    98034618.556    23941055.240  
  23941056.794    93949848.610  
  24636244.057   129464336.033    24636242.931   100881293.508    24636242.377  
  24636245.486    96677917.965  
  22922643.155   120459302.409                    93864371.521    22922638.366  
                                
  21238996.972   111611682.086    21238993.630    86970126.373    21238993.165  
  21238999.438    83346395.188  
  21380911.108   112357445.988    21380907.641    87551240.165    21380906.980  
                                
  23928368.215   125744423.228                    97982642.684    23928362.122  
                                
  22846832.288   120060913.695                    93553938.485    22846827.249  
                                
  20418939.047   107302248.635    20418937.528    83612131.819    20418936.652  
  20418939.386    80128303.628  
  22699247.399   121127533.583    22699247.078    94210302.116    22699246.291  
                                
  22593507.277   120944813.087    22593504.400    94068175.504    22593503.471  
                                
  20063913.600   107177824.597    20063912.438    83360525.470    20063911.706  
                                
  21819843.715   116516747.663    21819842.375    90624131.305    21819841.553  
                                
  22479506.717   120292380.638    22479504.126    93560730.017    22479503.304  
                                
  19817721.956   105788345.486    19817720.634    82279818.844    19817719.008  
                                
  25675414.353   134925213.372                                                  
  25675418.159   100755855.194  
  23741880.212   124764422.608                                                  
  23741884.912    93168255.701  
  24091217.163   126600200.699                                                  
  24091221.863    94539129.141  
  25079982.681   131796198.813                                                  
  25079986.379    98419253.225  
 21  8 31  8 18 30.0000000  0 20G 1G 7G 8G 9G13G14G17G19G21G30R 2R 3
                                R12R13R21R22E 1E 9E31E33
  22279039.062   117077139.990    22279038.508    91228936.829    22279038.187  
  22279039.830    87427737.395  
  20623158.875   108375431.185    20623155.069    84448369.799    20623154.461  
                                
  23941715.732   125814565.108    23941715.000    98037315.476    23941713.838  
  23941715.411    93952433.140  
  24636924.831   129467913.569    24636923.705   100884081.208    24636923.169  
  24636926.278    96680589.506  
  22922293.511   120457465.116                    93862939.862    22922288.740  
                                
  21238799.608   111610644.967    21238796.267    86969318.228    21238795.802  
  21238802.110    83345620.724  
  21380480.286   112355182.047    21380476.819    87549476.057    21380476.158  
                                
  23927682.706   125740820.814                    97979835.613    23927676.613  
                                
  22846902.549   120061282.858                    93554226.146    22846897.510  
                                
  20418775.813   107301390.828    20418774.295    83611463.394    20418773.419  
  20418776.153    80127663.067  
  22699863.684   121130822.104    22699863.344    94212859.852    22699862.558  
                                
  22593651.301   120945584.150    22593648.425    94068775.220    22593647.531  
                                
  20063857.884   107177526.917    20063856.723    83360293.936    20063855.990  
                                
  21819387.734   116514312.811    21819386.393    90622237.532    21819385.571  
                                
  22480133.205   120295733.018    22480130.596    93563337.428    22480129.756  
                                
  19817726.817   105788371.423    19817725.495    82279839.019    19817723.851  
                                
  25675652.154   134926462.960                                                  
  25675655.924   100756788.332  
  23742113.421   124765648.116                                                  
  23742118.120    93169170.860  
  24091142.167   126599806.621                                                  
  24091146.866    94538834.868  
  25079629.642   131794343.705                                                  
  25079633.341    98417867.927  
 21  8 31  8 18 31.0000000  0 20G 1G 7G 8G 9G13G14G17G19G21G30R 2R 3
                                R12R13R21R22E 1E 9E31E33
  22278664.277   117075170.505    22278663.723    91227402.163    22278663.419  
  22278665.028    87426266.669  
  20623376.251   108376573.454    20623372.427    84449259.881    20623371.838  
                                
  23942374.099   125818024.870    23942373.366    98040011.401    23942372.204  
  23942373.777    93955016.737  
  24637605.337   129471489.690    24637604.211   100886867.810    24637603.657  
  24637606.766    96683259.969  
  22921943.743   120455627.007                    93861507.573    22921938.954  
                                
  21238602.030   111609606.691    21238598.689    86968509.180    21238598.224  
  21238604.532    83344845.380  
  21380049.303   112352917.190    21380045.836    87547711.233    21380045.193  
                                
  23926996.947   125737217.206                    97977027.611    23926990.853  
                                
  22846972.631   120061651.239                    93554513.188    22846967.628  
                                
  20418612.419   107300532.111    20418610.882    83610794.262    20418610.025  
  20418612.741    80127021.813  
  22700479.719   121134109.481    22700479.379    94215416.705    22700478.611  
                                
  22593795.219   120946354.568    22593792.342    94069374.434    22593791.448  
                                
  20063801.954   107177228.092    20063800.793    83360061.517    20063800.042  
                                
  21818931.502   116511876.541    21818930.162    90620342.655    21818929.340  
                                
  22480759.514   120299084.588    22480756.923    93565944.203    22480756.083  
                                
  19817731.606   105788396.956    19817730.283    82279858.883    19817728.640  
                                
  25675889.705   134927711.242                                                  
  25675893.475   100757720.482  
  23742346.469   124766872.650                                                  
  23742351.150    93170085.266  
  24091066.938   126599411.236                                                  
  24091071.620    94538539.609  
  25079276.461   131792487.602                                                  
  25079280.160    98416481.865  
 21  8 31  8 18 32.0000000  0 20G 1G 7G 8G 9G13G14G17G19G21G30R 2R 3
                                R12R13R21R22E 1E 9E31E33
  22278289.564   117073201.405    22278289.010    91225867.807    22278288.706  
  22278290.332    87424796.255  
  20623593.700   108377716.134    20623589.876    84450150.279    20623589.286  
                                
  23943032.465   125821484.652    23943031.750    98042707.338    23943030.589  
  23943032.143    93957600.350  
  24638285.825   129475065.627    24638284.681   100889654.260    24638284.145  
  24638287.236    96685930.315  
  22921594.046   120453789.361                    93860075.642    22921589.275  
                                
  21238404.471   111608568.507    21238401.129    86967700.205    21238400.664  
  21238406.954    83344070.115  
  21379618.391   112350652.687    21379614.907    87545946.688    21379614.264  
                                
  23926311.223   125733613.656                    97974219.651    23926305.112  
                                
  22847042.839   120062020.082                    93554800.595    22847037.800  
                                
  20418449.096   107299673.750    20418447.542    83610125.413    20418446.666  
  20418449.400    80126380.829  
  22701095.789   121137397.018    22701095.467    94217973.681    22701094.699  
                                
  22593939.279   120947125.619    22593936.384    94069974.140    22593935.473  
                                
  20063746.024   107176929.425    20063744.880    83359829.216    20063744.130  
                                
  21818475.270   116509440.225    21818473.930    90618447.745    21818473.108  
                                
  22481385.913   120302436.607    22481383.322    93568551.330    22481382.500  
                                
  19817736.555   105788423.319    19817735.215    82279879.387    19817733.589  
                                
  25676127.220   134928959.453                                                  
  25676131.008   100758652.593  
  23742579.516   124768097.462                                                  
  23742584.198    93170999.919  
  24090991.692   126599015.807                                                  
  24090996.391    94538244.324  
  25078923.280   131790631.745                                                  
  25078926.997    98415096.007  
 21  8 31  8 18 33.0000000  0 20G 1G 7G 8G 9G13G14G17G19G21G30R 2R 3
                                R12R13R21R22E 1E 9E31E33
  22277914.958   117071232.754    22277914.404    91224333.790    22277914.082  
  22277915.690    87423326.141  
  20623811.237   108378859.240    20623807.395    84451041.013    20623806.806  
                                
  23943690.849   125824944.469    23943690.116    98045403.308    23943688.973  
  23943690.509    93960183.971  
  24638966.259   129478641.440    24638965.133   100892440.606    24638964.580  
  24638967.689    96688600.565  
  22921244.457   120451952.220                    93858644.104    22921239.668  
                                
  21238206.928   111607530.449    21238203.587    86966891.331    21238203.140  
  21238209.412    83343294.937  
  21379187.534   112348388.584    21379184.067    87544182.454    21379183.406  
                                
  23925625.517   125730010.212                    97971411.763    23925619.424  
                                
  22847113.118   120062389.447                    93555088.417    22847108.096  
                                
  20418285.809   107298815.785    20418284.272    83609456.869    20418283.415  
  20418286.131    80125740.129  
  22701711.931   121140684.741    22701711.591    94220530.801    22701710.805  
                                
  22594083.428   120947897.364    22594080.551    94070574.391    22594079.640  
                                
  20063690.165   107176630.944    20063689.004    83359597.063    20063688.254  
                                
  21818019.002   116507003.817    21818017.662    90616552.759    21818016.840  
                                
  22482012.400   120305789.097    22482009.809    93571158.823    22482008.970  
                                
  19817741.630   105788450.551    19817740.308    82279900.571    19817738.700  
                                
  25676364.753   134930207.642                                                  
  25676368.523   100759584.675  
  23742812.671   124769322.603                                                  
  23742817.353    93171914.786  
  24090916.445   126598620.370                                                  
  24090921.145    94537949.023  
  25078570.188   131788776.185                                                  
  25078573.887    98413710.348  
 21  8 31  8 18 34.0000000  0 20G 1G 7G 8G 9G13G14G17G19G21G30R 2R 3
                                R12R13R21R22E 1E 9E31E33
  22277540.512   117069265.022    22277539.923    91222800.497    22277539.637  
  22277541.245    87421856.730  
  20624028.917   108380003.261    20624025.094    84451932.465    20624024.504  
                                
  23944349.322   125828404.794    23944348.572    98048099.668    23944347.446  
  23944348.983    93962767.989  
  24639646.765   129482217.567    24639645.657   100895227.203    24639645.086  
  24639648.195    96691271.065  
  22920895.046   120450116.051                    93857213.325    22920890.257  
                                
  21238009.512   111606493.007    21238006.170    86966082.930    21238005.723  
  21238012.013    83342520.228  
  21378756.836   112346125.329    21378753.388    87542418.879    21378752.727  
                                
  23924939.918   125726407.361                    97968604.344    23924933.825  
                                
  22847183.593   120062759.783                    93555376.993    22847178.554  
                                
  20418122.718   107297958.679    20418121.182    83608788.990    20418120.324  
  20418123.040    80125100.088  
  22702328.162   121143973.104    22702327.840    94223088.414    22702327.036  
                                
  22594227.846   120948670.337    22594224.951    94071175.592    22594224.039  
                                
  20063634.414   107176333.124    20063633.253    83359365.426    20063632.502  
                                
  21817562.824   116504567.845    21817561.484    90614658.114    21817560.662  
                                
  22482639.067   120309142.511    22482636.476    93573767.034    22482635.636  
                                
  19817746.991   105788479.161    19817745.669    82279922.823    19817744.043  
                                
  25676602.357   134931456.293                                                  
  25676606.145   100760517.109  
  23743045.951   124770548.554                                                  
  23743050.633    93172830.266  
  24090841.288   126598225.402                                                  
  24090845.970    94537654.086  
  25078217.221   131786921.387                                                  
  25078220.920    98412325.286  
 21  8 31  8 18 35.0000000  0 20G 1G 7G 8G 9G13G14G17G19G21G30R 2R 3
                                R12R13R21R22E 1E 9E31E33
  22277166.174   117067297.908    22277165.620    91221267.679    22277165.298  
  22277166.925    87420387.780  
  20624246.741   108381147.931    20624242.899    84452824.418    20624242.327  
                                
  23945007.850   125831865.369    23945007.099    98050796.226    23945005.955  
  23945007.510    93965352.177  
  24640327.325   129485793.820    24640326.181   100898013.890    24640325.645  
  24640328.736    96693941.629  
  22920545.742   120448280.568                    93855783.080    22920540.971  
                                
  21237812.166   111605455.902    21237808.825    86965274.799    21237808.360  
  21237814.650    83341745.760  
  21378326.282   112343862.655    21378322.798    87540655.756    21378322.173  
                                
  23924254.373   125722804.806                    97965797.163    23924248.280  
                                
  22847254.194   120063130.826                    93555666.120    22847249.172  
                                
  20417959.717   107297102.175    20417958.181    83608121.584    20417957.323  
  20417960.039    80124460.488  
  22702944.464   121147261.875    22702944.143    94225646.348    22702943.339  
                                
  22594372.388   120949444.201    22594369.511    94071777.484    22594368.618  
                                
  20063578.734   107176035.692    20063577.573    83359134.090    20063576.822  
                                
  21817106.681   116502132.081    21817105.341    90612763.631    21817104.519  
                                
  22483265.877   120312496.624    22483263.268    93576375.788    22483262.428  
                                
  19817752.566   105788508.844    19817751.244    82279945.912    19817749.600  
                                
  25676839.997   134932705.118                                                  
  25676843.803   100761449.678  
  23743279.339   124771775.019                                                  
  23743284.038    93173746.133  
  24090766.149   126597830.639                                                  
  24090770.849    94537359.294  
  25077864.361   131785067.106                                                  
  25077868.096    98410940.582  
 21  8 31  8 18 36.0000000  0 20G 1G 7G 8G 9G13G14G17G19G21G30R 2R 3
                                R12R13R21R22E 1E 9E31E33
  22276791.925   117065331.206    22276791.371    91219735.184    22276791.050  
  22276792.676    87418919.138  
  20624464.636   108382293.002    20624460.812    84453716.681    20624460.222  
                                
  23945666.377   125835325.973    23945665.644    98053492.803    23945664.483  
  23945666.037    93967936.414  
  24641007.831   129489369.898    24641006.687   100900800.439    24641006.151  
  24641009.242    96696612.083  
  22920196.582   120446445.572                    93854353.214    22920191.793  
                                
  21237614.821   111604418.897    21237611.497    86964466.743    21237611.014  
  21237617.322    83340971.378  
  21377895.782   112341600.375    21377892.297    87538892.942    21377891.672  
                                
  23923568.846   125719202.336                    97962990.042    23923562.753  
                                
  22847324.901   120063502.354                    93555955.619    22847319.862  
                                
  20417796.805   107296246.038    20417795.269    83607454.465    20417794.411  
  20417797.127    80123821.170  
  22703560.821   121150550.802    22703560.499    94228204.404    22703559.695  
                                
  22594517.091   120950218.708    22594514.197    94072379.876    22594513.285  
                                
  20063523.090   107175738.442    20063521.929    83358902.893    20063521.196  
                                
  21816650.503   116499696.183    21816649.163    90610869.046    21816648.359  
                                
  22483892.758   120315851.200    22483890.149    93578984.903    22483889.327  
                                
  19817758.284   105788539.421    19817756.962    82279969.692    19817755.318  
                                
  25677077.620   134933953.905                                                  
  25677081.426   100762382.213  
  23743512.780   124773001.797                                                  
  23743517.479    93174662.238  
  24090691.028   126597435.845                                                  
  24090695.727    94537064.479  
  25077511.555   131783213.075                                                  
  25077515.254    98409556.087  
 21  8 31  8 18 37.0000000  0 20G 1G 7G 8G 9G13G14G17G19G21G30R 2R 3
                                R12R13R21R22E 1E 9E31E33
  22276417.784   117063365.008    22276417.230    91218203.072    22276416.908  
  22276418.534    87417450.878  
  20624682.638   108383438.605    20624678.814    84454609.356    20624678.224  
                                
  23946324.922   125838786.711    23946324.189    98056189.487    23946323.045  
  23946324.582    93970520.728  
  24641688.319   129492945.928    24641687.193   100903586.958    24641686.657  
  24641689.731    96699282.502  
  22919847.510   120444611.158                    93852923.800    22919842.704  
                                
  21237417.529   111603382.104    21237414.205    86963658.850    21237413.723  
  21237420.030    83340197.149  
  21377465.371   112339338.555    21377461.904    87537130.485    21377461.243  
                                
  23922883.337   125715600.060                    97960183.073    23922877.261  
                                
  22847395.698   120063874.477                    93556245.590    22847390.677  
                                
  20417633.983   107295390.383    20417632.446    83606787.717    20417631.588  
  20417634.304    80123182.201  
  22704177.195   121153840.014    22704176.873    94230762.680    22704176.087  
                                
  22594661.902   120950993.977    22594659.025    94072982.863    22594658.114  
                                
  20063467.482   107175441.428    20063466.338    83358671.882    20063465.588  
                                
  21816194.361   116497260.350    21816193.002    90608974.505    21816192.181  
                                
  22484519.728   120319206.356    22484517.155    93581594.462    22484516.315  
                                
  19817764.181   105788570.922    19817762.859    82279994.195    19817761.233  
                                
  25677315.278   134935202.754                                                  
  25677319.084   100763314.784  
  23743746.310   124774228.978                                                  
  23743750.992    93175578.637  
  24090615.924   126597041.129                                                  
  24090620.606    94536769.718  
  25077158.821   131781359.434                                                  
  25077162.538    98408171.874  
 21  8 31  8 18 38.0000000  0 20G 1G 7G 8G 9G13G14G17G19G21G30R 2R 3
                                R12R13R21R22E 1E 9E31E33
  22276043.714   117061399.297    22276043.160    91216671.343    22276042.856  
  22276044.500    87415982.968  
  20624900.729   108384584.651    20624896.887    84455502.379    20624896.316  
                                
  23946983.485   125842247.521    23946982.752    98058886.224    23946981.590  
  23946983.145    93973105.096  
  24642368.789   129496521.861    24642367.663   100906373.416    24642367.127  
  24642370.201    96701952.833  
  22919498.528   120442777.277                    93851494.797    22919493.739  
                                
  21237220.273   111602345.469    21237216.931    86962851.085    21237216.466  
  21237222.774    83339423.041  
  21377035.049   112337077.172    21377031.582    87535368.369    21377030.921  
                                
  23922197.899   125711997.922                    97957376.203    23922191.823  
                                
  22847466.620   120064247.135                    93556535.973    22847461.581  
                                
  20417471.232   107294535.141    20417469.695    83606121.295    20417468.837  
  20417471.553    80122543.547  
  22704793.658   121157129.453    22704793.319    94233321.130    22704792.532  
                                
  22594806.855   120951769.942    22594803.996    94073586.392    22594803.067  
                                
  20063411.927   107175144.625    20063410.765    83358441.031    20063410.033  
                                
  21815738.200   116494824.443    21815736.842    90607079.910    21815736.020  
                                
  22485146.824   120322561.975    22485144.233    93584204.383    22485143.411  
                                
  19817770.256   105788603.360    19817768.934    82280019.422    19817767.308  
                                
  25677552.936   134936451.593                                                  
  25677556.742   100764247.370  
  23743979.894   124775456.510                                                  
  23743984.576    93176495.301  
  24090540.803   126596646.422                                                  
  24090545.502    94536474.971  
  25076806.158   131779506.112                                                  
  25076809.857    98406787.898  
 21  8 31  8 18 39.0000000  0 20G 1G 7G 8G 9G13G14G17G19G21G30R 2R 3
                                R12R13R21R22E 1E 9E31E33
  22275669.876   117059434.807    22275669.322    91215140.567    22275669.018  
  22275670.662    87414515.977  
  20625119.071   108385731.947    20625115.229    84456396.374    20625114.639  
                                
  23947642.226   125845709.160    23947641.476    98061583.612    23947640.314  
  23947641.869    93975690.093  
  24643049.385   129500098.461    24643048.259   100909160.377    24643047.705  
  24643050.814    96704623.677  
  22919149.796   120440944.673                    93850066.794    22919145.008  
                                
  21237023.195   111601309.770    21237019.854    86962044.047    21237019.371  
  21237025.661    83338649.629  
  21376604.942   112334816.981    21376601.475    87533607.178    21376600.814  
                                
