% program   : rnx2rtkp ver.2.4.3 b31
% inp file  : ngs/21_08_31_18_48_31_moip.obs
% inp file  : ngs/21_08_31_18_48_31_moip_VZ.obs
% inp file  : ngs/21_08_31_18_48_31_brdc.nav
% obs start : 2021/08/31 18:00:00.0 GPST (week2173 237600.0s)
% obs end   : 2021/08/31 18:59:59.0 GPST (week2173 241199.0s)
% ref pos   :  -379585.6102  -4941592.3870   4001595.9303
%
% (x/y/z-ecef=WGS84,Q=1:fix,2:float,3:sbas,4:dgps,5:single,6:ppp,ns=# of satellites)
%  GPST              x-ecef(m)      y-ecef(m)      z-ecef(m)   Q  ns   sdx(m)   sdy(m)   sdz(m)  sdxy(m)  sdyz(m)  sdzx(m) age(s)  ratio
2173 240490.000   -379062.8669  -4940495.3464   4002991.6273   2   7   0.4193   1.0477   0.7713  -0.1859  -0.6681  -0.2498 -30.00    1.1
2173 240491.000   -379062.8749  -4940495.2305   4002991.6665   2   7   0.2983   0.7454   0.5484  -0.1329  -0.4754  -0.1770 -29.00    1.2
2173 240492.000   -379062.9038  -4940495.3254   4002991.7102   2   7   0.2442   0.6103   0.4489  -0.1090  -0.3892  -0.1448 -28.00    1.4
2173 240493.000   -379062.8959  -4940495.4193   4002991.7853   2   7   0.2119   0.5295   0.3894  -0.0947  -0.3376  -0.1256 -27.00    1.4
2173 240494.000   -379062.9124  -4940495.4624   4002991.7911   2   7   0.1898   0.4742   0.3487  -0.0849  -0.3023  -0.1125 -26.00    1.4
2173 240495.000   -379062.9236  -4940495.4569   4002991.7658   2   7   0.1734   0.4333   0.3186  -0.0777  -0.2762  -0.1028 -25.00    1.5
2173 240496.000   -379062.9138  -4940495.4752   4002991.7748   2   7   0.1607   0.4014   0.2952  -0.0720  -0.2558  -0.0952 -24.00    1.5
2173 240497.000   -379062.9127  -4940495.4374   4002991.7598   2   7   0.1504   0.3757   0.2762  -0.0675  -0.2394  -0.0891 -23.00    1.6
2173 240498.000   -379062.9154  -4940495.4543   4002991.7750   2   7   0.1418   0.3544   0.2605  -0.0638  -0.2258  -0.0840 -22.00    1.7
2173 240499.000   -379062.9187  -4940495.4667   4002991.7688   2   7   0.1346   0.3363   0.2472  -0.0606  -0.2142  -0.0797 -21.00    1.8
2173 240500.000   -379062.9366  -4940495.4319   4002991.7552   2   7   0.1284   0.3207   0.2357  -0.0578  -0.2043  -0.0759 -20.00    1.9
2173 240501.000   -379062.9462  -4940495.4188   4002991.7650   2   7   0.1229   0.3071   0.2256  -0.0555  -0.1956  -0.0727 -19.00    2.0
2173 240502.000   -379062.9608  -4940495.3956   4002991.7805   2   7   0.1181   0.2950   0.2167  -0.0534  -0.1879  -0.0698 -18.00    2.2
2173 240503.000   -379062.9593  -4940495.4007   4002991.7890   2   7   0.1138   0.2843   0.2088  -0.0515  -0.1810  -0.0672 -17.00    2.2
2173 240504.000   -379062.9708  -4940495.3775   4002991.7884   2   7   0.1099   0.2746   0.2016  -0.0498  -0.1748  -0.0648 -16.00    2.4
2173 240505.000   -379062.9713  -4940495.3816   4002991.8009   2   7   0.1064   0.2658   0.1951  -0.0483  -0.1692  -0.0627 -15.00    2.5
2173 240506.000   -379062.9654  -4940495.3860   4002991.8001   2   7   0.1032   0.2578   0.1892  -0.0469  -0.1641  -0.0607 -14.00    2.6
2173 240507.000   -379062.9668  -4940495.3668   4002991.7961   2   7   0.1002   0.2505   0.1838  -0.0456  -0.1594  -0.0589 -13.00    2.6
2173 240508.000   -379062.9681  -4940495.3518   4002991.7860   2   7   0.0975   0.2437   0.1787  -0.0444  -0.1551  -0.0573 -12.00    2.7
2173 240509.000   -379062.9719  -4940495.3283   4002991.7844   2   7   0.0950   0.2374   0.1741  -0.0434  -0.1511  -0.0557 -11.00    2.8
2173 240510.000   -379062.9792  -4940495.3178   4002991.8009   2   7   0.0927   0.2316   0.1698  -0.0424  -0.1474  -0.0543 -10.00    2.9
2173 240511.000   -379062.9807  -4940495.2989   4002991.8060   2   7   0.0905   0.2262   0.1658  -0.0414  -0.1439  -0.0530  -9.00    2.9
2173 240512.000   -379063.2306  -4940495.1047   4002992.1081   1   7   0.0075   0.0179   0.0141  -0.0031  -0.0112  -0.0056  -8.00    3.0
2173 240513.000   -379063.2280  -4940495.1073   4002992.1069   1   7   0.0070   0.0165   0.0128  -0.0028  -0.0104  -0.0050  -7.00    3.1
2173 240514.000   -379063.2272  -4940495.1066   4002992.1036   1   7   0.0063   0.0152   0.0117  -0.0027  -0.0096  -0.0044  -6.00    3.2
2173 240515.000   -379063.2263  -4940495.1040   4002992.1044   1   7   0.0058   0.0140   0.0107  -0.0025  -0.0088  -0.0039  -5.00    3.3
2173 240516.000   -379063.2264  -4940495.1076   4002992.1026   1   7   0.0053   0.0129   0.0098  -0.0025  -0.0082  -0.0034  -4.00    3.4
2173 240517.000   -379063.2239  -4940495.1035   4002992.0975   1   7   0.0047   0.0120   0.0089  -0.0023  -0.0076  -0.0030  -3.00    3.4
2173 240518.000   -379063.2249  -4940495.0968   4002992.0966   1   7   0.0045   0.0112   0.0082  -0.0019  -0.0071  -0.0028  -2.00    3.6
2173 240519.000   -379063.2227  -4940495.1000   4002992.0970   1   7   0.0043   0.0107   0.0080  -0.0019  -0.0068  -0.0027  -1.00    3.7
2173 240520.000   -379063.2211  -4940495.1017   4002992.0951   1   7   0.0040   0.0106   0.0078  -0.0022  -0.0068  -0.0023   0.00    3.7
2173 240521.000   -379063.2178  -4940495.1041   4002992.0952   1   7   0.0042   0.0105   0.0078  -0.0021  -0.0068  -0.0023   0.00    3.7
2173 240522.000   -379063.2215  -4940495.0991   4002992.0951   1   7   0.0045   0.0106   0.0077  -0.0015  -0.0067  -0.0030   0.00    3.8
2173 240523.000   -379063.2219  -4940495.1024   4002992.0976   1   7   0.0042   0.0106   0.0078  -0.0020  -0.0067  -0.0022   0.00    3.9
2173 240524.000   -379063.2234  -4940495.1013   4002992.1000   1   7   0.0044   0.0106   0.0079  -0.0017  -0.0068  -0.0023   0.00    3.9
2173 240525.000   -379063.2214  -4940495.1037   4002992.0978   1   7   0.0041   0.0106   0.0077  -0.0023  -0.0067  -0.0023   0.00    4.0
2173 240526.000   -379063.2204  -4940495.1043   4002992.0966   1   7   0.0039   0.0105   0.0077  -0.0015  -0.0067  -0.0027   0.00    4.1
2173 240527.000   -379063.2192  -4940495.0985   4002992.0965   1   7   0.0044   0.0106   0.0076  -0.0018  -0.0066  -0.0026   0.00    4.1
2173 240528.000   -379063.2187  -4940495.1043   4002992.0998   1   7   0.0043   0.0106   0.0078  -0.0022  -0.0068  -0.0025   0.00    4.2
2173 240529.000   -379063.2199  -4940495.1027   4002992.0995   1   7   0.0043   0.0106   0.0077  -0.0021  -0.0067  -0.0023   0.00    4.2
2173 240530.000   -379063.2203  -4940495.1043   4002992.1011   1   7   0.0043   0.0106   0.0077  -0.0017  -0.0067  -0.0025   0.00    4.3
2173 240531.000   -379063.2205  -4940495.1048   4002992.1002   1   7   0.0040   0.0106   0.0077  -0.0022  -0.0067  -0.0027   0.00    4.3
2173 240532.000   -379063.2209  -4940495.1088   4002992.1031   1   7   0.0041   0.0106   0.0076  -0.0024  -0.0066  -0.0024   0.00    4.4
2173 240533.000   -379063.2205  -4940495.1009   4002992.1011   1   7   0.0043   0.0106   0.0075  -0.0016  -0.0066  -0.0026   0.00    4.4
2173 240534.000   -379063.2217  -4940495.1066   4002992.1039   1   7   0.0040   0.0105   0.0077  -0.0022  -0.0066  -0.0027   0.00    4.5
2173 240535.000   -379063.2189  -4940495.1069   4002992.1032   1   7   0.0041   0.0106   0.0078  -0.0021  -0.0065  -0.0026   0.00    4.5
2173 240536.000   -379063.2198  -4940495.1072   4002992.1024   1   7   0.0045   0.0106   0.0077  -0.0018  -0.0068  -0.0025   0.00    4.4
2173 240537.000   -379063.2201  -4940495.1062   4002992.0997   1   7   0.0045   0.0106   0.0077  -0.0017  -0.0066  -0.0027   0.00    4.4
2173 240538.000   -379063.2187  -4940495.1015   4002992.0974   1   7   0.0043   0.0105   0.0076  -0.0021  -0.0067  -0.0025   0.00    4.5
2173 240539.000   -379063.2172  -4940495.1028   4002992.0985   1   7   0.0046   0.0106   0.0078  -0.0014  -0.0067  -0.0029   0.00    4.5
2173 240540.000   -379063.2191  -4940495.1048   4002992.0994   1   7   0.0043   0.0105   0.0076  -0.0016  -0.0068  -0.0026   0.00    4.5
2173 240541.000   -379063.2199  -4940495.1050   4002992.1012   1   7   0.0045   0.0106   0.0077  -0.0020  -0.0066  -0.0028   0.00    4.5
2173 240542.000   -379063.2192  -4940495.1093   4002992.1018   1   7   0.0044   0.0105   0.0076  -0.0019  -0.0067  -0.0024   0.00    4.5
2173 240543.000   -379063.2198  -4940495.1047   4002992.0997   1   7   0.0041   0.0106   0.0078  -0.0019  -0.0066  -0.0024   0.00    4.5
2173 240544.000   -379063.2204  -4940495.1034   4002992.1020   1   7   0.0044   0.0106   0.0076  -0.0021  -0.0066  -0.0023   0.00    4.5
2173 240545.000   -379063.2217  -4940495.0985   4002992.1013   1   7   0.0041   0.0106   0.0077  -0.0022  -0.0066  -0.0020   0.00    4.5
2173 240546.000   -379063.2183  -4940495.1058   4002992.1005   1   7   0.0042   0.0106   0.0077  -0.0024  -0.0067  -0.0023   0.00    4.4
2173 240547.000   -379063.2184  -4940495.1062   4002992.1011   1   7   0.0046   0.0106   0.0078  -0.0019  -0.0066  -0.0025   0.00    4.4
2173 240548.000   -379063.2206  -4940495.1016   4002992.1012   1   7   0.0047   0.0106   0.0077  -0.0014  -0.0065  -0.0026   0.00    4.3
2173 240549.000   -379063.2195  -4940495.1046   4002992.1006   1   7   0.0045   0.0106   0.0077  -0.0015  -0.0067  -0.0026   0.00    4.3
2173 240550.000   -379063.2184  -4940495.0971   4002992.0914   1   7   0.0039   0.0105   0.0077  -0.0021  -0.0068  -0.0023   0.00    4.3
2173 240551.000   -379063.2195  -4940495.0999   4002992.0932   1   7   0.0038   0.0106   0.0077  -0.0021  -0.0066  -0.0023   0.00    4.3
2173 240552.000   -379063.2184  -4940495.0968   4002992.0914   1   7   0.0041   0.0106   0.0077  -0.0022  -0.0065  -0.0026   0.00    4.3
2173 240553.000   -379063.2191  -4940495.0945   4002992.0898   1   7   0.0043   0.0105   0.0078  -0.0018  -0.0070  -0.0026   0.00    4.3
2173 240554.000   -379063.2186  -4940495.0949   4002992.0891   1   7   0.0039   0.0106   0.0077  -0.0020  -0.0067  -0.0025   0.00    4.3
2173 240555.000   -379063.2183  -4940495.0963   4002992.0905   1   7   0.0040   0.0106   0.0076  -0.0021  -0.0066  -0.0024   0.00    4.3
2173 240556.000   -379063.2182  -4940495.0993   4002992.0944   1   7   0.0039   0.0106   0.0077  -0.0023  -0.0066  -0.0024   0.00    4.3
2173 240557.000   -379063.2169  -4940495.1008   4002992.0950   1   7   0.0039   0.0106   0.0076  -0.0018  -0.0067  -0.0027   0.00    4.3
2173 240558.000   -379063.2160  -4940495.1006   4002992.0932   1   7   0.0043   0.0106   0.0077  -0.0019  -0.0067  -0.0022   0.00    4.3
2173 240559.000   -379063.2160  -4940495.0977   4002992.0945   1   7   0.0043   0.0106   0.0076  -0.0021  -0.0066  -0.0023   0.00    4.3
2173 240560.000   -379063.2177  -4940495.1015   4002992.0941   1   7   0.0043   0.0105   0.0074  -0.0020  -0.0068  -0.0024   0.00    4.3
2173 240561.000   -379063.2152  -4940495.1022   4002992.0943   1   7   0.0045   0.0106   0.0076  -0.0019  -0.0067  -0.0025   0.00    4.4
2173 240562.000   -379063.2178  -4940495.0979   4002992.0990   1   7   0.0038   0.0106   0.0076  -0.0020  -0.0066  -0.0025   0.00    4.4
2173 240563.000   -379063.2173  -4940495.1027   4002992.0995   1   7   0.0045   0.0105   0.0076  -0.0017  -0.0068  -0.0026   0.00    4.5
2173 240564.000   -379063.2159  -4940495.1037   4002992.0968   1   7   0.0042   0.0106   0.0075  -0.0019  -0.0067  -0.0025   0.00    4.5
2173 240565.000   -379063.2174  -4940495.0953   4002992.0934   1   7   0.0041   0.0106   0.0076  -0.0019  -0.0067  -0.0026   0.00    4.6
2173 240566.000   -379063.2155  -4940495.0955   4002992.0930   1   7   0.0042   0.0106   0.0076  -0.0019  -0.0066  -0.0028   0.00    4.6
2173 240567.000   -379063.2169  -4940495.0971   4002992.0951   1   7   0.0044   0.0105   0.0075  -0.0021  -0.0067  -0.0027   0.00    4.7
2173 240568.000   -379063.2160  -4940495.0971   4002992.0949   1   7   0.0041   0.0106   0.0078  -0.0021  -0.0065  -0.0022   0.00    4.8
2173 240569.000   -379063.2183  -4940495.1015   4002992.1004   1   7   0.0045   0.0106   0.0076  -0.0020  -0.0067  -0.0024   0.00    4.8
2173 240570.000   -379063.2163  -4940495.0949   4002992.0959   1   7   0.0045   0.0106   0.0076  -0.0023  -0.0064  -0.0022   0.00    4.9
2173 240571.000   -379063.2177  -4940495.0972   4002992.0973   1   7   0.0047   0.0106   0.0076  -0.0015  -0.0067  -0.0027   0.00    4.9
2173 240572.000   -379063.2172  -4940495.0928   4002992.0969   1   7   0.0043   0.0105   0.0076  -0.0019  -0.0068  -0.0027   0.00    5.0
2173 240573.000   -379063.2170  -4940495.1000   4002992.1010   1   7   0.0046   0.0106   0.0077  -0.0017  -0.0066  -0.0026   0.00    5.0
2173 240574.000   -379063.2180  -4940495.1017   4002992.1010   1   7   0.0035   0.0105   0.0079  -0.0025  -0.0067  -0.0023   0.00    5.1
2173 240575.000   -379063.2186  -4940495.1023   4002992.1027   1   7   0.0043   0.0106   0.0078  -0.0022  -0.0066  -0.0024   0.00    5.1
2173 240576.000   -379063.2197  -4940495.1002   4002992.1042   1   7   0.0039   0.0106   0.0076  -0.0020  -0.0066  -0.0023   0.00    5.1
2173 240577.000   -379063.2192  -4940495.0955   4002992.1001   1   7   0.0044   0.0106   0.0076  -0.0019  -0.0066  -0.0025   0.00    5.1
2173 240578.000   -379063.2186  -4940495.0991   4002992.1018   1   7   0.0042   0.0105   0.0077  -0.0021  -0.0066  -0.0023   0.00    5.1
2173 240579.000   -379063.2172  -4940495.1054   4002992.1005   1   7   0.0036   0.0106   0.0075  -0.0025  -0.0066  -0.0022   0.00    5.1
2173 240580.000   -379063.2163  -4940495.0972   4002992.0987   1   7   0.0045   0.0106   0.0076  -0.0020  -0.0066  -0.0025   0.00    5.0
2173 240581.000   -379063.2179  -4940495.0981   4002992.0972   1   7   0.0044   0.0106   0.0077  -0.0021  -0.0067  -0.0023   0.00    5.0
2173 240582.000   -379063.2189  -4940495.0957   4002992.0949   1   7   0.0043   0.0106   0.0077  -0.0019  -0.0068  -0.0023   0.00    5.0
2173 240583.000   -379063.2172  -4940495.0974   4002992.0966   1   7   0.0047   0.0106   0.0077  -0.0016  -0.0067  -0.0026   0.00    5.0
2173 240584.000   -379063.2192  -4940495.0988   4002992.0976   1   7   0.0041   0.0106   0.0075  -0.0022  -0.0067  -0.0027   0.00    5.0
2173 240585.000   -379063.2191  -4940495.0994   4002992.0943   1   7   0.0040   0.0106   0.0080  -0.0023  -0.0066  -0.0020   0.00    5.0
2173 240586.000   -379063.2193  -4940495.0960   4002992.0964   1   7   0.0043   0.0106   0.0076  -0.0018  -0.0067  -0.0026   0.00    5.0
2173 240587.000   -379063.2195  -4940495.0944   4002992.0921   1   7   0.0045   0.0106   0.0077  -0.0020  -0.0065  -0.0023   0.00    5.0
2173 240588.000   -379063.2182  -4940495.1015   4002992.0949   1   7   0.0043   0.0106   0.0075  -0.0021  -0.0066  -0.0024   0.00    4.9
2173 240589.000   -379063.2178  -4940495.0993   4002992.0964   1   7   0.0045   0.0106   0.0078  -0.0020  -0.0067  -0.0026   0.00    4.9
2173 240590.000   -379063.2184  -4940495.0952   4002992.0919   1   7   0.0035   0.0105   0.0076  -0.0027  -0.0066  -0.0020   0.00    4.9
2173 240591.000   -379063.2181  -4940495.0966   4002992.0949   1   7   0.0043   0.0106   0.0076  -0.0023  -0.0066  -0.0025   0.00    4.9
2173 240592.000   -379063.2182  -4940495.0988   4002992.0934   1   7   0.0043   0.0106   0.0077  -0.0023  -0.0065  -0.0020   0.00    5.0
2173 240593.000   -379063.2197  -4940495.1014   4002992.0950   1   7   0.0043   0.0106   0.0078  -0.0018  -0.0066  -0.0025   0.00    5.0
2173 240594.000   -379063.2190  -4940495.1056   4002992.0956   1   7   0.0040   0.0106   0.0076  -0.0020  -0.0066  -0.0025   0.00    5.0
2173 240595.000   -379063.2209  -4940495.0979   4002992.0929   1   7   0.0048   0.0105   0.0076  -0.0018  -0.0069  -0.0027   0.00    5.0
2173 240596.000   -379063.2207  -4940495.1033   4002992.0931   1   7   0.0042   0.0106   0.0077  -0.0022  -0.0067  -0.0023   0.00    5.0
2173 240597.000   -379063.2189  -4940495.1001   4002992.0913   1   7   0.0045   0.0106   0.0074  -0.0022  -0.0067  -0.0023   0.00    5.0
2173 240598.000   -379063.2175  -4940495.0984   4002992.0907   1   7   0.0043   0.0106   0.0076  -0.0022  -0.0065  -0.0024   0.00    5.0
2173 240599.000   -379063.2189  -4940495.1033   4002992.0926   1   7   0.0040   0.0106   0.0075  -0.0024  -0.0064  -0.0021   0.00    5.0
2173 240600.000   -379063.2184  -4940495.1039   4002992.0907   1   7   0.0043   0.0106   0.0078  -0.0016  -0.0067  -0.0023   0.00    4.9
2173 240601.000   -379063.2204  -4940495.1028   4002992.0922   1   7   0.0044   0.0106   0.0077  -0.0017  -0.0067  -0.0023   0.00    4.9
2173 240602.000   -379063.2207  -4940495.1017   4002992.0929   1   7   0.0042   0.0106   0.0079  -0.0023  -0.0066  -0.0018   0.00    4.9
2173 240603.000   -379063.2179  -4940495.1011   4002992.0891   1   7   0.0040   0.0106   0.0075  -0.0024  -0.0065  -0.0022   0.00    4.9
2173 240604.000   -379063.2180  -4940495.1051   4002992.0916   1   7   0.0041   0.0106   0.0078  -0.0022  -0.0066  -0.0022   0.00    4.9
2173 240605.000   -379063.2178  -4940495.0998   4002992.0896   1   7   0.0041   0.0106   0.0077  -0.0021  -0.0065  -0.0024   0.00    4.9
2173 240606.000   -379063.2170  -4940495.1043   4002992.0917   1   7   0.0041   0.0106   0.0076  -0.0018  -0.0065  -0.0023   0.00    4.9
2173 240607.000   -379063.2176  -4940495.1046   4002992.0910   1   7   0.0047   0.0106   0.0076  -0.0016  -0.0066  -0.0028   0.00    4.9
2173 240608.000   -379063.2203  -4940495.1090   4002992.0932   1   7   0.0037   0.0106   0.0075  -0.0025  -0.0064  -0.0022   0.00    4.9
2173 240609.000   -379063.2199  -4940495.1079   4002992.0917   1   7   0.0038   0.0106   0.0077  -0.0021  -0.0066  -0.0025   0.00    4.9
2173 240610.000   -379063.2203  -4940495.1132   4002992.0966   1   7   0.0043   0.0106   0.0078  -0.0019  -0.0065  -0.0023   0.00    4.9
2173 240611.000   -379063.2200  -4940495.1110   4002992.0922   1   7   0.0042   0.0107   0.0075  -0.0022  -0.0064  -0.0025   0.00    4.9
2173 240612.000   -379063.2199  -4940495.1119   4002992.0937   1   7   0.0046   0.0106   0.0075  -0.0012  -0.0066  -0.0027   0.00    4.8
2173 240613.000   -379063.2190  -4940495.1099   4002992.0917   1   7   0.0038   0.0105   0.0076  -0.0024  -0.0067  -0.0022   0.00    4.8
2173 240614.000   -379063.2209  -4940495.1068   4002992.0941   1   7   0.0038   0.0106   0.0076  -0.0023  -0.0065  -0.0026   0.00    4.8
2173 240615.000   -379063.2202  -4940495.1124   4002992.0961   1   7   0.0045   0.0106   0.0078  -0.0018  -0.0066  -0.0026   0.00    4.8
2173 240616.000   -379063.2197  -4940495.1102   4002992.0926   1   7   0.0038   0.0105   0.0077  -0.0022  -0.0068  -0.0024   0.00    4.8
2173 240617.000   -379063.2181  -4940495.1133   4002992.0950   1   7   0.0038   0.0106   0.0076  -0.0022  -0.0065  -0.0023   0.00    4.8
2173 240618.000   -379063.2203  -4940495.1085   4002992.0950   1   7   0.0037   0.0105   0.0077  -0.0024  -0.0067  -0.0020   0.00    4.8
2173 240619.000   -379063.2184  -4940495.1053   4002992.0935   1   7   0.0043   0.0106   0.0078  -0.0017  -0.0066  -0.0022   0.00    4.8
2173 240620.000   -379063.2176  -4940495.1112   4002992.0950   1   7   0.0047   0.0106   0.0074  -0.0021  -0.0064  -0.0025   0.00    4.8
2173 240621.000   -379063.2181  -4940495.1098   4002992.0916   1   7   0.0043   0.0106   0.0077  -0.0017  -0.0067  -0.0027   0.00    4.8
2173 240622.000   -379063.2171  -4940495.1086   4002992.0946   1   7   0.0042   0.0106   0.0076  -0.0024  -0.0066  -0.0022   0.00    4.8
2173 240623.000   -379063.2178  -4940495.1050   4002992.0928   1   7   0.0041   0.0106   0.0075  -0.0023  -0.0065  -0.0022   0.00    4.8
2173 240624.000   -379063.2193  -4940495.1105   4002992.0976   1   7   0.0042   0.0106   0.0076  -0.0020  -0.0065  -0.0027   0.00    4.8
2173 240625.000   -379063.2195  -4940495.1053   4002992.0937   1   7   0.0041   0.0106   0.0075  -0.0026  -0.0064  -0.0019   0.00    4.8
2173 240626.000   -379063.2165  -4940495.1094   4002992.0951   1   7   0.0047   0.0106   0.0075  -0.0017  -0.0066  -0.0026   0.00    4.8
2173 240627.000   -379063.2162  -4940495.1108   4002992.0965   1   7   0.0044   0.0106   0.0075  -0.0020  -0.0065  -0.0023   0.00    4.8
2173 240628.000   -379063.2169  -4940495.1125   4002992.0968   1   7   0.0046   0.0106   0.0076  -0.0021  -0.0065  -0.0025   0.00    4.8
2173 240629.000   -379063.2180  -4940495.1128   4002992.0968   1   7   0.0046   0.0106   0.0077  -0.0021  -0.0067  -0.0023   0.00    4.8
2173 240630.000   -379063.2178  -4940495.1090   4002992.0966   1   7   0.0045   0.0106   0.0078  -0.0023  -0.0066  -0.0021   0.00    4.8
2173 240631.000   -379063.2192  -4940495.1036   4002992.0912   1   7   0.0044   0.0106   0.0075  -0.0020  -0.0066  -0.0024   0.00    4.8
2173 240632.000   -379063.2169  -4940495.1045   4002992.0946   1   7   0.0039   0.0105   0.0074  -0.0022  -0.0066  -0.0027   0.00    4.8
2173 240633.000   -379063.2191  -4940495.1089   4002992.1009   1   7   0.0039   0.0106   0.0075  -0.0024  -0.0064  -0.0023   0.00    4.8
2173 240634.000   -379063.2153  -4940495.1078   4002992.0980   1   7   0.0042   0.0106   0.0076  -0.0024  -0.0067  -0.0023   0.00    4.8
2173 240635.000   -379063.2172  -4940495.1033   4002992.1015   1   7   0.0039   0.0106   0.0075  -0.0023  -0.0064  -0.0025   0.00    4.7
2173 240636.000   -379063.2177  -4940495.1056   4002992.0991   1   7   0.0044   0.0106   0.0077  -0.0019  -0.0065  -0.0025   0.00    4.7
2173 240637.000   -379063.2176  -4940495.1085   4002992.0963   1   7   0.0043   0.0106   0.0078  -0.0022  -0.0068  -0.0021   0.00    4.7
2173 240638.000   -379063.2167  -4940495.1082   4002992.0964   1   7   0.0043   0.0106   0.0074  -0.0023  -0.0066  -0.0023   0.00    4.7
2173 240639.000   -379063.2175  -4940495.1082   4002992.0941   1   7   0.0039   0.0106   0.0075  -0.0022  -0.0065  -0.0023   0.00    4.7
2173 240640.000   -379063.2180  -4940495.1053   4002992.0956   1   7   0.0044   0.0106   0.0077  -0.0021  -0.0066  -0.0024   0.00    4.8
2173 240641.000   -379063.2184  -4940495.1093   4002992.0950   1   7   0.0038   0.0105   0.0074  -0.0022  -0.0066  -0.0025   0.00    4.8
2173 240642.000   -379063.2167  -4940495.1043   4002992.0938   1   7   0.0042   0.0106   0.0077  -0.0024  -0.0066  -0.0021   0.00    4.8
2173 240643.000   -379063.2183  -4940495.1071   4002992.0944   1   7   0.0042   0.0105   0.0076  -0.0021  -0.0067  -0.0024   0.00    4.8
2173 240644.000   -379063.2178  -4940495.1137   4002992.0961   1   7   0.0043   0.0106   0.0076  -0.0023  -0.0066  -0.0023   0.00    4.8
2173 240645.000   -379063.2184  -4940495.1152   4002992.0936   1   7   0.0044   0.0106   0.0077  -0.0016  -0.0066  -0.0025   0.00    4.8
2173 240646.000   -379063.2170  -4940495.1123   4002992.0968   1   7   0.0048   0.0106   0.0075  -0.0018  -0.0065  -0.0026   0.00    4.8
2173 240647.000   -379063.2171  -4940495.1065   4002992.0939   1   7   0.0044   0.0106   0.0076  -0.0018  -0.0065  -0.0026   0.00    4.8
2173 240648.000   -379063.2177  -4940495.1118   4002992.0980   1   7   0.0037   0.0105   0.0078  -0.0024  -0.0067  -0.0020   0.00    4.8
2173 240649.000   -379063.2178  -4940495.1088   4002992.0949   1   7   0.0047   0.0106   0.0076  -0.0020  -0.0064  -0.0023   0.00    4.8
2173 240650.000   -379063.2163  -4940495.1078   4002992.0969   1   7   0.0047   0.0106   0.0076  -0.0019  -0.0065  -0.0024   0.00    4.8
2173 240651.000   -379063.2170  -4940495.1070   4002992.0967   1   7   0.0042   0.0106   0.0076  -0.0020  -0.0066  -0.0026   0.00    4.8
2173 240652.000   -379063.2201  -4940495.1072   4002992.0986   1   7   0.0042   0.0105   0.0077  -0.0017  -0.0066  -0.0028   0.00    4.8
2173 240653.000   -379063.2172  -4940495.1062   4002992.0977   1   7   0.0043   0.0106   0.0076  -0.0022  -0.0065  -0.0023   0.00    4.8
2173 240654.000   -379063.2180  -4940495.1053   4002992.0976   1   7   0.0040   0.0105   0.0077  -0.0024  -0.0067  -0.0023   0.00    4.8
2173 240655.000   -379063.2185  -4940495.1047   4002992.0976   1   7   0.0042   0.0106   0.0076  -0.0023  -0.0065  -0.0024   0.00    4.8
2173 240656.000   -379063.2172  -4940495.1075   4002992.0963   1   7   0.0045   0.0106   0.0077  -0.0021  -0.0065  -0.0026   0.00    4.8
2173 240657.000   -379063.2192  -4940495.1074   4002992.0985   1   7   0.0044   0.0106   0.0076  -0.0021  -0.0066  -0.0023   0.00    4.8
2173 240658.000   -379063.2186  -4940495.1060   4002992.0957   1   7   0.0049   0.0106   0.0076  -0.0021  -0.0065  -0.0022   0.00    4.8
2173 240659.000   -379063.2193  -4940495.1058   4002992.0947   1   7   0.0043   0.0106   0.0076  -0.0022  -0.0064  -0.0021   0.00    4.9
2173 240660.000   -379063.2219  -4940495.1003   4002992.0928   1   7   0.0041   0.0106   0.0075  -0.0022  -0.0064  -0.0023   0.00    4.9
2173 240661.000   -379063.2183  -4940495.1032   4002992.0924   1   7   0.0047   0.0106   0.0076  -0.0019  -0.0065  -0.0025   0.00    4.9
2173 240662.000   -379063.2191  -4940495.1008   4002992.0948   1   7   0.0047   0.0106   0.0075  -0.0017  -0.0064  -0.0025   0.00    4.9
2173 240663.000   -379063.2194  -4940495.1034   4002992.0932   1   7   0.0047   0.0106   0.0075  -0.0020  -0.0067  -0.0025   0.00    4.9
2173 240664.000   -379063.2181  -4940495.1068   4002992.0955   1   7   0.0042   0.0105   0.0077  -0.0022  -0.0067  -0.0024   0.00    4.9
2173 240665.000   -379063.2190  -4940495.1058   4002992.0901   1   7   0.0037   0.0106   0.0075  -0.0024  -0.0065  -0.0026   0.00    4.9
2173 240666.000   -379063.2190  -4940495.1025   4002992.0933   1   7   0.0041   0.0106   0.0077  -0.0023  -0.0064  -0.0024   0.00    4.9
2173 240667.000   -379063.2180  -4940495.1020   4002992.0948   1   7   0.0040   0.0106   0.0076  -0.0021  -0.0065  -0.0023   0.00    4.9
2173 240668.000   -379063.2188  -4940495.1085   4002992.0948   1   7   0.0044   0.0105   0.0074  -0.0022  -0.0067  -0.0024   0.00    4.9
2173 240669.000   -379063.2182  -4940495.1066   4002992.0940   1   7   0.0045   0.0105   0.0076  -0.0021  -0.0067  -0.0025   0.00    4.9
2173 240670.000   -379063.2191  -4940495.1065   4002992.0934   1   7   0.0041   0.0106   0.0076  -0.0022  -0.0064  -0.0024   0.00    4.9
2173 240671.000   -379063.2209  -4940495.1071   4002992.0959   1   7   0.0042   0.0106   0.0075  -0.0019  -0.0066  -0.0025   0.00    4.9
2173 240672.000   -379063.2210  -4940495.1057   4002992.0953   1   7   0.0040   0.0106   0.0076  -0.0022  -0.0066  -0.0025   0.00    5.0
2173 240673.000   -379063.2242  -4940495.1029   4002992.0963   1   7   0.0042   0.0106   0.0076  -0.0018  -0.0064  -0.0028   0.00    5.0
2173 240674.000   -379063.2226  -4940495.1049   4002992.0956   1   7   0.0043   0.0106   0.0075  -0.0024  -0.0065  -0.0021   0.00    5.0
2173 240675.000   -379063.2210  -4940495.1012   4002992.0926   1   7   0.0039   0.0105   0.0074  -0.0024  -0.0064  -0.0022   0.00    5.0
2173 240676.000   -379063.2217  -4940495.0998   4002992.0922   1   7   0.0045   0.0106   0.0077  -0.0023  -0.0065  -0.0024   0.00    5.0
2173 240677.000   -379063.2216  -4940495.1082   4002992.0990   1   7   0.0035   0.0106   0.0075  -0.0026  -0.0063  -0.0021   0.00    5.0
2173 240678.000   -379063.2238  -4940495.1089   4002992.0979   1   7   0.0042   0.0106   0.0074  -0.0022  -0.0065  -0.0024   0.00    5.0
2173 240679.000   -379063.2229  -4940495.1063   4002992.0958   1   7   0.0042   0.0106   0.0074  -0.0019  -0.0064  -0.0027   0.00    5.0
2173 240680.000   -379063.2237  -4940495.1081   4002992.0982   1   7   0.0042   0.0106   0.0076  -0.0022  -0.0064  -0.0021   0.00    5.0
2173 240681.000   -379063.2235  -4940495.1034   4002992.0990   1   7   0.0041   0.0106   0.0074  -0.0021  -0.0063  -0.0025   0.00    5.0
2173 240682.000   -379063.2239  -4940495.1079   4002992.0950   1   7   0.0041   0.0106   0.0075  -0.0022  -0.0066  -0.0024   0.00    5.0
2173 240683.000   -379063.2226  -4940495.1068   4002992.0962   1   7   0.0043   0.0106   0.0074  -0.0017  -0.0064  -0.0027   0.00    5.0
2173 240684.000   -379063.2234  -4940495.1035   4002992.0912   1   7   0.0044   0.0106   0.0075  -0.0021  -0.0063  -0.0028   0.00    5.0
2173 240685.000   -379063.2217  -4940495.1059   4002992.0963   1   7   0.0045   0.0106   0.0076  -0.0019  -0.0066  -0.0025   0.00    5.0
2173 240686.000   -379063.2217  -4940495.1045   4002992.0950   1   7   0.0040   0.0106   0.0076  -0.0023  -0.0063  -0.0023   0.00    5.0
2173 240687.000   -379063.2191  -4940495.1064   4002992.0989   1   7   0.0043   0.0106   0.0076  -0.0021  -0.0066  -0.0022   0.00    5.0
2173 240688.000   -379063.2222  -4940495.1001   4002992.0975   1   7   0.0045   0.0106   0.0077  -0.0024  -0.0065  -0.0023   0.00    5.0
2173 240689.000   -379063.2206  -4940495.0984   4002992.0978   1   7   0.0037   0.0105   0.0073  -0.0026  -0.0064  -0.0024   0.00    5.0
2173 240690.000   -379063.2206  -4940495.1000   4002992.0961   1   7   0.0044   0.0106   0.0076  -0.0023  -0.0065  -0.0020   0.00    5.0
2173 240691.000   -379063.2202  -4940495.0988   4002992.0970   1   7   0.0047   0.0106   0.0076  -0.0017  -0.0066  -0.0025   0.00    5.0
2173 240692.000   -379063.2213  -4940495.0990   4002992.0971   1   7   0.0043   0.0106   0.0074  -0.0022  -0.0065  -0.0022   0.00    5.1
2173 240693.000   -379063.2193  -4940495.1041   4002992.0981   1   7   0.0043   0.0106   0.0075  -0.0022  -0.0064  -0.0025   0.00    5.1
2173 240694.000   -379063.2222  -4940495.1014   4002992.0946   1   7   0.0044   0.0106   0.0074  -0.0024  -0.0065  -0.0024   0.00    5.1
2173 240695.000   -379063.2209  -4940495.0985   4002992.0966   1   7   0.0040   0.0106   0.0076  -0.0023  -0.0064  -0.0022   0.00    5.1
2173 240696.000   -379063.2226  -4940495.1046   4002992.0981   1   7   0.0043   0.0105   0.0078  -0.0022  -0.0067  -0.0023   0.00    5.1
2173 240697.000   -379063.2208  -4940495.0989   4002992.0960   1   7   0.0043   0.0106   0.0076  -0.0023  -0.0066  -0.0023   0.00    5.1
2173 240698.000   -379063.2202  -4940495.1001   4002992.0977   1   7   0.0039   0.0106   0.0074  -0.0025  -0.0063  -0.0022   0.00    5.2
2173 240699.000   -379063.2203  -4940495.0919   4002992.0972   1   7   0.0048   0.0106   0.0076  -0.0019  -0.0066  -0.0027   0.00    5.2
2173 240700.000   -379063.2215  -4940495.0967   4002992.0975   1   7   0.0041   0.0106   0.0075  -0.0022  -0.0063  -0.0026   0.00    5.2
2173 240701.000   -379063.2200  -4940495.0996   4002992.1007   1   7   0.0043   0.0106   0.0077  -0.0019  -0.0066  -0.0025   0.00    5.2
2173 240702.000   -379063.2200  -4940495.0999   4002992.0969   1   7   0.0041   0.0106   0.0075  -0.0025  -0.0063  -0.0022   0.00    5.2
2173 240703.000   -379063.2218  -4940495.1062   4002992.0903   1   7   0.0040   0.0105   0.0075  -0.0021  -0.0068  -0.0021   0.00    5.2
2173 240704.000   -379063.2209  -4940495.1000   4002992.0926   1   7   0.0041   0.0105   0.0077  -0.0023  -0.0066  -0.0022   0.00    5.2
2173 240705.000   -379063.2221  -4940495.0980   4002992.0915   1   7   0.0044   0.0106   0.0074  -0.0021  -0.0066  -0.0021   0.00    5.3
2173 240706.000   -379063.2201  -4940495.1046   4002992.0935   1   7   0.0041   0.0106   0.0074  -0.0023  -0.0064  -0.0026   0.00    5.3
2173 240707.000   -379063.2206  -4940495.1023   4002992.0895   1   7   0.0040   0.0106   0.0076  -0.0024  -0.0064  -0.0021   0.00    5.3
2173 240708.000   -379063.2205  -4940495.1028   4002992.0903   1   7   0.0042   0.0106   0.0076  -0.0021  -0.0066  -0.0020   0.00    5.3
2173 240709.000   -379063.2202  -4940495.1009   4002992.0932   1   7   0.0046   0.0105   0.0076  -0.0018  -0.0066  -0.0026   0.00    5.3
2173 240710.000   -379063.2200  -4940495.1049   4002992.0925   1   7   0.0047   0.0105   0.0076  -0.0022  -0.0067  -0.0023   0.00    5.4
2173 240711.000   -379063.2196  -4940495.1046   4002992.0945   1   7   0.0044   0.0106   0.0075  -0.0023  -0.0065  -0.0022   0.00    5.4
2173 240712.000   -379063.2192  -4940495.1015   4002992.0943   1   7   0.0045   0.0106   0.0074  -0.0021  -0.0065  -0.0023   0.00    5.4
2173 240713.000   -379063.2208  -4940495.1058   4002992.0972   1   7   0.0042   0.0106   0.0076  -0.0024  -0.0064  -0.0022   0.00    5.4
2173 240714.000   -379063.2218  -4940495.1058   4002992.0960   1   7   0.0043   0.0106   0.0075  -0.0022  -0.0064  -0.0020   0.00    5.4
2173 240715.000   -379063.2188  -4940495.1056   4002992.0971   1   7   0.0045   0.0106   0.0075  -0.0020  -0.0065  -0.0026   0.00    5.5
2173 240716.000   -379063.2208  -4940495.1076   4002992.0967   1   7   0.0043   0.0106   0.0075  -0.0022  -0.0063  -0.0023   0.00    5.5
2173 240717.000   -379063.2199  -4940495.1050   4002992.0925   1   7   0.0044   0.0106   0.0075  -0.0019  -0.0066  -0.0024   0.00    5.5
2173 240718.000   -379063.2211  -4940495.1043   4002992.0981   1   7   0.0039   0.0106   0.0075  -0.0023  -0.0064  -0.0023   0.00    5.5
2173 240719.000   -379063.2224  -4940495.1070   4002992.1009   1   7   0.0047   0.0106   0.0075  -0.0017  -0.0066  -0.0025   0.00    5.5
2173 240720.000   -379063.2221  -4940495.1092   4002992.0984   1   7   0.0040   0.0106   0.0076  -0.0021  -0.0064  -0.0024   0.00    5.6
2173 240721.000   -379063.2196  -4940495.1023   4002992.0946   1   7   0.0040   0.0106   0.0074  -0.0024  -0.0064  -0.0019   0.00    5.6
2173 240722.000   -379063.2222  -4940495.1020   4002992.0950   1   7   0.0040   0.0106   0.0075  -0.0023  -0.0065  -0.0022   0.00    5.6
2173 240723.000   -379063.2186  -4940495.1081   4002992.0959   1   7   0.0046   0.0106   0.0074  -0.0020  -0.0065  -0.0028   0.00    5.6
2173 240724.000   -379063.2201  -4940495.1086   4002992.0944   1   7   0.0044   0.0106   0.0075  -0.0024  -0.0065  -0.0023   0.00    5.6
2173 240725.000   -379063.2207  -4940495.1072   4002992.0923   1   7   0.0045   0.0106   0.0075  -0.0022  -0.0065  -0.0025   0.00    5.7
2173 240726.000   -379063.2185  -4940495.1091   4002992.0939   1   7   0.0041   0.0106   0.0075  -0.0026  -0.0063  -0.0022   0.00    5.7
2173 240727.000   -379063.2204  -4940495.1116   4002992.0941   1   7   0.0039   0.0106   0.0078  -0.0026  -0.0066  -0.0021   0.00    5.7
2173 240728.000   -379063.2190  -4940495.0995   4002992.0879   1   7   0.0044   0.0106   0.0076  -0.0021  -0.0064  -0.0021   0.00    5.7
2173 240729.000   -379063.2202  -4940495.1011   4002992.0928   1   7   0.0042   0.0106   0.0074  -0.0024  -0.0063  -0.0023   0.00    5.7
2173 240730.000   -379063.2180  -4940495.1050   4002992.0911   1   7   0.0042   0.0106   0.0076  -0.0024  -0.0063  -0.0021   0.00    5.8
2173 240731.000   -379063.2182  -4940495.1018   4002992.0903   1   7   0.0047   0.0106   0.0075  -0.0024  -0.0065  -0.0025   0.00    5.8
2173 240732.000   -379063.2209  -4940495.1024   4002992.0925   1   7   0.0042   0.0106   0.0074  -0.0021  -0.0064  -0.0026   0.00    5.8
2173 240733.000   -379063.2189  -4940495.1047   4002992.0900   1   7   0.0042   0.0106   0.0076  -0.0028  -0.0065  -0.0019   0.00    5.8
2173 240734.000   -379063.2199  -4940495.1043   4002992.0911   1   7   0.0043   0.0106   0.0076  -0.0023  -0.0064  -0.0022   0.00    5.8
2173 240735.000   -379063.2197  -4940495.1093   4002992.0956   1   7   0.0043   0.0106   0.0076  -0.0021  -0.0063  -0.0022   0.00    5.8
2173 240736.000   -379063.2227  -4940495.1024   4002992.0945   1   7   0.0039   0.0106   0.0077  -0.0024  -0.0064  -0.0023   0.00    5.8
2173 240737.000   -379063.2196  -4940495.1116   4002992.0974   1   7   0.0045   0.0106   0.0075  -0.0017  -0.0065  -0.0024   0.00    5.9
2173 240738.000   -379063.2190  -4940495.1071   4002992.0942   1   7   0.0043   0.0106   0.0076  -0.0024  -0.0065  -0.0021   0.00    5.9
2173 240739.000   -379063.2171  -4940495.1125   4002992.0985   1   7   0.0042   0.0106   0.0076  -0.0023  -0.0065  -0.0024   0.00    5.9
2173 240740.000   -379063.2187  -4940495.1079   4002992.0977   1   7   0.0041   0.0106   0.0074  -0.0023  -0.0065  -0.0023   0.00    5.9
2173 240741.000   -379063.2187  -4940495.1081   4002992.0965   1   7   0.0043   0.0106   0.0073  -0.0021  -0.0064  -0.0024   0.00    5.9
2173 240742.000   -379063.2169  -4940495.1115   4002992.0960   1   7   0.0043   0.0106   0.0075  -0.0023  -0.0065  -0.0021   0.00    5.9
2173 240743.000   -379063.2179  -4940495.1106   4002992.0975   1   7   0.0046   0.0105   0.0075  -0.0023  -0.0066  -0.0025   0.00    5.9
2173 240744.000   -379063.2174  -4940495.1106   4002992.0981   1   7   0.0043   0.0106   0.0074  -0.0017  -0.0063  -0.0025   0.00    6.0
2173 240745.000   -379063.2160  -4940495.1105   4002992.1018   1   7   0.0037   0.0105   0.0075  -0.0024  -0.0066  -0.0020   0.00    6.0
2173 240746.000   -379063.2192  -4940495.1099   4002992.0982   1   7   0.0040   0.0106   0.0075  -0.0022  -0.0064  -0.0019   0.00    6.0
2173 240747.000   -379063.2182  -4940495.1093   4002992.0969   1   7   0.0042   0.0106   0.0074  -0.0023  -0.0063  -0.0026   0.00    6.0
2173 240748.000   -379063.2164  -4940495.1127   4002992.0983   1   7   0.0042   0.0106   0.0074  -0.0025  -0.0064  -0.0022   0.00    6.0
2173 240749.000   -379063.2181  -4940495.1114   4002992.0987   1   7   0.0045   0.0106   0.0074  -0.0021  -0.0063  -0.0023   0.00    6.0
2173 240750.000   -379063.2179  -4940495.1116   4002992.0998   1   7   0.0045   0.0106   0.0074  -0.0016  -0.0063  -0.0027   0.00    6.1
2173 240751.000   -379063.2157  -4940495.1086   4002992.0951   1   7   0.0040   0.0106   0.0075  -0.0026  -0.0064  -0.0019   0.00    6.1
2173 240752.000   -379063.2163  -4940495.1118   4002992.0975   1   7   0.0043   0.0106   0.0075  -0.0021  -0.0065  -0.0026   0.00    6.1
2173 240753.000   -379063.2187  -4940495.1143   4002992.1029   1   7   0.0038   0.0106   0.0074  -0.0026  -0.0065  -0.0019   0.00    6.1
2173 240754.000   -379063.2148  -4940495.1121   4002992.0987   1   7   0.0042   0.0106   0.0075  -0.0021  -0.0064  -0.0028   0.00    6.1
2173 240755.000   -379063.2146  -4940495.1146   4002992.0989   1   7   0.0041   0.0106   0.0074  -0.0021  -0.0063  -0.0024   0.00    6.1
2173 240756.000   -379063.2179  -4940495.1117   4002992.0998   1   7   0.0037   0.0106   0.0073  -0.0025  -0.0064  -0.0023   0.00    6.2
2173 240757.000   -379063.2175  -4940495.1151   4002992.1012   1   7   0.0040   0.0106   0.0074  -0.0020  -0.0063  -0.0024   0.00    6.2
2173 240758.000   -379063.2169  -4940495.1147   4002992.1030   1   7   0.0046   0.0106   0.0076  -0.0022  -0.0063  -0.0024   0.00    6.2
2173 240759.000   -379063.2184  -4940495.1149   4002992.1032   1   7   0.0039   0.0106   0.0077  -0.0026  -0.0064  -0.0017   0.00    6.2
2173 240760.000   -379063.2168  -4940495.1161   4002992.1029   1   7   0.0042   0.0106   0.0076  -0.0025  -0.0064  -0.0021   0.00    6.2
2173 240761.000   -379063.2150  -4940495.1181   4002992.1001   1   7   0.0038   0.0106   0.0075  -0.0026  -0.0063  -0.0022   0.00    6.3
2173 240762.000   -379063.2175  -4940495.1151   4002992.0988   1   7   0.0040   0.0106   0.0077  -0.0023  -0.0065  -0.0022   0.00    6.3
2173 240763.000   -379063.2182  -4940495.1146   4002992.0990   1   7   0.0041   0.0105   0.0074  -0.0022  -0.0065  -0.0024   0.00    6.3
2173 240764.000   -379063.2182  -4940495.1159   4002992.1018   1   7   0.0044   0.0106   0.0075  -0.0024  -0.0066  -0.0023   0.00    6.4
2173 240765.000   -379063.2180  -4940495.1131   4002992.0998   1   7   0.0044   0.0106   0.0077  -0.0023  -0.0064  -0.0023   0.00    6.4
2173 240766.000   -379063.2177  -4940495.1164   4002992.0999   1   7   0.0038   0.0106   0.0074  -0.0023  -0.0065  -0.0022   0.00    6.4
2173 240767.000   -379063.2167  -4940495.1175   4002992.1017   1   7   0.0045   0.0106   0.0075  -0.0021  -0.0064  -0.0025   0.00    6.4
2173 240768.000   -379063.2176  -4940495.1191   4002992.1045   1   7   0.0041   0.0106   0.0074  -0.0026  -0.0065  -0.0020   0.00    6.5
2173 240769.000   -379063.2153  -4940495.1245   4002992.1038   1   7   0.0039   0.0106   0.0075  -0.0024  -0.0064  -0.0024   0.00    6.5
2173 240770.000   -379063.2169  -4940495.1285   4002992.1064   1   7   0.0044   0.0106   0.0075  -0.0024  -0.0064  -0.0024   0.00    6.5
2173 240771.000   -379063.2173  -4940495.1198   4002992.1013   1   7   0.0041   0.0106   0.0074  -0.0023  -0.0064  -0.0023   0.00    6.5
2173 240772.000   -379063.2187  -4940495.1209   4002992.1017   1   7   0.0042   0.0106   0.0074  -0.0021  -0.0064  -0.0026   0.00    6.6
2173 240773.000   -379063.2196  -4940495.1184   4002992.1030   1   7   0.0045   0.0106   0.0073  -0.0022  -0.0064  -0.0025   0.00    6.6
2173 240774.000   -379063.2172  -4940495.1158   4002992.1005   1   7   0.0040   0.0106   0.0074  -0.0022  -0.0063  -0.0026   0.00    6.6
2173 240775.000   -379063.2168  -4940495.1183   4002992.0991   1   7   0.0044   0.0106   0.0075  -0.0019  -0.0063  -0.0029   0.00    6.7
2173 240776.000   -379063.2177  -4940495.1228   4002992.1024   1   7   0.0045   0.0106   0.0076  -0.0021  -0.0065  -0.0025   0.00    6.7
2173 240777.000   -379063.2165  -4940495.1217   4002992.1020   1   7   0.0044   0.0105   0.0074  -0.0019  -0.0065  -0.0027   0.00    6.7
2173 240778.000   -379063.2163  -4940495.1204   4002992.0995   1   7   0.0047   0.0106   0.0075  -0.0019  -0.0065  -0.0026   0.00    6.8
2173 240779.000   -379063.2142  -4940495.1238   4002992.0995   1   7   0.0043   0.0106   0.0074  -0.0022  -0.0064  -0.0022   0.00    6.8
2173 240780.000   -379063.2150  -4940495.1194   4002992.1010   1   7   0.0043   0.0106   0.0074  -0.0023  -0.0066  -0.0022   0.00    6.9
2173 240781.000   -379063.2167  -4940495.1184   4002992.0992   1   7   0.0042   0.0105   0.0075  -0.0024  -0.0066  -0.0023   0.00    6.9
2173 240782.000   -379063.2149  -4940495.1170   4002992.0976   1   7   0.0042   0.0106   0.0072  -0.0023  -0.0064  -0.0024   0.00    6.9
2173 240783.000   -379063.2149  -4940495.1234   4002992.1013   1   7   0.0043   0.0106   0.0073  -0.0026  -0.0063  -0.0023   0.00    7.0
2173 240784.000   -379063.2153  -4940495.1280   4002992.1056   1   7   0.0041   0.0106   0.0076  -0.0023  -0.0065  -0.0020   0.00    7.0
2173 240785.000   -379063.2168  -4940495.1266   4002992.1031   1   7   0.0040   0.0106   0.0073  -0.0027  -0.0063  -0.0021   0.00    7.1
2173 240786.000   -379063.2144  -4940495.1292   4002992.1028   1   7   0.0041   0.0106   0.0074  -0.0025  -0.0063  -0.0025   0.00    7.1
2173 240787.000   -379063.2187  -4940495.1221   4002992.1065   1   7   0.0042   0.0106   0.0074  -0.0025  -0.0064  -0.0024   0.00    7.1
2173 240788.000   -379063.2160  -4940495.1284   4002992.1046   1   7   0.0044   0.0106   0.0075  -0.0019  -0.0065  -0.0024   0.00    7.2
2173 240789.000   -379063.2147  -4940495.1258   4002992.1032   1   7   0.0042   0.0106   0.0074  -0.0025  -0.0064  -0.0019   0.00    7.2
2173 240790.000   -379063.2143  -4940495.1282   4002992.1071   1   7   0.0040   0.0106   0.0074  -0.0021  -0.0064  -0.0023   0.00    7.3
2173 240791.000   -379063.2154  -4940495.1281   4002992.1072   1   7   0.0043   0.0106   0.0072  -0.0024  -0.0064  -0.0020   0.00    7.3
2173 240792.000   -379063.2150  -4940495.1241   4002992.1058   1   7   0.0044   0.0106   0.0074  -0.0023  -0.0063  -0.0024   0.00    7.3
2173 240793.000   -379063.2185  -4940495.1287   4002992.1061   1   7   0.0041   0.0106   0.0074  -0.0025  -0.0064  -0.0023   0.00    7.4
2173 240794.000   -379063.2171  -4940495.1257   4002992.1040   1   7   0.0044   0.0106   0.0073  -0.0019  -0.0062  -0.0025   0.00    7.4
2173 240795.000   -379063.2166  -4940495.1223   4002992.1042   1   7   0.0041   0.0106   0.0074  -0.0023  -0.0063  -0.0024   0.00    7.5
2173 240796.000   -379063.2199  -4940495.1241   4002992.1039   1   7   0.0043   0.0106   0.0073  -0.0023  -0.0063  -0.0026   0.00    7.5
2173 240797.000   -379063.2213  -4940495.1344   4002992.1052   1   7   0.0042   0.0106   0.0074  -0.0026  -0.0064  -0.0021   0.00    7.6
2173 240798.000   -379063.2181  -4940495.1246   4002992.1037   1   7   0.0040   0.0106   0.0070  -0.0021  -0.0060  -0.0022   0.00    7.6
2173 240799.000   -379063.2210  -4940495.1265   4002992.1042   1   7   0.0041   0.0106   0.0074  -0.0026  -0.0064  -0.0017   0.00    7.6
2173 240800.000   -379063.2192  -4940495.1244   4002992.1046   1   7   0.0046   0.0106   0.0074  -0.0024  -0.0063  -0.0022   0.00    7.7
2173 240801.000   -379063.2218  -4940495.1252   4002992.1026   1   7   0.0043   0.0106   0.0074  -0.0020  -0.0062  -0.0028   0.00    7.7
2173 240802.000   -379063.2184  -4940495.1231   4002992.1032   1   7   0.0042   0.0106   0.0076  -0.0026  -0.0064  -0.0020   0.00    7.7
2173 240803.000   -379063.2210  -4940495.1162   4002992.1004   1   7   0.0043   0.0106   0.0075  -0.0023  -0.0064  -0.0025   0.00    7.8
2173 240804.000   -379063.2213  -4940495.1240   4002992.1035   1   7   0.0043   0.0106   0.0075  -0.0025  -0.0064  -0.0022   0.00    7.8
2173 240805.000   -379063.2208  -4940495.1215   4002992.1012   1   7   0.0044   0.0106   0.0075  -0.0020  -0.0064  -0.0025   0.00    7.9
2173 240806.000   -379063.2206  -4940495.1238   4002992.1014   1   7   0.0046   0.0106   0.0076  -0.0022  -0.0063  -0.0025   0.00    7.9
2173 240807.000   -379063.2226  -4940495.1185   4002992.1000   1   7   0.0042   0.0106   0.0074  -0.0024  -0.0063  -0.0024   0.00    7.9
2173 240808.000   -379063.2196  -4940495.1257   4002992.1036   1   7   0.0040   0.0105   0.0073  -0.0023  -0.0064  -0.0025   0.00    8.0
2173 240809.000   -379063.2189  -4940495.1213   4002992.0978   1   7   0.0042   0.0106   0.0074  -0.0018  -0.0065  -0.0025   0.00    8.0
2173 240810.000   -379063.2219  -4940495.1181   4002992.1021   1   7   0.0046   0.0106   0.0075  -0.0024  -0.0063  -0.0022   0.00    8.1
2173 240811.000   -379063.2223  -4940495.1262   4002992.1028   1   7   0.0041   0.0106   0.0074  -0.0023  -0.0065  -0.0022   0.00    8.1
2173 240812.000   -379063.2194  -4940495.1280   4002992.1013   1   7   0.0039   0.0106   0.0075  -0.0027  -0.0063  -0.0021   0.00    8.2
2173 240813.000   -379063.2191  -4940495.1232   4002992.1006   1   7   0.0042   0.0105   0.0075  -0.0025  -0.0064  -0.0023   0.00    8.2
2173 240814.000   -379063.2200  -4940495.1240   4002992.1031   1   7   0.0046   0.0106   0.0073  -0.0023  -0.0063  -0.0024   0.00    8.3
2173 240815.000   -379063.2190  -4940495.1218   4002992.0982   1   7   0.0043   0.0106   0.0074  -0.0024  -0.0063  -0.0022   0.00    8.3
2173 240816.000   -379063.2192  -4940495.1218   4002992.1000   1   7   0.0040   0.0106   0.0074  -0.0026  -0.0063  -0.0023   0.00    8.3
2173 240817.000   -379063.2214  -4940495.1164   4002992.0976   1   7   0.0043   0.0106   0.0073  -0.0023  -0.0063  -0.0022   0.00    8.4
2173 240818.000   -379063.2209  -4940495.1139   4002992.0980   1   7   0.0042   0.0106   0.0074  -0.0021  -0.0064  -0.0026   0.00    8.5
2173 240819.000   -379063.2225  -4940495.1156   4002992.0986   1   7   0.0040   0.0106   0.0076  -0.0026  -0.0066  -0.0019   0.00    8.5
2173 240820.000   -379063.2203  -4940495.1236   4002992.1038   1   7   0.0044   0.0106   0.0075  -0.0024  -0.0064  -0.0023   0.00    8.6
2173 240821.000   -379063.2190  -4940495.1182   4002992.1005   1   7   0.0042   0.0106   0.0072  -0.0027  -0.0062  -0.0023   0.00    8.6
2173 240822.000   -379063.2225  -4940495.1136   4002992.0977   1   7   0.0042   0.0106   0.0075  -0.0026  -0.0062  -0.0021   0.00    8.7
2173 240823.000   -379063.2212  -4940495.1117   4002992.0944   1   7   0.0041   0.0106   0.0075  -0.0024  -0.0064  -0.0023   0.00    8.7
2173 240824.000   -379063.2206  -4940495.1183   4002992.0985   1   7   0.0043   0.0105   0.0074  -0.0025  -0.0065  -0.0023   0.00    8.8
2173 240825.000   -379063.2220  -4940495.1157   4002992.1002   1   7   0.0045   0.0106   0.0072  -0.0023  -0.0064  -0.0023   0.00    8.8
2173 240826.000   -379063.2225  -4940495.1164   4002992.0988   1   7   0.0040   0.0106   0.0074  -0.0024  -0.0062  -0.0021   0.00    8.9
2173 240827.000   -379063.2226  -4940495.1158   4002992.0969   1   7   0.0045   0.0106   0.0075  -0.0022  -0.0063  -0.0021   0.00    9.0
2173 240828.000   -379063.2206  -4940495.1205   4002992.0979   1   7   0.0043   0.0106   0.0074  -0.0022  -0.0063  -0.0025   0.00    9.0
2173 240829.000   -379063.2196  -4940495.1188   4002992.0986   1   7   0.0046   0.0107   0.0075  -0.0017  -0.0062  -0.0027   0.00    9.1
2173 240830.000   -379063.2190  -4940495.1173   4002992.0981   1   7   0.0043   0.0106   0.0073  -0.0025  -0.0062  -0.0023   0.00    9.1
2173 240831.000   -379063.2189  -4940495.1192   4002992.0974   1   7   0.0044   0.0106   0.0075  -0.0016  -0.0063  -0.0027   0.00    9.2
2173 240832.000   -379063.2218  -4940495.1201   4002992.1016   1   7   0.0038   0.0106   0.0073  -0.0024  -0.0063  -0.0025   0.00    9.2
2173 240833.000   -379063.2219  -4940495.1244   4002992.0990   1   7   0.0045   0.0106   0.0073  -0.0021  -0.0062  -0.0026   0.00    9.3
2173 240834.000   -379063.2194  -4940495.1218   4002992.0995   1   7   0.0040   0.0106   0.0071  -0.0026  -0.0060  -0.0024   0.00    9.3
2173 240835.000   -379063.2198  -4940495.1251   4002992.1036   1   7   0.0045   0.0106   0.0072  -0.0019  -0.0064  -0.0026   0.00    9.4
2173 240836.000   -379063.2203  -4940495.1223   4002992.1030   1   7   0.0039   0.0105   0.0075  -0.0025  -0.0065  -0.0023   0.00    9.4
2173 240837.000   -379063.2187  -4940495.1289   4002992.1021   1   7   0.0045   0.0106   0.0074  -0.0021  -0.0063  -0.0022   0.00    9.5
2173 240838.000   -379063.2180  -4940495.1253   4002992.0982   1   7   0.0043   0.0106   0.0074  -0.0023  -0.0064  -0.0021   0.00    9.5
2173 240839.000   -379063.2167  -4940495.1273   4002992.1005   1   7   0.0042   0.0106   0.0073  -0.0022  -0.0061  -0.0023   0.00    9.6
2173 240840.000   -379063.2181  -4940495.1314   4002992.1035   1   7   0.0040   0.0106   0.0075  -0.0024  -0.0063  -0.0025   0.00    9.6
2173 240841.000   -379063.2200  -4940495.1270   4002992.1056   1   7   0.0043   0.0106   0.0075  -0.0025  -0.0064  -0.0022   0.00    9.7
2173 240842.000   -379063.2205  -4940495.1257   4002992.1059   1   7   0.0037   0.0106   0.0074  -0.0026  -0.0064  -0.0021   0.00    9.7
2173 240843.000   -379063.2187  -4940495.1277   4002992.1050   1   7   0.0047   0.0106   0.0073  -0.0022  -0.0061  -0.0024   0.00    9.8
2173 240844.000   -379063.2175  -4940495.1223   4002992.1030   1   7   0.0043   0.0107   0.0078  -0.0026  -0.0065  -0.0023   1.00    9.9
2173 240845.000   -379063.2190  -4940495.1267   4002992.1070   1   7   0.0039   0.0106   0.0072  -0.0027  -0.0062  -0.0021   0.00    9.9
2173 240846.000   -379063.2195  -4940495.1316   4002992.1050   1   7   0.0043   0.0105   0.0075  -0.0025  -0.0065  -0.0023   0.00   10.0
2173 240847.000   -379063.2184  -4940495.1262   4002992.1023   1   7   0.0045   0.0106   0.0074  -0.0022  -0.0064  -0.0022   0.00   10.0
2173 240848.000   -379063.2178  -4940495.1236   4002992.1029   1   7   0.0046   0.0106   0.0075  -0.0022  -0.0065  -0.0023   0.00   10.1
2173 240849.000   -379063.2183  -4940495.1263   4002992.1007   1   7   0.0041   0.0106   0.0074  -0.0022  -0.0062  -0.0024   0.00   10.2
2173 240850.000   -379063.2196  -4940495.1276   4002992.1030   1   7   0.0042   0.0106   0.0073  -0.0023  -0.0061  -0.0025   0.00   10.2
2173 240851.000   -379063.2193  -4940495.1214   4002992.0994   1   7   0.0045   0.0106   0.0075  -0.0020  -0.0064  -0.0024   0.00   10.3
2173 240852.000   -379063.2195  -4940495.1241   4002992.1010   1   7   0.0043   0.0106   0.0075  -0.0022  -0.0064  -0.0023   0.00   10.4
2173 240853.000   -379063.2202  -4940495.1251   4002992.1044   1   7   0.0045   0.0107   0.0073  -0.0024  -0.0061  -0.0020   0.00   10.4
2173 240854.000   -379063.2226  -4940495.1202   4002992.1006   1   7   0.0046   0.0106   0.0074  -0.0026  -0.0062  -0.0025   0.00   10.5
2173 240855.000   -379063.2204  -4940495.1180   4002992.0973   1   7   0.0045   0.0106   0.0074  -0.0024  -0.0065  -0.0023   0.00   10.5
2173 240856.000   -379063.2217  -4940495.1186   4002992.1030   1   7   0.0045   0.0105   0.0073  -0.0022  -0.0065  -0.0023   0.00   10.6
2173 240857.000   -379063.2202  -4940495.1218   4002992.1008   1   7   0.0042   0.0105   0.0074  -0.0020  -0.0066  -0.0023   0.00   10.6
2173 240858.000   -379063.2201  -4940495.1210   4002992.0990   1   7   0.0042   0.0106   0.0076  -0.0024  -0.0063  -0.0021   0.00   10.7
2173 240859.000   -379063.2161  -4940495.1216   4002992.0965   1   7   0.0039   0.0105   0.0073  -0.0023  -0.0062  -0.0022   0.00   10.8
2173 240860.000   -379063.2169  -4940495.1222   4002992.0964   1   7   0.0038   0.0106   0.0074  -0.0025  -0.0061  -0.0023   0.00   10.8
2173 240861.000   -379063.2203  -4940495.1293   4002992.1000   1   7   0.0039   0.0105   0.0073  -0.0026  -0.0063  -0.0021   0.00   10.9
2173 240862.000   -379063.2203  -4940495.1189   4002992.0982   1   7   0.0046   0.0106   0.0073  -0.0025  -0.0062  -0.0024   0.00   10.9
2173 240863.000   -379063.2188  -4940495.1219   4002992.0974   1   7   0.0041   0.0106   0.0074  -0.0026  -0.0062  -0.0024   0.00   11.0
2173 240864.000   -379063.2181  -4940495.1183   4002992.0973   1   7   0.0042   0.0105   0.0073  -0.0024  -0.0064  -0.0024   0.00   11.0
2173 240865.000   -379063.2229  -4940495.1277   4002992.1062   1   7   0.0040   0.0106   0.0074  -0.0020  -0.0062  -0.0027   0.00   11.1
2173 240866.000   -379063.2205  -4940495.1239   4002992.1007   1   7   0.0043   0.0106   0.0072  -0.0024  -0.0061  -0.0023   0.00   11.2
2173 240867.000   -379063.2216  -4940495.1241   4002992.0999   1   7   0.0047   0.0106   0.0074  -0.0021  -0.0062  -0.0024   0.00   11.2
2173 240868.000   -379063.2238  -4940495.1278   4002992.1035   1   7   0.0042   0.0106   0.0073  -0.0024  -0.0061  -0.0022   0.00   11.3
2173 240869.000   -379063.2230  -4940495.1296   4002992.1059   1   7   0.0045   0.0106   0.0075  -0.0022  -0.0063  -0.0023   0.00   11.3
2173 240870.000   -379063.2232  -4940495.1314   4002992.1038   1   7   0.0042   0.0106   0.0073  -0.0024  -0.0062  -0.0023   0.00   11.4
2173 240871.000   -379063.2209  -4940495.1283   4002992.1033   1   7   0.0045   0.0106   0.0075  -0.0021  -0.0063  -0.0027   0.00   11.5
2173 240872.000   -379063.2187  -4940495.1330   4002992.1028   1   7   0.0044   0.0106   0.0072  -0.0023  -0.0062  -0.0023   0.00   11.5
2173 240873.000   -379063.2202  -4940495.1307   4002992.1023   1   7   0.0042   0.0106   0.0074  -0.0023  -0.0062  -0.0021   0.00   11.6
2173 240874.000   -379063.2196  -4940495.1344   4002992.1062   1   7   0.0045   0.0106   0.0074  -0.0025  -0.0063  -0.0020   0.00   11.6
2173 240875.000   -379063.2195  -4940495.1313   4002992.1017   1   7   0.0044   0.0106   0.0075  -0.0022  -0.0062  -0.0026   0.00   11.7
2173 240876.000   -379063.2164  -4940495.1295   4002992.1022   1   7   0.0040   0.0106   0.0073  -0.0023  -0.0063  -0.0024   0.00   11.8
2173 240877.000   -379063.2206  -4940495.1358   4002992.1112   1   7   0.0043   0.0106   0.0071  -0.0023  -0.0062  -0.0023   0.00   11.9
2173 240878.000   -379063.2191  -4940495.1339   4002992.1098   1   7   0.0046   0.0106   0.0072  -0.0022  -0.0062  -0.0026   0.00   11.9
2173 240879.000   -379063.2223  -4940495.1331   4002992.1085   1   7   0.0043   0.0106   0.0073  -0.0025  -0.0063  -0.0024   0.00   12.0
2173 240880.000   -379063.2203  -4940495.1358   4002992.1061   1   7   0.0045   0.0106   0.0073  -0.0024  -0.0064  -0.0022   0.00   12.0
2173 240881.000   -379063.2238  -4940495.1329   4002992.1098   1   7   0.0040   0.0106   0.0076  -0.0023  -0.0064  -0.0023   0.00   12.1
2173 240882.000   -379063.2221  -4940495.1318   4002992.1038   1   7   0.0044   0.0106   0.0073  -0.0023  -0.0064  -0.0025   0.00   12.2
2173 240883.000   -379063.2193  -4940495.1292   4002992.1012   1   7   0.0036   0.0106   0.0074  -0.0031  -0.0061  -0.0015   0.00   12.2
2173 240884.000   -379063.2202  -4940495.1280   4002992.1022   1   7   0.0045   0.0106   0.0073  -0.0025  -0.0064  -0.0022   0.00   12.3
2173 240885.000   -379063.2203  -4940495.1303   4002992.1013   1   7   0.0044   0.0106   0.0073  -0.0024  -0.0063  -0.0021   0.00   12.4
2173 240886.000   -379063.2215  -4940495.1340   4002992.1074   1   7   0.0044   0.0106   0.0073  -0.0023  -0.0061  -0.0022   0.00   12.4
2173 240887.000   -379063.2181  -4940495.1342   4002992.1069   1   7   0.0041   0.0105   0.0074  -0.0027  -0.0063  -0.0023   0.00   12.5
2173 240888.000   -379063.2205  -4940495.1305   4002992.1088   1   7   0.0041   0.0106   0.0074  -0.0026  -0.0064  -0.0019   0.00   12.6
2173 240889.000   -379063.2196  -4940495.1357   4002992.1102   1   7   0.0046   0.0106   0.0074  -0.0025  -0.0062  -0.0024   0.00   12.7
2173 240890.000   -379063.2195  -4940495.1377   4002992.1132   1   7   0.0040   0.0106   0.0074  -0.0025  -0.0061  -0.0021   0.00   12.7
2173 240891.000   -379063.2190  -4940495.1346   4002992.1055   1   7   0.0043   0.0106   0.0073  -0.0020  -0.0062  -0.0028   0.00   12.8
2173 240892.000   -379063.2196  -4940495.1361   4002992.1081   1   7   0.0043   0.0106   0.0074  -0.0023  -0.0064  -0.0023   0.00   12.9
2173 240893.000   -379063.2234  -4940495.1308   4002992.1118   1   7   0.0043   0.0106   0.0075  -0.0023  -0.0063  -0.0025   0.00   12.9
2173 240894.000   -379063.2202  -4940495.1309   4002992.1064   1   7   0.0042   0.0106   0.0073  -0.0025  -0.0062  -0.0025   0.00   13.0
2173 240895.000   -379063.2211  -4940495.1304   4002992.1081   1   7   0.0045   0.0106   0.0074  -0.0023  -0.0061  -0.0023   0.00   13.1
2173 240896.000   -379063.2207  -4940495.1342   4002992.1079   1   7   0.0040   0.0106   0.0074  -0.0027  -0.0063  -0.0020   0.00   13.1
2173 240897.000   -379063.2220  -4940495.1298   4002992.1090   1   7   0.0044   0.0106   0.0073  -0.0023  -0.0061  -0.0022   0.00   13.1
2173 240898.000   -379063.2206  -4940495.1273   4002992.1058   1   7   0.0045   0.0106   0.0074  -0.0023  -0.0063  -0.0024   0.00   13.2
2173 240899.000   -379063.2189  -4940495.1297   4002992.1069   1   7   0.0041   0.0106   0.0074  -0.0021  -0.0063  -0.0026   0.00   13.2
2173 240900.000   -379063.2230  -4940495.1287   4002992.1081   1   7   0.0042   0.0106   0.0071  -0.0024  -0.0062  -0.0024   0.00   13.2
2173 240901.000   -379063.2212  -4940495.1269   4002992.1082   1   7   0.0043   0.0105   0.0075  -0.0027  -0.0063  -0.0022   0.00   13.2
2173 240902.000   -379063.2211  -4940495.1291   4002992.1065   1   7   0.0046   0.0106   0.0072  -0.0023  -0.0062  -0.0027   0.00   13.3
2173 240903.000   -379063.2201  -4940495.1301   4002992.1054   1   7   0.0046   0.0106   0.0072  -0.0024  -0.0061  -0.0024   0.00   13.3
2173 240904.000   -379063.2217  -4940495.1327   4002992.1098   1   7   0.0043   0.0105   0.0074  -0.0026  -0.0064  -0.0022   0.00   13.3
2173 240905.000   -379063.2236  -4940495.1365   4002992.1109   1   7   0.0037   0.0105   0.0075  -0.0027  -0.0064  -0.0021   0.00   13.4
2173 240906.000   -379063.2197  -4940495.1288   4002992.1099   1   7   0.0043   0.0105   0.0071  -0.0026  -0.0062  -0.0023   0.00   13.4
2173 240907.000   -379063.2198  -4940495.1374   4002992.1127   1   7   0.0046   0.0106   0.0073  -0.0026  -0.0062  -0.0023   0.00   13.4
2173 240908.000   -379063.2204  -4940495.1323   4002992.1119   1   7   0.0044   0.0106   0.0074  -0.0022  -0.0061  -0.0024   0.00   13.4
2173 240909.000   -379063.2200  -4940495.1279   4002992.1098   1   7   0.0042   0.0106   0.0076  -0.0023  -0.0062  -0.0021   0.00   13.5
2173 240910.000   -379063.2207  -4940495.1394   4002992.1153   1   7   0.0043   0.0106   0.0073  -0.0025  -0.0061  -0.0024   0.00   13.5
2173 240911.000   -379063.2226  -4940495.1373   4002992.1099   1   7   0.0042   0.0106   0.0074  -0.0024  -0.0063  -0.0024   0.00   13.5
2173 240912.000   -379063.2226  -4940495.1383   4002992.1085   1   7   0.0048   0.0106   0.0073  -0.0023  -0.0062  -0.0020   0.00   13.6
2173 240913.000   -379063.2244  -4940495.1366   4002992.1104   1   7   0.0043   0.0106   0.0073  -0.0025  -0.0062  -0.0021   0.00   13.6
2173 240914.000   -379063.2232  -4940495.1394   4002992.1092   1   7   0.0046   0.0106   0.0074  -0.0024  -0.0064  -0.0019   0.00   13.6
2173 240915.000   -379063.2231  -4940495.1331   4002992.1075   1   7   0.0042   0.0106   0.0073  -0.0022  -0.0062  -0.0027   0.00   13.7
2173 240916.000   -379063.2258  -4940495.1339   4002992.1112   1   7   0.0042   0.0106   0.0074  -0.0017  -0.0064  -0.0024   0.00   13.7
2173 240917.000   -379063.2235  -4940495.1367   4002992.1078   1   7   0.0044   0.0106   0.0072  -0.0021  -0.0062  -0.0022   0.00   13.8
2173 240918.000   -379063.2246  -4940495.1332   4002992.1077   1   7   0.0043   0.0106   0.0072  -0.0021  -0.0062  -0.0021   0.00   13.8
2173 240919.000   -379063.2266  -4940495.1374   4002992.1095   1   7   0.0042   0.0106   0.0073  -0.0023  -0.0063  -0.0024   0.00   13.9
2173 240920.000   -379063.2204  -4940495.1379   4002992.1067   1   7   0.0045   0.0106   0.0073  -0.0024  -0.0061  -0.0026   0.00   13.9
2173 240921.000   -379063.2212  -4940495.1393   4002992.1068   1   7   0.0045   0.0106   0.0073  -0.0025  -0.0062  -0.0019   0.00   14.0
2173 240922.000   -379063.2226  -4940495.1366   4002992.1075   1   7   0.0040   0.0106   0.0074  -0.0025  -0.0060  -0.0024   0.00   14.0
