% program   : rnx2rtkp ver.2.4.3 b31
% inp file  : ngs/21_08_31_07_17_54_txlm.obs
% inp file  : ngs/21_08_31_07_17_54_txlm_SW.obs
% inp file  : ngs/21_08_31_07_17_54_brdc.nav
% obs start : 2021/08/31 07:00:00.0 GPST (week2173 198000.0s)
% obs end   : 2021/08/31 07:59:59.0 GPST (week2173 201599.0s)
% ref pos   :  -491239.0844  -5588289.7352   3024736.2942
%
% (x/y/z-ecef=WGS84,Q=1:fix,2:float,3:sbas,4:dgps,5:single,6:ppp,ns=# of satellites)
%  GPST              x-ecef(m)      y-ecef(m)      z-ecef(m)   Q  ns   sdx(m)   sdy(m)   sdz(m)  sdxy(m)  sdyz(m)  sdzx(m) age(s)  ratio
2173 199049.000   -487017.2459  -5540251.5335   3111842.8826   2   8   0.4566   1.3963   0.5145   0.2589  -0.6294  -0.2093 -30.00    1.0
2173 199050.000   -487017.1869  -5540251.8086   3111842.9089   2   8   0.3251   0.9926   0.3661   0.1834  -0.4475  -0.1491 -29.00    1.0
2173 199051.000   -487017.1776  -5540251.9664   3111842.9587   2   8   0.2662   0.8126   0.2997   0.1500  -0.3664  -0.1221 -28.00    1.1
2173 199052.000   -487017.1687  -5540251.9740   3111842.9415   2   8   0.2309   0.7049   0.2601   0.1302  -0.3178  -0.1060 -27.00    1.0
2173 199053.000   -487017.1615  -5540252.0005   3111842.9639   2   8   0.2068   0.6313   0.2329   0.1166  -0.2847  -0.0949 -26.00    1.1
2173 199054.000   -487017.1764  -5540252.0395   3111842.9663   2   8   0.1890   0.5769   0.2128   0.1066  -0.2601  -0.0868 -25.00    1.1
2173 199055.000   -487017.1819  -5540252.0429   3111842.9798   2   8   0.1751   0.5344   0.1972   0.0988  -0.2410  -0.0804 -24.00    1.1
2173 199056.000   -487017.1808  -5540252.0406   3111842.9781   2   8   0.1638   0.5002   0.1846   0.0924  -0.2256  -0.0752 -23.00    1.1
2173 199057.000   -487017.1736  -5540252.0507   3111842.9655   2   8   0.1545   0.4717   0.1741   0.0872  -0.2128  -0.0710 -22.00    1.1
2173 199058.000   -487017.1510  -5540251.9960   3111842.9475   2   8   0.1466   0.4476   0.1652   0.0827  -0.2019  -0.0674 -21.00    1.1
2173 199059.000   -487017.1427  -5540252.0115   3111842.9404   2   8   0.1398   0.4268   0.1575   0.0789  -0.1925  -0.0642 -20.00    1.1
2173 199060.000   -487017.1362  -5540252.0127   3111842.9578   2   8   0.1339   0.4085   0.1508   0.0755  -0.1843  -0.0615 -19.00    1.1
2173 199061.000   -487017.1252  -5540252.0021   3111842.9604   2   8   0.1286   0.3924   0.1449   0.0725  -0.1770  -0.0591 -18.00    1.1
2173 199062.000   -487017.1229  -5540251.9999   3111842.9530   2   8   0.1239   0.3780   0.1396   0.0698  -0.1705  -0.0569 -17.00    1.1
2173 199063.000   -487017.1235  -5540252.0309   3111842.9576   2   8   0.1197   0.3650   0.1349   0.0674  -0.1647  -0.0550 -16.00    1.1
2173 199064.000   -487017.1295  -5540252.0681   3111842.9772   2   8   0.1159   0.3532   0.1306   0.0652  -0.1594  -0.0533 -15.00    1.1
2173 199065.000   -487017.1309  -5540252.1267   3111842.9926   2   8   0.1124   0.3424   0.1266   0.0631  -0.1545  -0.0516 -14.00    1.1
2173 199066.000   -487017.1291  -5540252.1388   3111842.9874   2   8   0.1092   0.3325   0.1230   0.0613  -0.1500  -0.0502 -13.00    1.0
2173 199067.000   -487017.1261  -5540252.1526   3111842.9920   2   8   0.1063   0.3233   0.1197   0.0595  -0.1459  -0.0488 -12.00    1.0
2173 199068.000   -487017.1185  -5540252.1687   3111842.9977   2   8   0.1035   0.3148   0.1166   0.0579  -0.1421  -0.0476 -11.00    1.1
2173 199069.000   -487017.1152  -5540252.1747   3111842.9979   2   8   0.1010   0.3069   0.1137   0.0564  -0.1385  -0.0464 -10.00    1.1
2173 199070.000   -487017.1153  -5540252.2027   3111843.0014   2   8   0.0987   0.2996   0.1110   0.0551  -0.1352  -0.0453  -9.00    1.1
2173 199071.000   -487017.1184  -5540252.2264   3111843.0041   2   8   0.0965   0.2926   0.1085   0.0537  -0.1320  -0.0443  -8.00    1.1
2173 199072.000   -487017.1251  -5540252.2624   3111843.0137   2   8   0.0944   0.2861   0.1061   0.0525  -0.1291  -0.0433  -7.00    1.1
2173 199073.000   -487017.1263  -5540252.2843   3111843.0177   2   8   0.0925   0.2800   0.1039   0.0513  -0.1263  -0.0424  -6.00    1.1
2173 199074.000   -487017.1271  -5540252.3034   3111843.0180   2   8   0.0906   0.2742   0.1018   0.0502  -0.1236  -0.0416  -5.00    1.0
2173 199075.000   -487017.1244  -5540252.3097   3111843.0163   2   8   0.0889   0.2687   0.0999   0.0492  -0.1211  -0.0408  -4.00    1.0
2173 199076.000   -487017.1258  -5540252.3472   3111843.0299   2   8   0.0873   0.2635   0.0980   0.0482  -0.1188  -0.0400  -3.00    1.0
2173 199077.000   -487017.1269  -5540252.3488   3111843.0318   2   8   0.0858   0.2585   0.0962   0.0473  -0.1165  -0.0393  -2.00    1.1
2173 199078.000   -487017.1283  -5540252.3570   3111843.0304   2   8   0.0843   0.2538   0.0945   0.0464  -0.1143  -0.0386  -1.00    1.1
2173 199079.000   -487017.1310  -5540252.3539   3111843.0355   2   8   0.0829   0.2494   0.0929   0.0456  -0.1123  -0.0380   0.00    1.2
2173 199080.000   -487017.1297  -5540252.3564   3111843.0351   2   8   0.0816   0.2451   0.0914   0.0448  -0.1104  -0.0374   0.00    1.2
2173 199081.000   -487017.1311  -5540252.3892   3111843.0454   2   8   0.0804   0.2411   0.0900   0.0440  -0.1085  -0.0368   0.00    1.3
2173 199082.000   -487017.1306  -5540252.4281   3111843.0573   2   8   0.0792   0.2372   0.0886   0.0433  -0.1067  -0.0362   0.00    1.3
2173 199083.000   -487017.1294  -5540252.4739   3111843.0723   2   8   0.0780   0.2335   0.0873   0.0426  -0.1050  -0.0357   0.00    1.3
2173 199084.000   -487017.1377  -5540252.5300   3111843.0877   2   8   0.0769   0.2299   0.0860   0.0419  -0.1034  -0.0351   0.00    1.4
2173 199085.000   -487017.1364  -5540252.5743   3111843.1002   2   8   0.0759   0.2264   0.0848   0.0413  -0.1018  -0.0346   0.00    1.4
2173 199086.000   -487017.1403  -5540252.5926   3111843.1073   2   8   0.0749   0.2231   0.0836   0.0407  -0.1002  -0.0341   0.00    1.4
2173 199087.000   -487017.1403  -5540252.6363   3111843.1186   2   8   0.0739   0.2199   0.0824   0.0401  -0.0987  -0.0337   0.00    1.4
2173 199088.000   -487017.1446  -5540252.6492   3111843.1171   2   8   0.0730   0.2167   0.0813   0.0395  -0.0973  -0.0332   0.00    1.5
2173 199089.000   -487017.1469  -5540252.6835   3111843.1297   2   8   0.0721   0.2137   0.0803   0.0389  -0.0958  -0.0328   0.00    1.5
2173 199090.000   -487017.1470  -5540252.7093   3111843.1349   2   8   0.0712   0.2107   0.0792   0.0383  -0.0945  -0.0324   0.00    1.5
2173 199091.000   -487017.1519  -5540252.7176   3111843.1374   2   8   0.0704   0.2078   0.0782   0.0378  -0.0931  -0.0320   0.00    1.5
2173 199092.000   -487017.1507  -5540252.7291   3111843.1396   2   8   0.0696   0.2050   0.0773   0.0373  -0.0918  -0.0316   0.00    1.5
2173 199093.000   -487017.1534  -5540252.7150   3111843.1443   2   8   0.0688   0.2022   0.0763   0.0368  -0.0905  -0.0312   0.00    1.5
2173 199094.000   -487017.1550  -5540252.6831   3111843.1374   2   9   0.0679   0.1990   0.0754   0.0371  -0.0894  -0.0307   0.00    1.1
2173 199095.000   -487017.1530  -5540252.6395   3111843.1312   2   9   0.0671   0.1959   0.0744   0.0374  -0.0883  -0.0302   0.00    1.2
2173 199096.000   -487017.1510  -5540252.6598   3111843.1445   2   9   0.0663   0.1929   0.0735   0.0376  -0.0872  -0.0297   0.00    1.4
2173 199097.000   -487017.1549  -5540252.6811   3111843.1499   2   9   0.0655   0.1900   0.0727   0.0377  -0.0862  -0.0293   0.00    1.5
2173 199098.000   -487017.1582  -5540252.7085   3111843.1577   2   9   0.0647   0.1872   0.0718   0.0377  -0.0851  -0.0288   0.00    1.5
2173 199099.000   -487017.1608  -5540252.7326   3111843.1679   2   9   0.0640   0.1845   0.0711   0.0377  -0.0841  -0.0285   0.00    1.5
2173 199100.000   -487017.1664  -5540252.7578   3111843.1766   2   9   0.0633   0.1818   0.0702   0.0377  -0.0831  -0.0281   0.00    1.4
2173 199101.000   -487017.1691  -5540252.7762   3111843.1862   2   9   0.0626   0.1793   0.0694   0.0377  -0.0820  -0.0277   0.00    1.4
2173 199102.000   -487017.1725  -5540252.8048   3111843.1975   2   9   0.0619   0.1768   0.0686   0.0376  -0.0810  -0.0273   0.00    1.4
2173 199103.000   -487017.1754  -5540252.8195   3111843.2040   2   9   0.0613   0.1743   0.0679   0.0375  -0.0801  -0.0269   0.00    1.3
2173 199104.000   -487017.1785  -5540252.8369   3111843.2136   2   9   0.0607   0.1719   0.0672   0.0374  -0.0791  -0.0265   0.00    1.3
2173 199105.000   -487017.1792  -5540252.8467   3111843.2155   2   9   0.0601   0.1696   0.0665   0.0372  -0.0781  -0.0262   0.00    1.3
2173 199106.000   -487017.1863  -5540252.8759   3111843.2234   2   9   0.0595   0.1673   0.0658   0.0371  -0.0771  -0.0259   0.00    1.2
2173 199107.000   -487017.1926  -5540252.9078   3111843.2332   2   9   0.0589   0.1651   0.0650   0.0369  -0.0762  -0.0255   0.00    1.2
2173 199108.000   -487017.1947  -5540252.9351   3111843.2396   2   9   0.0584   0.1629   0.0644   0.0367  -0.0753  -0.0252   0.00    1.1
2173 199109.000   -487017.1943  -5540252.9594   3111843.2484   2   9   0.0579   0.1608   0.0637   0.0365  -0.0743  -0.0248   0.00    1.1
2173 199110.000   -487017.1954  -5540252.9805   3111843.2564   2   9   0.0573   0.1587   0.0631   0.0363  -0.0734  -0.0245   0.00    1.0
2173 199111.000   -487017.1942  -5540253.0005   3111843.2609   2   9   0.0568   0.1567   0.0624   0.0361  -0.0725  -0.0241   0.00    1.0
2173 199112.000   -487017.1939  -5540253.0272   3111843.2701   2   9   0.0563   0.1547   0.0618   0.0358  -0.0716  -0.0238   0.00    1.0
2173 199113.000   -487017.1939  -5540253.0407   3111843.2794   2   9   0.0558   0.1527   0.0612   0.0356  -0.0707  -0.0236   0.00    1.0
2173 199114.000   -487017.1944  -5540253.0522   3111843.2832   2   9   0.0554   0.1508   0.0606   0.0354  -0.0699  -0.0233   0.00    1.1
2173 199115.000   -487017.1975  -5540253.0718   3111843.2905   2   9   0.0549   0.1489   0.0600   0.0351  -0.0690  -0.0230   0.00    1.1
2173 199116.000   -487017.1959  -5540253.0703   3111843.2915   2   9   0.0545   0.1470   0.0594   0.0349  -0.0682  -0.0228   0.00    1.1
2173 199117.000   -487017.1981  -5540253.0620   3111843.2961   2   9   0.0540   0.1452   0.0589   0.0346  -0.0673  -0.0225   0.00    1.1
2173 199118.000   -487017.1962  -5540253.0488   3111843.2919   2   9   0.0536   0.1434   0.0583   0.0343  -0.0665  -0.0222   0.00    1.2
2173 199119.000   -487017.1977  -5540253.0409   3111843.2897   2   9   0.0532   0.1416   0.0578   0.0341  -0.0657  -0.0219   0.00    1.2
2173 199120.000   -487017.1996  -5540253.0230   3111843.2839   2   9   0.0527   0.1399   0.0572   0.0338  -0.0649  -0.0217   0.00    1.2
2173 199121.000   -487017.1984  -5540253.0126   3111843.2835   2   9   0.0524   0.1382   0.0567   0.0336  -0.0641  -0.0213   0.00    1.2
2173 199122.000   -487017.2021  -5540252.9972   3111843.2802   2   9   0.0520   0.1365   0.0562   0.0333  -0.0633  -0.0211   0.00    1.2
2173 199123.000   -487017.2026  -5540252.9802   3111843.2754   2   9   0.0516   0.1348   0.0556   0.0330  -0.0625  -0.0209   0.00    1.2
2173 199124.000   -487017.2041  -5540252.9767   3111843.2752   2   9   0.0513   0.1332   0.0552   0.0328  -0.0617  -0.0206   0.00    1.2
2173 199125.000   -487017.2066  -5540252.9707   3111843.2726   2   9   0.0509   0.1316   0.0546   0.0325  -0.0609  -0.0203   0.00    1.2
2173 199126.000   -487017.2092  -5540252.9834   3111843.2788   2   9   0.0505   0.1300   0.0542   0.0322  -0.0602  -0.0201   0.00    1.2
2173 199127.000   -487017.2133  -5540253.0009   3111843.2859   2   9   0.0502   0.1285   0.0537   0.0320  -0.0594  -0.0199   0.00    1.2
2173 199128.000   -487017.2168  -5540253.0024   3111843.2888   2   9   0.0498   0.1270   0.0533   0.0317  -0.0587  -0.0197   0.00    1.2
2173 199129.000   -487017.2215  -5540253.0214   3111843.2970   2   9   0.0495   0.1255   0.0527   0.0315  -0.0579  -0.0194   0.00    1.2
2173 199130.000   -487017.2244  -5540253.0462   3111843.3031   2   9   0.0491   0.1240   0.0523   0.0312  -0.0572  -0.0192   0.00    1.3
2173 199131.000   -487017.2267  -5540253.0612   3111843.3066   2   9   0.0488   0.1225   0.0518   0.0309  -0.0565  -0.0190   0.00    1.3
2173 199132.000   -487017.2262  -5540253.0654   3111843.3135   2   9   0.0485   0.1211   0.0514   0.0307  -0.0558  -0.0188   0.00    1.3
2173 199133.000   -487017.2281  -5540253.0730   3111843.3175   2   9   0.0482   0.1197   0.0510   0.0304  -0.0551  -0.0187   0.00    1.3
2173 199134.000   -487017.2262  -5540253.0766   3111843.3211   2   9   0.0479   0.1183   0.0505   0.0301  -0.0544  -0.0184   0.00    1.3
2173 199135.000   -487017.2181  -5540253.0638   3111843.3158   2   9   0.0476   0.1170   0.0501   0.0299  -0.0538  -0.0181   0.00    1.3
2173 199136.000   -487017.2229  -5540253.0747   3111843.3211   2   9   0.0473   0.1156   0.0497   0.0296  -0.0531  -0.0179   0.00    1.3
2173 199137.000   -487017.2254  -5540253.0934   3111843.3275   2   9   0.0470   0.1143   0.0493   0.0294  -0.0524  -0.0178   0.00    1.3
2173 199138.000   -487017.2309  -5540253.1000   3111843.3355   2   9   0.0467   0.1130   0.0488   0.0291  -0.0517  -0.0175   0.00    1.3
2173 199139.000   -487017.2328  -5540253.1186   3111843.3466   2   9   0.0465   0.1117   0.0485   0.0288  -0.0511  -0.0174   0.00    1.3
2173 199140.000   -487017.2353  -5540253.1275   3111843.3496   2   9   0.0462   0.1104   0.0481   0.0286  -0.0505  -0.0171   0.00    1.3
2173 199141.000   -487017.2380  -5540253.1452   3111843.3589   2   9   0.0459   0.1092   0.0477   0.0284  -0.0498  -0.0170   0.00    1.3
2173 199142.000   -487017.2405  -5540253.1577   3111843.3659   2   9   0.0456   0.1080   0.0473   0.0281  -0.0492  -0.0167   0.00    1.2
2173 199143.000   -487017.2463  -5540253.1701   3111843.3709   2   9   0.0454   0.1068   0.0470   0.0279  -0.0486  -0.0168   0.00    1.2
2173 199144.000   -487017.2508  -5540253.1823   3111843.3757   2   9   0.0451   0.1056   0.0466   0.0276  -0.0480  -0.0163   0.00    1.2
2173 199145.000   -487017.2532  -5540253.1978   3111843.3846   2   9   0.0449   0.1044   0.0463   0.0274  -0.0474  -0.0162   0.00    1.2
2173 199146.000   -487017.2550  -5540253.2104   3111843.3915   2   9   0.0446   0.1033   0.0459   0.0272  -0.0468  -0.0160   0.00    1.2
2173 199147.000   -487017.2585  -5540253.2256   3111843.3984   2   9   0.0444   0.1021   0.0455   0.0269  -0.0462  -0.0158   0.00    1.2
2173 199148.000   -487017.2602  -5540253.2178   3111843.3954   2   9   0.0441   0.1010   0.0452   0.0267  -0.0457  -0.0157   0.00    1.2
2173 199149.000   -487017.2604  -5540253.2140   3111843.3970   2   9   0.0439   0.0999   0.0448   0.0265  -0.0451  -0.0155   0.00    1.2
2173 199150.000   -487017.2595  -5540253.2011   3111843.3937   2   9   0.0437   0.0988   0.0445   0.0262  -0.0445  -0.0153   0.00    1.2
2173 199151.000   -487017.2613  -5540253.2006   3111843.3943   2   9   0.0434   0.0978   0.0441   0.0260  -0.0440  -0.0152   0.00    1.2
2173 199152.000   -487017.2599  -5540253.1774   3111843.3924   2   9   0.0432   0.0967   0.0438   0.0258  -0.0434  -0.0149   0.00    1.2
2173 199153.000   -487017.2579  -5540253.1442   3111843.3847   2   9   0.0430   0.0957   0.0435   0.0256  -0.0429  -0.0149   0.00    1.2
2173 199154.000   -487017.2576  -5540253.1134   3111843.3775   2   9   0.0428   0.0946   0.0432   0.0254  -0.0424  -0.0146   0.00    1.2
2173 199155.000   -487017.2601  -5540253.0857   3111843.3741   2   9   0.0425   0.0936   0.0428   0.0252  -0.0418  -0.0146   0.00    1.2
2173 199156.000   -487017.2613  -5540253.0689   3111843.3682   2   9   0.0423   0.0926   0.0426   0.0249  -0.0413  -0.0145   0.00    1.2
2173 199157.000   -487017.2772  -5540253.0656   3111843.3681   2   9   0.0421   0.0917   0.0423   0.0247  -0.0408  -0.0141   0.00    1.2
2173 199158.000   -487017.2829  -5540253.0832   3111843.3760   2   9   0.0419   0.0907   0.0420   0.0245  -0.0403  -0.0140   0.00    1.2
2173 199159.000   -487017.2859  -5540253.0987   3111843.3809   2   9   0.0417   0.0898   0.0417   0.0243  -0.0398  -0.0140   0.00    1.2
2173 199160.000   -487017.2939  -5540253.1281   3111843.3888   2   9   0.0415   0.0888   0.0414   0.0241  -0.0393  -0.0138   0.00    1.2
2173 199161.000   -487017.2957  -5540253.1359   3111843.3923   2   9   0.0413   0.0879   0.0412   0.0239  -0.0388  -0.0135   0.00    1.2
2173 199162.000   -487017.2927  -5540253.1391   3111843.3895   2   8   0.0411   0.0872   0.0410   0.0238  -0.0386  -0.0135   0.00    1.1
2173 199163.000   -487017.2922  -5540253.1389   3111843.3894   2   8   0.0410   0.0863   0.0408   0.0237  -0.0382  -0.0135   0.00    1.1
2173 199164.000   -487017.2944  -5540253.1349   3111843.3870   2   8   0.0407   0.0855   0.0406   0.0235  -0.0378  -0.0134   0.00    1.1
2173 199165.000   -487017.2924  -5540253.1280   3111843.3851   2   8   0.0406   0.0846   0.0403   0.0233  -0.0374  -0.0132   0.00    1.1
2173 199166.000   -487017.2918  -5540253.1092   3111843.3792   2   8   0.0404   0.0838   0.0401   0.0232  -0.0370  -0.0132   0.00    1.1
2173 199167.000   -487017.2926  -5540253.0928   3111843.3736   2   8   0.0402   0.0830   0.0399   0.0230  -0.0366  -0.0131   0.00    1.1
2173 199168.000   -487017.2937  -5540253.0867   3111843.3701   2   8   0.0400   0.0822   0.0397   0.0228  -0.0362  -0.0129   0.00    1.1
2173 199169.000   -487017.2932  -5540253.0749   3111843.3653   2   8   0.0398   0.0815   0.0395   0.0227  -0.0359  -0.0130   0.00    1.1
2173 199170.000   -487017.2954  -5540253.0669   3111843.3637   2   8   0.0397   0.0807   0.0393   0.0225  -0.0355  -0.0129   0.00    1.1
2173 199171.000   -487017.2973  -5540253.0557   3111843.3594   2   8   0.0395   0.0799   0.0391   0.0224  -0.0351  -0.0127   0.00    1.1
2173 199172.000   -487017.3004  -5540253.0601   3111843.3608   2   8   0.0393   0.0792   0.0389   0.0222  -0.0347  -0.0127   0.00    1.1
2173 199173.000   -487017.3029  -5540253.0686   3111843.3613   2   8   0.0392   0.0784   0.0387   0.0221  -0.0344  -0.0125   0.00    1.1
2173 199174.000   -487017.3031  -5540253.0956   3111843.3698   2   8   0.0390   0.0777   0.0385   0.0219  -0.0340  -0.0125   0.00    1.1
2173 199175.000   -487017.3078  -5540253.1158   3111843.3726   2   8   0.0388   0.0770   0.0383   0.0218  -0.0337  -0.0124   0.00    1.1
2173 199176.000   -487017.3110  -5540253.1360   3111843.3791   2   8   0.0387   0.0763   0.0381   0.0216  -0.0333  -0.0123   0.00    1.1
2173 199177.000   -487017.3120  -5540253.1496   3111843.3807   2   8   0.0385   0.0756   0.0379   0.0215  -0.0329  -0.0122   0.00    1.1
2173 199178.000   -487017.3155  -5540253.1746   3111843.3833   2   8   0.0384   0.0749   0.0377   0.0213  -0.0326  -0.0120   0.00    1.1
2173 199179.000   -487017.3180  -5540253.1771   3111843.3804   2   8   0.0382   0.0742   0.0374   0.0212  -0.0323  -0.0119   0.00    1.1
2173 199180.000   -487017.3193  -5540253.1844   3111843.3819   2   8   0.0381   0.0735   0.0373   0.0211  -0.0319  -0.0119   0.00    1.1
2173 199181.000   -487017.3182  -5540253.1943   3111843.3866   2   8   0.0379   0.0729   0.0371   0.0209  -0.0316  -0.0119   0.00    1.1
2173 199182.000   -487017.3179  -5540253.1964   3111843.3898   2   8   0.0377   0.0722   0.0370   0.0207  -0.0312  -0.0118   0.00    1.1
2173 199183.000   -487017.3117  -5540253.1923   3111843.3936   2   8   0.0376   0.0716   0.0367   0.0207  -0.0309  -0.0117   0.00    1.1
2173 199184.000   -487017.3148  -5540253.2077   3111843.3972   2   8   0.0374   0.0709   0.0366   0.0205  -0.0306  -0.0116   0.00    1.1
2173 199185.000   -487017.3164  -5540253.2232   3111843.4030   2   8   0.0373   0.0703   0.0365   0.0204  -0.0303  -0.0115   0.00    1.1
2173 199186.000   -487017.3151  -5540253.2275   3111843.4075   2   8   0.0371   0.0697   0.0363   0.0202  -0.0300  -0.0115   0.00    1.1
2173 199187.000   -487017.3152  -5540253.2337   3111843.4125   2   8   0.0370   0.0690   0.0361   0.0201  -0.0297  -0.0114   0.00    1.1
2173 199188.000   -487017.3127  -5540253.2192   3111843.4117   2   8   0.0369   0.0684   0.0359   0.0200  -0.0294  -0.0113   0.00    1.1
2173 199189.000   -487017.3134  -5540253.2150   3111843.4099   2   8   0.0368   0.0679   0.0358   0.0199  -0.0290  -0.0112   0.00    1.1
2173 199190.000   -487017.3145  -5540253.2145   3111843.4091   2   8   0.0366   0.0673   0.0355   0.0197  -0.0287  -0.0111   0.00    1.1
2173 199191.000   -487017.3156  -5540253.2103   3111843.4103   2   8   0.0365   0.0667   0.0354   0.0195  -0.0285  -0.0111   0.00    1.1
2173 199192.000   -487017.3193  -5540253.2070   3111843.4091   2   8   0.0364   0.0661   0.0352   0.0195  -0.0281  -0.0109   0.00    1.1
2173 199193.000   -487017.3216  -5540253.2180   3111843.4109   2   8   0.0362   0.0656   0.0351   0.0194  -0.0278  -0.0109   0.00    1.1
2173 199194.000   -487017.3227  -5540253.2208   3111843.4138   2   8   0.0361   0.0650   0.0349   0.0192  -0.0276  -0.0109   0.00    1.1
2173 199195.000   -487017.3224  -5540253.2226   3111843.4134   2   8   0.0359   0.0644   0.0348   0.0191  -0.0273  -0.0107   0.00    1.1
2173 199196.000   -487017.3240  -5540253.2319   3111843.4141   2   8   0.0358   0.0639   0.0346   0.0190  -0.0270  -0.0105   0.00    1.1
2173 199197.000   -487017.3222  -5540253.2283   3111843.4147   2   8   0.0357   0.0634   0.0345   0.0189  -0.0267  -0.0105   0.00    1.1
2173 199198.000   -487017.3204  -5540253.2287   3111843.4166   2   8   0.0356   0.0628   0.0343   0.0187  -0.0265  -0.0105   0.00    1.1
2173 199199.000   -487017.3186  -5540253.2208   3111843.4186   2   8   0.0354   0.0623   0.0341   0.0187  -0.0262  -0.0104   0.00    1.1
2173 199200.000   -487017.3172  -5540253.2132   3111843.4161   2   8   0.0353   0.0618   0.0339   0.0185  -0.0259  -0.0104   0.00    1.1
2173 199201.000   -487017.3130  -5540253.1866   3111843.4093   2   8   0.0352   0.0613   0.0339   0.0184  -0.0257  -0.0103   0.00    1.1
2173 199202.000   -487017.3177  -5540253.1985   3111843.4137   2   8   0.0351   0.0608   0.0337   0.0183  -0.0254  -0.0102   0.00    1.1
2173 199203.000   -487017.3217  -5540253.1937   3111843.4132   2   8   0.0349   0.0603   0.0335   0.0182  -0.0252  -0.0103   0.00    1.1
2173 199204.000   -487017.3212  -5540253.1936   3111843.4119   2   8   0.0348   0.0598   0.0335   0.0180  -0.0249  -0.0100   0.00    1.1
2173 199205.000   -487017.3255  -5540253.1967   3111843.4113   2   8   0.0347   0.0593   0.0332   0.0180  -0.0246  -0.0101   0.00    1.1
2173 199206.000   -487017.3289  -5540253.2157   3111843.4171   2   8   0.0346   0.0588   0.0331   0.0179  -0.0244  -0.0102   0.00    1.1
2173 199207.000   -487017.3307  -5540253.2311   3111843.4208   2   8   0.0345   0.0584   0.0329   0.0178  -0.0242  -0.0099   0.00    1.1
2173 199208.000   -487017.3356  -5540253.2339   3111843.4197   2   8   0.0344   0.0579   0.0328   0.0177  -0.0239  -0.0099   0.00    1.1
2173 199209.000   -487017.3389  -5540253.2489   3111843.4215   2   8   0.0343   0.0575   0.0327   0.0175  -0.0237  -0.0099   0.00    1.1
2173 199210.000   -487017.3402  -5540253.2489   3111843.4235   2   8   0.0341   0.0570   0.0325   0.0174  -0.0234  -0.0097   0.00    1.1
2173 199211.000   -487017.3406  -5540253.2430   3111843.4208   2   8   0.0340   0.0566   0.0325   0.0174  -0.0232  -0.0096   0.00    1.1
2173 199212.000   -487017.3363  -5540253.2361   3111843.4236   2   8   0.0339   0.0561   0.0323   0.0173  -0.0230  -0.0097   0.00    1.1
2173 199213.000   -487017.3361  -5540253.2300   3111843.4181   2   8   0.0338   0.0557   0.0322   0.0172  -0.0227  -0.0097   0.00    1.1
2173 199214.000   -487017.3341  -5540253.2168   3111843.4168   2   8   0.0337   0.0552   0.0320   0.0171  -0.0225  -0.0095   0.00    1.1
2173 199215.000   -487017.3315  -5540253.2058   3111843.4134   2   8   0.0336   0.0548   0.0319   0.0170  -0.0222  -0.0095   0.00    1.1
2173 199216.000   -487017.3330  -5540253.1849   3111843.4192   2   8   0.0335   0.0544   0.0317   0.0169  -0.0220  -0.0095   0.00    1.1
2173 199217.000   -487017.3328  -5540253.1847   3111843.4174   2   8   0.0333   0.0540   0.0317   0.0168  -0.0218  -0.0095   0.00    1.1
2173 199218.000   -487017.3302  -5540253.1665   3111843.4115   2   8   0.0333   0.0536   0.0315   0.0167  -0.0216  -0.0091   0.00    1.1
2173 199219.000   -487017.3299  -5540253.1596   3111843.4092   2   8   0.0331   0.0532   0.0314   0.0167  -0.0214  -0.0092   0.00    1.0
2173 199220.000   -487017.3297  -5540253.1441   3111843.4046   2   8   0.0330   0.0528   0.0313   0.0165  -0.0211  -0.0090   0.00    1.0
2173 199221.000   -487017.3317  -5540253.1421   3111843.4036   2   8   0.0330   0.0524   0.0312   0.0164  -0.0210  -0.0090   0.00    1.0
2173 199222.000   -487017.3352  -5540253.1426   3111843.4007   2   8   0.0329   0.0520   0.0311   0.0163  -0.0208  -0.0091   0.00    1.0
2173 199223.000   -487017.3365  -5540253.1457   3111843.4021   2   8   0.0328   0.0517   0.0309   0.0163  -0.0206  -0.0089   0.00    1.0
2173 199224.000   -487017.3403  -5540253.1543   3111843.4002   2   8   0.0327   0.0513   0.0308   0.0162  -0.0204  -0.0089   0.00    1.0
2173 199225.000   -487017.3446  -5540253.1671   3111843.4033   2   8   0.0326   0.0509   0.0307   0.0161  -0.0201  -0.0089   0.00    1.0
2173 199226.000   -487017.3460  -5540253.1834   3111843.4066   2   8   0.0325   0.0505   0.0306   0.0160  -0.0200  -0.0088   0.00    1.0
2173 199227.000   -487017.3478  -5540253.1906   3111843.4115   2   8   0.0323   0.0502   0.0304   0.0159  -0.0198  -0.0086   0.00    1.0
2173 199228.000   -487017.3497  -5540253.2001   3111843.4126   2   8   0.0323   0.0498   0.0303   0.0158  -0.0196  -0.0087   0.00    1.0
2173 199229.000   -487017.3517  -5540253.2083   3111843.4182   2   8   0.0322   0.0495   0.0303   0.0157  -0.0194  -0.0087   0.00    1.0
2173 199230.000   -487017.3523  -5540253.2087   3111843.4182   2   8   0.0321   0.0491   0.0301   0.0157  -0.0192  -0.0086   0.00    1.0
2173 199231.000   -487017.3544  -5540253.2162   3111843.4190   2   8   0.0320   0.0488   0.0301   0.0155  -0.0191  -0.0085   0.00    1.0
2173 199232.000   -487017.3549  -5540253.2222   3111843.4197   2   8   0.0319   0.0484   0.0299   0.0155  -0.0189  -0.0085   0.00    1.0
2173 199233.000   -487017.3593  -5540253.2373   3111843.4231   2   8   0.0319   0.0481   0.0298   0.0154  -0.0186  -0.0087   0.00    1.0
2173 199234.000   -487017.3645  -5540253.2532   3111843.4250   2   8   0.0317   0.0478   0.0297   0.0154  -0.0184  -0.0084   0.00    1.0
2173 199235.000   -487017.3662  -5540253.2644   3111843.4252   2   8   0.0317   0.0474   0.0296   0.0152  -0.0183  -0.0083   0.00    1.1
2173 199236.000   -487017.3674  -5540253.2778   3111843.4292   2   8   0.0315   0.0471   0.0294   0.0152  -0.0181  -0.0083   0.00    1.1
2173 199237.000   -487017.3709  -5540253.2881   3111843.4336   2   8   0.0314   0.0468   0.0294   0.0151  -0.0179  -0.0082   0.00    1.1
2173 199238.000   -487017.3714  -5540253.2948   3111843.4342   2   8   0.0314   0.0465   0.0294   0.0150  -0.0178  -0.0083   0.00    1.1
2173 199239.000   -487017.3739  -5540253.3038   3111843.4351   2   8   0.0312   0.0462   0.0292   0.0149  -0.0176  -0.0081   0.00    1.1
2173 199240.000   -487017.3756  -5540253.3146   3111843.4379   2   8   0.0312   0.0459   0.0290   0.0149  -0.0174  -0.0080   0.00    1.1
2173 199241.000   -487017.3805  -5540253.3343   3111843.4420   2   8   0.0311   0.0455   0.0289   0.0149  -0.0173  -0.0081   0.00    1.1
2173 199242.000   -487017.3821  -5540253.3446   3111843.4426   2   8   0.0310   0.0453   0.0288   0.0148  -0.0171  -0.0079   0.00    1.1
2173 199243.000   -487017.3833  -5540253.3581   3111843.4445   2   8   0.0309   0.0449   0.0288   0.0147  -0.0169  -0.0082   0.00    1.1
2173 199244.000   -487017.3860  -5540253.3728   3111843.4465   2   8   0.0309   0.0447   0.0286   0.0146  -0.0168  -0.0079   0.00    1.1
2173 199245.000   -487017.3888  -5540253.3852   3111843.4489   2   8   0.0308   0.0444   0.0286   0.0145  -0.0167  -0.0077   0.00    1.1
2173 199246.000   -487017.3923  -5540253.4061   3111843.4498   2   8   0.0306   0.0441   0.0284   0.0145  -0.0164  -0.0081   0.00    1.1
2173 199247.000   -487017.3880  -5540253.4073   3111843.4528   2   8   0.0306   0.0438   0.0285   0.0144  -0.0163  -0.0080   0.00    1.1
2173 199248.000   -487017.3886  -5540253.4142   3111843.4551   2   8   0.0305   0.0435   0.0282   0.0144  -0.0161  -0.0077   0.00    1.1
2173 199249.000   -487017.3829  -5540253.4101   3111843.4520   2   8   0.0305   0.0433   0.0282   0.0142  -0.0160  -0.0077   0.00    1.1
2173 199250.000   -487017.3813  -5540253.4102   3111843.4534   2   8   0.0303   0.0430   0.0281   0.0142  -0.0158  -0.0078   0.00    1.1
2173 199251.000   -487017.3794  -5540253.4019   3111843.4514   2   8   0.0303   0.0427   0.0280   0.0142  -0.0156  -0.0076   0.00    1.1
2173 199252.000   -487017.3769  -5540253.3887   3111843.4464   2   8   0.0302   0.0424   0.0279   0.0141  -0.0155  -0.0077   0.00    1.1
2173 199253.000   -487017.3799  -5540253.3912   3111843.4472   2   8   0.0302   0.0422   0.0279   0.0140  -0.0154  -0.0077   0.00    1.1
2173 199254.000   -487017.3791  -5540253.3844   3111843.4451   2   8   0.0300   0.0419   0.0276   0.0140  -0.0153  -0.0075   0.00    1.1
2173 199255.000   -487017.3801  -5540253.3726   3111843.4393   2   8   0.0299   0.0417   0.0276   0.0139  -0.0150  -0.0075   0.00    1.1
2173 199256.000   -487017.3797  -5540253.3765   3111843.4368   2   8   0.0299   0.0414   0.0276   0.0139  -0.0150  -0.0075   0.00    1.1
2173 199257.000   -487017.3829  -5540253.3766   3111843.4357   2   8   0.0298   0.0412   0.0274   0.0138  -0.0148  -0.0075   0.00    1.1
2173 199258.000   -487017.3828  -5540253.3734   3111843.4321   2   8   0.0298   0.0409   0.0273   0.0138  -0.0146  -0.0073   0.00    1.1
2173 199259.000   -487017.3873  -5540253.3823   3111843.4301   2   8   0.0297   0.0407   0.0273   0.0137  -0.0145  -0.0075   0.00    1.1
2173 199260.000   -487017.3897  -5540253.3915   3111843.4310   2   8   0.0296   0.0404   0.0272   0.0136  -0.0144  -0.0074   0.00    1.1
2173 199261.000   -487017.3912  -5540253.3989   3111843.4309   2   8   0.0295   0.0402   0.0271   0.0136  -0.0143  -0.0073   0.00    1.1
2173 199262.000   -487017.3901  -5540253.4020   3111843.4308   2   8   0.0295   0.0399   0.0270   0.0135  -0.0141  -0.0071   0.00    1.1
2173 199263.000   -487017.3879  -5540253.3969   3111843.4272   2   8   0.0294   0.0397   0.0270   0.0134  -0.0140  -0.0072   0.00    1.1
2173 199264.000   -487017.3882  -5540253.4023   3111843.4270   2   8   0.0293   0.0395   0.0269   0.0134  -0.0139  -0.0072   0.00    1.1
2173 199265.000   -487017.3897  -5540253.3995   3111843.4216   2   8   0.0292   0.0393   0.0267   0.0133  -0.0138  -0.0072   0.00    1.1
2173 199266.000   -487017.3875  -5540253.3978   3111843.4246   2   8   0.0291   0.0390   0.0267   0.0133  -0.0136  -0.0071   0.00    1.1
2173 199267.000   -487017.3882  -5540253.3943   3111843.4205   2   8   0.0290   0.0388   0.0265   0.0133  -0.0135  -0.0071   0.00    1.1
2173 199268.000   -487017.3912  -5540253.3919   3111843.4118   2   8   0.0290   0.0386   0.0265   0.0132  -0.0133  -0.0070   0.00    1.1
2173 199269.000   -487017.3929  -5540253.3987   3111843.4158   2   8   0.0289   0.0384   0.0264   0.0132  -0.0132  -0.0067   0.00    1.1
2173 199270.000   -487017.3967  -5540253.4039   3111843.4151   2   8   0.0289   0.0382   0.0264   0.0131  -0.0131  -0.0066   0.00    1.1
2173 199271.000   -487017.3960  -5540253.4160   3111843.4161   2   8   0.0288   0.0379   0.0263   0.0130  -0.0130  -0.0071   0.00    1.1
2173 199272.000   -487017.3991  -5540253.4299   3111843.4176   2   8   0.0287   0.0377   0.0263   0.0130  -0.0129  -0.0072   0.00    1.1
2173 199273.000   -487017.3988  -5540253.4275   3111843.4176   2   8   0.0287   0.0375   0.0261   0.0130  -0.0127  -0.0069   0.00    1.1
2173 199274.000   -487017.3994  -5540253.4392   3111843.4185   2   8   0.0286   0.0373   0.0261   0.0128  -0.0127  -0.0068   0.00    1.1
2173 199275.000   -487017.4097  -5540253.4398   3111843.4063   2   8   0.0285   0.0371   0.0259   0.0127  -0.0126  -0.0068   0.00    1.1
2173 199276.000   -487017.4063  -5540253.4378   3111843.4059   2   8   0.0284   0.0369   0.0259   0.0128  -0.0125  -0.0066   0.00    1.1
2173 199277.000   -487017.4047  -5540253.4343   3111843.4041   2   8   0.0284   0.0367   0.0258   0.0126  -0.0124  -0.0068   0.00    1.1
2173 199278.000   -487017.4039  -5540253.4309   3111843.4014   2   8   0.0283   0.0365   0.0258   0.0127  -0.0122  -0.0067   0.00    1.1
2173 199279.000   -487017.4020  -5540253.4228   3111843.3992   2   8   0.0282   0.0363   0.0257   0.0126  -0.0122  -0.0065   0.00    1.1
2173 199280.000   -487017.4055  -5540253.4307   3111843.3994   2   8   0.0282   0.0361   0.0256   0.0125  -0.0120  -0.0067   0.00    1.1
2173 199281.000   -487017.4044  -5540253.4271   3111843.3974   2   8   0.0281   0.0359   0.0255   0.0125  -0.0118  -0.0067   0.00    1.1
2173 199282.000   -487017.4081  -5540253.4366   3111843.3964   2   8   0.0281   0.0357   0.0255   0.0125  -0.0119  -0.0066   0.00    1.1
2173 199283.000   -487017.4099  -5540253.4443   3111843.3979   2   8   0.0280   0.0355   0.0254   0.0124  -0.0117  -0.0066   0.00    1.1
2173 199284.000   -487017.4124  -5540253.4565   3111843.4000   2   8   0.0279   0.0354   0.0253   0.0123  -0.0116  -0.0066   0.00    1.1
2173 199285.000   -487017.4125  -5540253.4605   3111843.3999   2   8   0.0279   0.0352   0.0252   0.0123  -0.0114  -0.0066   0.00    1.1
2173 199286.000   -487017.4130  -5540253.4723   3111843.4016   2   8   0.0278   0.0350   0.0252   0.0123  -0.0114  -0.0065   0.00    1.1
2173 199287.000   -487017.4138  -5540253.4720   3111843.3987   2   8   0.0277   0.0348   0.0251   0.0122  -0.0113  -0.0065   0.00    1.1
2173 199288.000   -487017.4126  -5540253.4679   3111843.3982   2   8   0.0277   0.0347   0.0250   0.0122  -0.0112  -0.0064   0.00    1.1
2173 199289.000   -487017.4109  -5540253.4647   3111843.3949   2   8   0.0276   0.0345   0.0250   0.0122  -0.0111  -0.0063   0.00    1.1
2173 199290.000   -487017.4106  -5540253.4591   3111843.3921   2   8   0.0275   0.0343   0.0248   0.0121  -0.0109  -0.0064   0.00    1.1
2173 199291.000   -487017.4090  -5540253.4474   3111843.3877   2   8   0.0275   0.0341   0.0248   0.0121  -0.0109  -0.0061   0.00    1.1
2173 199292.000   -487017.4113  -5540253.4571   3111843.3884   2   8   0.0274   0.0340   0.0247   0.0120  -0.0107  -0.0064   0.00    1.1
2173 199293.000   -487017.4118  -5540253.4535   3111843.3855   2   8   0.0274   0.0338   0.0247   0.0120  -0.0108  -0.0062   0.00    1.1
2173 199294.000   -487017.4141  -5540253.4590   3111843.3844   2   8   0.0273   0.0336   0.0246   0.0119  -0.0107  -0.0061   0.00    1.1
2173 199295.000   -487017.4144  -5540253.4672   3111843.3860   2   8   0.0273   0.0335   0.0245   0.0120  -0.0104  -0.0062   0.00    1.1
2173 199296.000   -487017.4173  -5540253.4715   3111843.3868   2   8   0.0272   0.0333   0.0244   0.0119  -0.0105  -0.0061   0.00    1.1
2173 199297.000   -487017.4152  -5540253.4670   3111843.3841   2   8   0.0271   0.0332   0.0243   0.0118  -0.0103  -0.0060   0.00    1.1
2173 199298.000   -487017.4196  -5540253.4730   3111843.3882   2   8   0.0271   0.0330   0.0243   0.0118  -0.0103  -0.0059   0.00    1.1
2173 199299.000   -487017.4178  -5540253.4665   3111843.3841   2   8   0.0270   0.0328   0.0243   0.0118  -0.0101  -0.0058   0.00    1.1
2173 199300.000   -487017.4191  -5540253.4623   3111843.3847   2   8   0.0270   0.0327   0.0241   0.0117  -0.0101  -0.0061   0.00    1.1
2173 199301.000   -487017.4174  -5540253.4603   3111843.3841   2   8   0.0269   0.0325   0.0240   0.0117  -0.0099  -0.0058   0.00    1.1
2173 199302.000   -487017.4217  -5540253.4669   3111843.3848   2   8   0.0268   0.0323   0.0240   0.0117  -0.0098  -0.0057   0.00    1.0
2173 199303.000   -487017.4142  -5540253.4423   3111843.3786   2   8   0.0268   0.0322   0.0240   0.0116  -0.0098  -0.0055   0.00    1.0
2173 199304.000   -487017.4142  -5540253.4433   3111843.3743   2   8   0.0267   0.0321   0.0239   0.0115  -0.0097  -0.0061   0.00    1.0
2173 199305.000   -487017.4124  -5540253.4344   3111843.3646   2   8   0.0267   0.0319   0.0239   0.0115  -0.0097  -0.0058   0.00    1.0
2173 199306.000   -487017.4082  -5540253.4276   3111843.3603   2   8   0.0266   0.0318   0.0238   0.0114  -0.0096  -0.0058   0.00    1.0
2173 199307.000   -487017.4070  -5540253.4214   3111843.3495   2   8   0.0266   0.0316   0.0238   0.0114  -0.0094  -0.0059   0.00    1.0
2173 199308.000   -487017.4020  -5540253.4166   3111843.3429   2   8   0.0265   0.0315   0.0237   0.0114  -0.0094  -0.0057   0.00    1.0
2173 199309.000   -487017.3985  -5540253.3971   3111843.3327   2   8   0.0265   0.0313   0.0237   0.0113  -0.0093  -0.0055   0.00    1.0
2173 199310.000   -487017.3952  -5540253.3871   3111843.3268   2   8   0.0264   0.0312   0.0237   0.0113  -0.0092  -0.0058   0.00    1.0
2173 199311.000   -487017.3938  -5540253.3813   3111843.3198   2   8   0.0263   0.0311   0.0235   0.0113  -0.0091  -0.0057   0.00    1.0
2173 199312.000   -487017.3923  -5540253.3759   3111843.3106   2   8   0.0263   0.0309   0.0235   0.0113  -0.0091  -0.0055   0.00    1.0
2173 199313.000   -487017.3926  -5540253.3727   3111843.3058   2   8   0.0262   0.0308   0.0235   0.0112  -0.0090  -0.0059   0.00    1.0
2173 199314.000   -487017.3895  -5540253.3602   3111843.2940   2   8   0.0261   0.0307   0.0232   0.0111  -0.0090  -0.0055   0.00    1.0
2173 199315.000   -487017.3869  -5540253.3576   3111843.2894   2   8   0.0261   0.0305   0.0233   0.0113  -0.0088  -0.0056   0.00    1.0
2173 199316.000   -487017.3888  -5540253.3555   3111843.2825   2   8   0.0261   0.0304   0.0233   0.0111  -0.0088  -0.0057   0.00    1.0
2173 199317.000   -487017.3871  -5540253.3541   3111843.2757   2   8   0.0260   0.0303   0.0231   0.0111  -0.0087  -0.0057   0.00    1.0
2173 199318.000   -487017.3848  -5540253.3481   3111843.2701   2   8   0.0260   0.0301   0.0232   0.0111  -0.0086  -0.0056   0.00    1.0
2173 199319.000   -487017.3803  -5540253.3406   3111843.2613   2   8   0.0259   0.0300   0.0230   0.0111  -0.0085  -0.0056   0.00    1.0
2173 199320.000   -487017.3786  -5540253.3402   3111843.2567   2   8   0.0259   0.0299   0.0228   0.0110  -0.0086  -0.0051   0.00    1.0
2173 199321.000   -487017.3757  -5540253.3210   3111843.2462   2   8   0.0258   0.0298   0.0228   0.0110  -0.0085  -0.0051   0.00    1.0
2173 199322.000   -487017.3753  -5540253.3181   3111843.2435   2   8   0.0258   0.0296   0.0228   0.0109  -0.0083  -0.0057   0.00    1.0
2173 199323.000   -487017.3707  -5540253.3174   3111843.2351   2   8   0.0257   0.0295   0.0228   0.0110  -0.0082  -0.0054   0.00    1.0
2173 199324.000   -487017.3709  -5540253.3113   3111843.2278   2   8   0.0256   0.0294   0.0228   0.0109  -0.0082  -0.0054   0.00    1.0
2173 199325.000   -487017.3689  -5540253.3050   3111843.2239   2   8   0.0257   0.0293   0.0227   0.0109  -0.0081  -0.0056   0.00    1.0
2173 199326.000   -487017.3688  -5540253.3137   3111843.2198   2   8   0.0256   0.0291   0.0228   0.0108  -0.0081  -0.0057   0.00    1.0
2173 199327.000   -487017.3687  -5540253.3204   3111843.2184   2   8   0.0255   0.0290   0.0227   0.0108  -0.0080  -0.0053   0.00    1.0
2173 199328.000   -487017.3669  -5540253.3063   3111843.2094   2   8   0.0255   0.0289   0.0225   0.0107  -0.0080  -0.0054   0.00    1.0
2173 199329.000   -487017.3637  -5540253.3055   3111843.2045   2   8   0.0254   0.0288   0.0225   0.0107  -0.0078  -0.0051   0.00    1.0
2173 199330.000   -487017.3622  -5540253.2984   3111843.1985   2   8   0.0254   0.0287   0.0224   0.0106  -0.0078  -0.0053   0.00    1.0
2173 199331.000   -487017.3607  -5540253.2960   3111843.1955   2   8   0.0254   0.0286   0.0224   0.0107  -0.0077  -0.0050   0.00    1.0
2173 199332.000   -487017.3553  -5540253.2829   3111843.1881   2   8   0.0253   0.0284   0.0222   0.0106  -0.0077  -0.0051   0.00    1.0
2173 199333.000   -487017.3513  -5540253.2735   3111843.1828   2   8   0.0252   0.0284   0.0222   0.0106  -0.0076  -0.0052   0.00    1.0
2173 199334.000   -487017.3476  -5540253.2650   3111843.1781   2   8   0.0252   0.0282   0.0222   0.0105  -0.0075  -0.0050   0.00    1.0
2173 199335.000   -487017.3444  -5540253.2895   3111843.1780   2   8   0.0251   0.0281   0.0221   0.0107  -0.0075  -0.0051   0.00    1.0
2173 199336.000   -487017.3432  -5540253.2824   3111843.1725   2   8   0.0251   0.0280   0.0222   0.0106  -0.0074  -0.0049   0.00    1.0
2173 199337.000   -487017.3420  -5540253.2804   3111843.1673   2   8   0.0250   0.0279   0.0220   0.0104  -0.0076  -0.0053   0.00    1.0
2173 199338.000   -487017.3431  -5540253.2759   3111843.1596   2   8   0.0250   0.0278   0.0219   0.0104  -0.0075  -0.0047   0.00    1.0
2173 199339.000   -487017.3452  -5540253.2803   3111843.1575   2   8   0.0249   0.0277   0.0218   0.0103  -0.0073  -0.0045   0.00    1.0
2173 199340.000   -487017.3465  -5540253.2823   3111843.1554   2   8   0.0249   0.0276   0.0219   0.0105  -0.0070  -0.0052   0.00    1.0
2173 199341.000   -487017.3443  -5540253.2851   3111843.1513   2   8   0.0249   0.0275   0.0218   0.0104  -0.0071  -0.0049   0.00    1.0
2173 199342.000   -487017.3449  -5540253.2854   3111843.1484   2   8   0.0248   0.0274   0.0218   0.0103  -0.0072  -0.0050   0.00    1.0
2173 199343.000   -487017.3444  -5540253.2889   3111843.1448   2   8   0.0247   0.0273   0.0217   0.0102  -0.0072  -0.0050   0.00    1.0
2173 199344.000   -487017.3436  -5540253.2957   3111843.1413   2   8   0.0247   0.0272   0.0217   0.0103  -0.0069  -0.0046   0.00    1.0
2173 199345.000   -487017.3447  -5540253.3016   3111843.1384   2   8   0.0247   0.0271   0.0216   0.0103  -0.0069  -0.0048   0.00    1.0
2173 199346.000   -487017.3420  -5540253.3078   3111843.1360   2   8   0.0246   0.0270   0.0216   0.0102  -0.0069  -0.0049   0.00    1.0
2173 199347.000   -487017.3396  -5540253.3017   3111843.1286   2   8   0.0246   0.0269   0.0216   0.0102  -0.0069  -0.0051   0.00    1.0
2173 199348.000   -487017.3379  -5540253.3032   3111843.1274   2   8   0.0245   0.0268   0.0215   0.0101  -0.0068  -0.0047   0.00    1.0
2173 199349.000   -487017.3331  -5540253.2999   3111843.1260   2   8   0.0245   0.0267   0.0213   0.0101  -0.0066  -0.0050   0.00    1.0
2173 199350.000   -487017.3322  -5540253.2960   3111843.1188   2   8   0.0244   0.0266   0.0213   0.0101  -0.0068  -0.0048   0.00    1.0
2173 199351.000   -487017.3344  -5540253.3031   3111843.1187   2   8   0.0244   0.0265   0.0214   0.0101  -0.0067  -0.0048   0.00    1.1
2173 199352.000   -487017.3335  -5540253.3022   3111843.1142   2   8   0.0244   0.0265   0.0212   0.0100  -0.0065  -0.0050   0.00    1.1
2173 199353.000   -487017.3324  -5540253.3021   3111843.1078   2   8   0.0243   0.0264   0.0212   0.0100  -0.0065  -0.0049   0.00    1.1
2173 199354.000   -487017.3310  -5540253.2998   3111843.1056   2   8   0.0242   0.0262   0.0213   0.0100  -0.0065  -0.0045   0.00    1.1
2173 199355.000   -487017.3306  -5540253.3027   3111843.1028   2   8   0.0242   0.0261   0.0212   0.0100  -0.0065  -0.0046   0.00    1.1
2173 199356.000   -487017.3277  -5540253.2948   3111843.0992   2   8   0.0242   0.0261   0.0210   0.0100  -0.0064  -0.0047   0.00    1.1
2173 199357.000   -487017.3276  -5540253.2889   3111843.0924   2   8   0.0241   0.0260   0.0211   0.0100  -0.0063  -0.0046   0.00    1.1
2173 199358.000   -487017.3255  -5540253.2912   3111843.0904   2   8   0.0241   0.0259   0.0211   0.0099  -0.0063  -0.0047   0.00    1.1
2173 199359.000   -487017.3270  -5540253.2954   3111843.0859   2   8   0.0240   0.0258   0.0209   0.0100  -0.0062  -0.0049   0.00    1.1
2173 199360.000   -487017.3262  -5540253.2973   3111843.0809   2   8   0.0240   0.0257   0.0209   0.0099  -0.0062  -0.0042   0.00    1.1
2173 199361.000   -487017.3272  -5540253.2969   3111843.0772   2   8   0.0239   0.0256   0.0208   0.0098  -0.0063  -0.0046   0.00    1.1
2173 199362.000   -487017.3250  -5540253.3014   3111843.0735   2   8   0.0239   0.0255   0.0206   0.0098  -0.0060  -0.0045   0.00    1.1
2173 199363.000   -487017.3254  -5540253.3021   3111843.0712   2   8   0.0238   0.0255   0.0207   0.0098  -0.0061  -0.0044   0.00    1.1
2173 199364.000   -487017.3246  -5540253.3010   3111843.0674   2   8   0.0239   0.0254   0.0208   0.0098  -0.0061  -0.0044   0.00    1.1
2173 199365.000   -487017.3226  -5540253.2968   3111843.0604   2   8   0.0239   0.0253   0.0206   0.0097  -0.0059  -0.0044   0.00    1.1
2173 199366.000   -487017.3224  -5540253.2913   3111843.0551   2   8   0.0238   0.0252   0.0207   0.0097  -0.0059  -0.0046   0.00    1.1
2173 199367.000   -487017.3206  -5540253.2935   3111843.0534   2   8   0.0237   0.0251   0.0205   0.0096  -0.0058  -0.0042   0.00    1.1
2173 199368.000   -487017.3224  -5540253.2897   3111843.0492   2   8   0.0237   0.0250   0.0206   0.0097  -0.0058  -0.0044   0.00    1.1
2173 199369.000   -487017.3209  -5540253.2945   3111843.0468   2   8   0.0237   0.0250   0.0205   0.0096  -0.0058  -0.0046   0.00    1.1
2173 199370.000   -487017.3219  -5540253.2970   3111843.0432   2   8   0.0236   0.0249   0.0204   0.0096  -0.0059  -0.0045   0.00    1.1
2173 199371.000   -487017.3206  -5540253.2995   3111843.0424   2   8   0.0235   0.0248   0.0203   0.0097  -0.0059  -0.0043   0.00    1.1
2173 199372.000   -487017.3216  -5540253.3030   3111843.0385   2   8   0.0235   0.0247   0.0204   0.0097  -0.0056  -0.0045   0.00    1.1
2173 199373.000   -487017.3179  -5540253.3078   3111843.0367   2   8   0.0234   0.0247   0.0202   0.0096  -0.0055  -0.0039   0.00    1.1
2173 199374.000   -487017.3172  -5540253.3034   3111843.0338   2   8   0.0234   0.0246   0.0202   0.0095  -0.0058  -0.0042   0.00    1.1
2173 199375.000   -487017.3136  -5540253.2933   3111843.0272   2   8   0.0234   0.0245   0.0202   0.0096  -0.0054  -0.0043   0.00    1.1
2173 199376.000   -487017.3101  -5540253.2869   3111843.0235   2   8   0.0234   0.0244   0.0202   0.0095  -0.0055  -0.0044   0.00    1.1
2173 199377.000   -487017.3083  -5540253.2833   3111843.0198   2   8   0.0233   0.0244   0.0201   0.0095  -0.0056  -0.0041   0.00    1.1
2173 199378.000   -487017.3067  -5540253.2755   3111843.0158   2   8   0.0233   0.0243   0.0201   0.0096  -0.0055  -0.0039   0.00    1.1
2173 199379.000   -487017.3052  -5540253.2641   3111843.0089   2   8   0.0232   0.0242   0.0200   0.0094  -0.0055  -0.0040   0.00    1.1
2173 199380.000   -487017.3057  -5540253.2679   3111843.0056   2   8   0.0231   0.0242   0.0200   0.0094  -0.0053  -0.0042   0.00    1.1
2173 199381.000   -487017.3036  -5540253.2580   3111842.9963   2   8   0.0232   0.0241   0.0200   0.0093  -0.0054  -0.0039   0.00    1.1
2173 199382.000   -487017.3074  -5540253.2706   3111842.9965   2   8   0.0231   0.0240   0.0200   0.0093  -0.0055  -0.0041   0.00    1.1
2173 199383.000   -487017.3063  -5540253.2706   3111842.9928   2   8   0.0230   0.0239   0.0198   0.0093  -0.0054  -0.0040   0.00    1.1
2173 199384.000   -487017.3084  -5540253.2735   3111842.9894   2   8   0.0230   0.0239   0.0199   0.0093  -0.0055  -0.0042   0.00    1.1
2173 199385.000   -487017.3105  -5540253.2823   3111842.9870   2   8   0.0230   0.0238   0.0198   0.0093  -0.0053  -0.0045   0.00    1.1
2173 199386.000   -487017.3151  -5540253.2910   3111842.9866   2   8   0.0229   0.0237   0.0197   0.0093  -0.0052  -0.0039   0.00    1.1
2173 199387.000   -487017.3154  -5540253.2966   3111842.9839   2   8   0.0229   0.0237   0.0197   0.0093  -0.0053  -0.0042   0.00    1.1
2173 199388.000   -487017.3182  -5540253.2958   3111842.9777   2   8   0.0229   0.0236   0.0197   0.0094  -0.0049  -0.0040   0.00    1.1
2173 199389.000   -487017.3134  -5540253.2991   3111842.9767   2   8   0.0229   0.0235   0.0196   0.0093  -0.0051  -0.0042   0.00    1.1
2173 199390.000   -487017.3137  -5540253.2974   3111842.9738   2   8   0.0228   0.0234   0.0196   0.0093  -0.0049  -0.0043   0.00    1.1
2173 199391.000   -487017.3114  -5540253.2947   3111842.9711   2   8   0.0227   0.0234   0.0195   0.0092  -0.0052  -0.0038   0.00    1.1
2173 199392.000   -487017.3090  -5540253.2919   3111842.9695   2   8   0.0228   0.0233   0.0194   0.0091  -0.0052  -0.0039   0.00    1.1
2173 199393.000   -487017.3070  -5540253.2895   3111842.9644   2   8   0.0227   0.0233   0.0194   0.0092  -0.0051  -0.0038   0.00    1.1
2173 199394.000   -487017.3039  -5540253.2911   3111842.9643   2   8   0.0226   0.0232   0.0194   0.0091  -0.0052  -0.0038   0.00    1.1
2173 199395.000   -487017.3036  -5540253.2877   3111842.9617   2   8   0.0226   0.0231   0.0193   0.0091  -0.0050  -0.0036   0.00    1.1
2173 199396.000   -487017.3026  -5540253.2808   3111842.9550   2   8   0.0226   0.0231   0.0192   0.0091  -0.0050  -0.0038   0.00    1.1
2173 199397.000   -487017.3049  -5540253.2783   3111842.9455   2   8   0.0225   0.0230   0.0192   0.0091  -0.0048  -0.0040   0.00    1.1
2173 199398.000   -487017.3028  -5540253.2706   3111842.9414   2   8   0.0226   0.0229   0.0194   0.0091  -0.0049  -0.0043   0.00    1.1
2173 199399.000   -487017.3040  -5540253.2765   3111842.9367   2   8   0.0226   0.0229   0.0192   0.0091  -0.0051  -0.0038   0.00    1.1
2173 199400.000   -487017.3021  -5540253.2732   3111842.9313   2   8   0.0225   0.0228   0.0190   0.0090  -0.0051  -0.0039   0.00    1.1
2173 199401.000   -487017.3027  -5540253.2731   3111842.9280   2   8   0.0224   0.0228   0.0192   0.0090  -0.0047  -0.0037   0.00    1.1
2173 199402.000   -487017.3019  -5540253.2737   3111842.9247   2   8   0.0224   0.0227   0.0190   0.0090  -0.0048  -0.0037   0.00    1.1
2173 199403.000   -487017.3013  -5540253.2679   3111842.9209   2   8   0.0223   0.0226   0.0190   0.0090  -0.0047  -0.0037   0.00    1.1
2173 199404.000   -487017.3006  -5540253.2675   3111842.9153   2   8   0.0223   0.0226   0.0189   0.0090  -0.0050  -0.0036   0.00    1.1
2173 199405.000   -487017.3017  -5540253.2756   3111842.9151   2   8   0.0222   0.0225   0.0190   0.0090  -0.0045  -0.0033   0.00    1.1
2173 199406.000   -487017.3022  -5540253.2724   3111842.9100   2   8   0.0222   0.0225   0.0188   0.0089  -0.0047  -0.0036   0.00    1.1
2173 199407.000   -487017.3049  -5540253.2780   3111842.9096   2   8   0.0222   0.0224   0.0190   0.0089  -0.0047  -0.0037   0.00    1.1
2173 199408.000   -487017.3034  -5540253.2730   3111842.9050   2   8   0.0222   0.0224   0.0188   0.0088  -0.0048  -0.0040   0.00    1.1
2173 199409.000   -487017.3046  -5540253.2775   3111842.9033   2   8   0.0221   0.0223   0.0187   0.0089  -0.0047  -0.0037   0.00    1.1
2173 199410.000   -487017.3053  -5540253.2778   3111842.8988   2   8   0.0221   0.0222   0.0188   0.0088  -0.0047  -0.0038   0.00    1.1
2173 199411.000   -487017.3026  -5540253.2776   3111842.8978   2   8   0.0220   0.0222   0.0188   0.0088  -0.0047  -0.0033   0.00    1.1
2173 199412.000   -487017.3026  -5540253.2746   3111842.8938   2   8   0.0220   0.0221   0.0189   0.0088  -0.0045  -0.0034   0.00    1.1
2173 199413.000   -487017.2972  -5540253.2695   3111842.8899   2   8   0.0220   0.0221   0.0188   0.0089  -0.0045  -0.0037   0.00    1.1
2173 199414.000   -487017.2986  -5540253.2723   3111842.8907   2   8   0.0219   0.0220   0.0187   0.0088  -0.0045  -0.0041   0.00    1.1
2173 199415.000   -487017.2952  -5540253.2628   3111842.8850   2   8   0.0219   0.0220   0.0185   0.0088  -0.0046  -0.0038   0.00    1.1
2173 199416.000   -487017.2945  -5540253.2674   3111842.8833   2   8   0.0219   0.0219   0.0186   0.0089  -0.0046  -0.0036   0.00    1.1
2173 199417.000   -487017.2943  -5540253.2562   3111842.8806   2   8   0.0218   0.0218   0.0185   0.0087  -0.0047  -0.0033   0.00    1.1
2173 199418.000   -487017.2936  -5540253.2478   3111842.8760   2   8   0.0218   0.0218   0.0184   0.0088  -0.0045  -0.0034   0.00    1.1
2173 199419.000   -487017.2915  -5540253.2481   3111842.8736   2   8   0.0218   0.0217   0.0184   0.0087  -0.0044  -0.0033   0.00    1.1
2173 199420.000   -487017.2881  -5540253.2257   3111842.8657   2   8   0.0217   0.0217   0.0184   0.0086  -0.0045  -0.0039   0.00    1.1
2173 199421.000   -487017.2853  -5540253.2196   3111842.8644   2   8   0.0217   0.0216   0.0184   0.0086  -0.0047  -0.0032   0.00    1.1
2173 199422.000   -487017.2879  -5540253.2148   3111842.8601   2   8   0.0217   0.0216   0.0183   0.0086  -0.0043  -0.0037   0.00    1.2
2173 199423.000   -487017.2886  -5540253.2121   3111842.8569   2   8   0.0216   0.0215   0.0183   0.0087  -0.0045  -0.0033   0.00    1.2
2173 199424.000   -487017.2892  -5540253.2146   3111842.8535   2   8   0.0215   0.0215   0.0182   0.0086  -0.0045  -0.0032   0.00    1.2
2173 199425.000   -487017.2878  -5540253.2017   3111842.8449   2   8   0.0217   0.0215   0.0183   0.0087  -0.0041  -0.0035   0.00    1.1
2173 199426.000   -487017.2870  -5540253.1962   3111842.8412   2   8   0.0215   0.0214   0.0182   0.0085  -0.0045  -0.0029   0.00    1.1
2173 199427.000   -487017.2853  -5540253.1891   3111842.8373   2   8   0.0215   0.0214   0.0181   0.0086  -0.0043  -0.0035   0.00    1.1
2173 199428.000   -487017.2889  -5540253.2119   3111842.8378   2   8   0.0216   0.0213   0.0181   0.0086  -0.0044  -0.0032   0.00    1.1
2173 199429.000   -487017.2859  -5540253.2110   3111842.8375   2   8   0.0215   0.0213   0.0182   0.0085  -0.0044  -0.0031   0.00    1.1
2173 199430.000   -487017.2904  -5540253.2193   3111842.8405   2   8   0.0214   0.0212   0.0181   0.0085  -0.0046  -0.0034   0.00    1.1
2173 199431.000   -487017.2897  -5540253.2274   3111842.8439   2   8   0.0214   0.0211   0.0180   0.0085  -0.0045  -0.0036   0.00    1.1
2173 199432.000   -487017.2892  -5540253.2311   3111842.8457   2   8   0.0214   0.0211   0.0179   0.0085  -0.0045  -0.0034   0.00    1.1
2173 199433.000   -487017.2919  -5540253.2342   3111842.8468   2   8   0.0213   0.0211   0.0178   0.0085  -0.0042  -0.0032   0.00    1.1
2173 199434.000   -487017.2921  -5540253.2295   3111842.8444   2   8   0.0213   0.0210   0.0179   0.0085  -0.0043  -0.0033   0.00    1.1
2173 199435.000   -487017.2935  -5540253.2372   3111842.8473   2   8   0.0213   0.0210   0.0179   0.0085  -0.0041  -0.0029   0.00    1.1
2173 199436.000   -487017.2943  -5540253.2311   3111842.8438   2   8   0.0213   0.0209   0.0179   0.0085  -0.0042  -0.0035   0.00    1.1
2173 199437.000   -487017.2961  -5540253.2284   3111842.8420   2   8   0.0212   0.0209   0.0178   0.0084  -0.0041  -0.0032   0.00    1.1
2173 199438.000   -487017.2956  -5540253.2235   3111842.8361   2   8   0.0212   0.0208   0.0178   0.0084  -0.0044  -0.0033   0.00    1.1
2173 199439.000   -487017.2975  -5540253.2183   3111842.8340   2   8   0.0212   0.0208   0.0178   0.0083  -0.0041  -0.0039   0.00    1.1
2173 199440.000   -487017.2979  -5540253.2113   3111842.8294   2   8   0.0211   0.0208   0.0176   0.0084  -0.0042  -0.0028   0.00    1.1
2173 199441.000   -487017.2980  -5540253.1999   3111842.8229   2   8   0.0211   0.0207   0.0177   0.0084  -0.0041  -0.0030   0.00    1.1
2173 199442.000   -487017.2983  -5540253.2076   3111842.8230   2   8   0.0211   0.0207   0.0176   0.0083  -0.0044  -0.0029   0.00    1.1
2173 199443.000   -487017.2980  -5540253.2060   3111842.8202   2   8   0.0210   0.0206   0.0178   0.0084  -0.0041  -0.0034   0.00    1.1
2173 199444.000   -487017.2998  -5540253.2009   3111842.8169   2   8   0.0210   0.0206   0.0177   0.0082  -0.0042  -0.0033   0.00    1.1
2173 199445.000   -487017.3008  -5540253.2030   3111842.8159   2   8   0.0210   0.0205   0.0174   0.0083  -0.0041  -0.0030   0.00    1.1
2173 199446.000   -487017.3033  -5540253.2094   3111842.8144   2   8   0.0209   0.0205   0.0175   0.0083  -0.0042  -0.0031   0.00    1.1
2173 199447.000   -487017.3042  -5540253.2124   3111842.8143   2   8   0.0209   0.0204   0.0174   0.0084  -0.0042  -0.0028   0.00    1.1
2173 199448.000   -487017.3042  -5540253.2039   3111842.8072   2   8   0.0208   0.0204   0.0175   0.0083  -0.0043  -0.0032   0.00    1.1
2173 199449.000   -487017.3066  -5540253.2107   3111842.8064   2   8   0.0208   0.0204   0.0175   0.0084  -0.0038  -0.0032   0.00    1.1
2173 199450.000   -487017.3085  -5540253.2141   3111842.8076   2   8   0.0208   0.0203   0.0175   0.0083  -0.0040  -0.0032   0.00    1.1
2173 199451.000   -487017.3091  -5540253.2184   3111842.8068   2   8   0.0208   0.0203   0.0175   0.0082  -0.0041  -0.0030   0.00    1.1
2173 199452.000   -487017.3093  -5540253.2194   3111842.8052   2   8   0.0207   0.0203   0.0173   0.0082  -0.0041  -0.0031   0.00    1.1
2173 199453.000   -487017.3083  -5540253.2199   3111842.8034   2   8   0.0207   0.0202   0.0172   0.0082  -0.0042  -0.0026   0.00    1.1
2173 199454.000   -487017.3107  -5540253.2280   3111842.8078   2   8   0.0207   0.0202   0.0172   0.0082  -0.0042  -0.0032   0.00    1.1
2173 199455.000   -487017.3091  -5540253.2329   3111842.8056   2   8   0.0206   0.0201   0.0173   0.0082  -0.0040  -0.0030   0.00    1.1
2173 199456.000   -487017.3058  -5540253.2242   3111842.7988   2   8   0.0207   0.0201   0.0171   0.0081  -0.0040  -0.0026   0.00    1.1
2173 199457.000   -487017.3038  -5540253.2208   3111842.7937   2   8   0.0206   0.0200   0.0172   0.0082  -0.0042  -0.0029   0.00    1.0
2173 199458.000   -487017.3018  -5540253.2234   3111842.7909   2   8   0.0206   0.0200   0.0172   0.0082  -0.0040  -0.0028   0.00    1.0
2173 199459.000   -487017.2994  -5540253.2221   3111842.7858   2   8   0.0205   0.0200   0.0170   0.0081  -0.0040  -0.0027   0.00    1.0
2173 199460.000   -487017.2958  -5540253.2155   3111842.7814   2   8   0.0205   0.0199   0.0171   0.0081  -0.0041  -0.0035   0.00    1.0
2173 199461.000   -487017.2924  -5540253.2073   3111842.7744   2   8   0.0205   0.0199   0.0170   0.0082  -0.0040  -0.0030   0.00    1.0
2173 199462.000   -487017.2917  -5540253.2090   3111842.7724   2   8   0.0204   0.0199   0.0169   0.0082  -0.0039  -0.0024   0.00    1.0
2173 199463.000   -487017.2899  -5540253.2043   3111842.7665   2   8   0.0204   0.0198   0.0169   0.0082  -0.0040  -0.0032   0.00    1.0
2173 199464.000   -487017.2881  -5540253.2002   3111842.7616   2   8   0.0204   0.0198   0.0169   0.0081  -0.0038  -0.0027   0.00    1.0
2173 199465.000   -487017.2827  -5540253.1886   3111842.7548   2   8   0.0204   0.0197   0.0170   0.0080  -0.0043  -0.0031   0.00    1.0
2173 199466.000   -487017.2843  -5540253.1909   3111842.7519   2   8   0.0204   0.0197   0.0169   0.0080  -0.0043  -0.0029   0.00    1.0
2173 199467.000   -487017.2795  -5540253.1844   3111842.7500   2   8   0.0203   0.0197   0.0167   0.0081  -0.0039  -0.0022   0.00    1.0
2173 199468.000   -487017.2777  -5540253.1818   3111842.7451   2   8   0.0203   0.0196   0.0168   0.0080  -0.0040  -0.0029   0.00    1.0
2173 199469.000   -487017.2799  -5540253.1866   3111842.7426   2   8   0.0203   0.0196   0.0166   0.0081  -0.0040  -0.0021   0.00    1.0
2173 199470.000   -487017.2783  -5540253.1817   3111842.7368   2   8   0.0203   0.0196   0.0167   0.0081  -0.0038  -0.0029   0.00    1.0
2173 199471.000   -487017.2638  -5540253.1212   3111842.7074   2   8   0.0202   0.0195   0.0166   0.0080  -0.0040  -0.0022   0.00    1.0
2173 199472.000   -487017.2633  -5540253.1156   3111842.7026   2   8   0.0201   0.0195   0.0165   0.0080  -0.0040  -0.0026   0.00    1.0
2173 199473.000   -487017.2587  -5540253.1000   3111842.6948   2   8   0.0202   0.0195   0.0167   0.0079  -0.0039  -0.0022   0.00    1.0
2173 199474.000   -487017.2547  -5540253.0946   3111842.6900   2   8   0.0201   0.0194   0.0167   0.0080  -0.0042  -0.0025   0.00    1.0
2173 199475.000   -487017.2498  -5540253.0866   3111842.6877   2   8   0.0201   0.0194   0.0166   0.0080  -0.0040  -0.0021   0.00    1.0
2173 199476.000   -487017.2451  -5540253.0707   3111842.6802   2   8   0.0201   0.0194   0.0166   0.0079  -0.0041  -0.0026   0.00    1.0
2173 199477.000   -487017.2414  -5540253.0533   3111842.6728   2   8   0.0200   0.0193   0.0166   0.0079  -0.0040  -0.0029   0.00    1.0
2173 199478.000   -487017.2382  -5540253.0456   3111842.6666   2   8   0.0200   0.0193   0.0164   0.0080  -0.0038  -0.0029   0.00    1.0
2173 199479.000   -487017.2353  -5540253.0454   3111842.6664   2   8   0.0200   0.0193   0.0165   0.0079  -0.0038  -0.0025   0.00    1.0
2173 199480.000   -487017.2294  -5540253.0457   3111842.6668   2   8   0.0201   0.0192   0.0165   0.0079  -0.0041  -0.0023   0.00    1.0
2173 199481.000   -487017.2255  -5540253.0362   3111842.6630   2   8   0.0200   0.0192   0.0166   0.0078  -0.0042  -0.0025   0.00    1.0
