% program   : rnx2rtkp ver.2.4.3 b31
% inp file  : ngs/21_08_31_06_17_38_momf.obs
% inp file  : ngs/21_08_31_06_17_38_momf_SW.obs
% inp file  : ngs/21_08_31_06_17_38_brdc.nav
% obs start : 2021/08/31 06:00:00.0 GPST (week2173 194400.0s)
% obs end   : 2021/08/31 06:59:59.0 GPST (week2173 197999.0s)
% ref pos   :  -264395.9025  -5129855.8395   3768288.3508
%
% (x/y/z-ecef=WGS84,Q=1:fix,2:float,3:sbas,4:dgps,5:single,6:ppp,ns=# of satellites)
%  GPST              x-ecef(m)      y-ecef(m)      z-ecef(m)   Q  ns   sdx(m)   sdy(m)   sdz(m)  sdxy(m)  sdyz(m)  sdzx(m) age(s)  ratio
2173 195433.000   -261331.8017  -5070388.3701   3848246.3637   2   6   0.5807   1.3300   0.9799  -0.5622  -1.0203   0.3729 -30.00    1.9
2173 195434.000   -261331.6303  -5070388.3831   3848246.5125   2   6   0.4127   0.9468   0.6970  -0.3993  -0.7262   0.2647 -29.00    1.8
2173 195435.000   -261331.5375  -5070388.2972   3848246.5055   2   6   0.3380   0.7754   0.5705  -0.3270  -0.5946   0.2167 -28.00    1.5
2173 195436.000   -261331.5997  -5070388.1883   3848246.3534   2   6   0.2933   0.6727   0.4949  -0.2839  -0.5157   0.1881 -27.00    1.5
2173 195437.000   -261331.5778  -5070388.3627   3848246.4866   2   6   0.2628   0.6025   0.4431  -0.2544  -0.4618   0.1685 -26.00    1.6
2173 195438.000   -261331.5969  -5070388.3481   3848246.4772   2   6   0.2403   0.5506   0.4048  -0.2326  -0.4219   0.1540 -25.00    1.6
2173 195439.000   -261331.6256  -5070388.3188   3848246.5186   2   6   0.2227   0.5101   0.3749  -0.2157  -0.3909   0.1427 -24.00    1.7
2173 195440.000   -261331.6147  -5070388.2956   3848246.5434   2   6   0.2085   0.4774   0.3508  -0.2019  -0.3658   0.1336 -23.00    1.8
2173 195441.000   -261331.6510  -5070388.2471   3848246.5664   2   6   0.1967   0.4503   0.3308  -0.1906  -0.3449   0.1260 -22.00    2.0
2173 195442.000   -261331.6657  -5070388.2346   3848246.5714   2   6   0.1867   0.4273   0.3139  -0.1809  -0.3272   0.1196 -21.00    2.1
2173 195443.000   -261331.6439  -5070388.2658   3848246.5930   2   6   0.1781   0.4075   0.2992  -0.1725  -0.3120   0.1140 -20.00    2.2
2173 195444.000   -261331.6296  -5070388.2574   3848246.5853   2   6   0.1706   0.3902   0.2864  -0.1652  -0.2987   0.1092 -19.00    2.2
2173 195445.000   -261331.6343  -5070388.2729   3848246.6102   2   6   0.1639   0.3748   0.2751  -0.1587  -0.2869   0.1049 -18.00    2.3
2173 195446.000   -261331.6416  -5070388.2890   3848246.6287   2   6   0.1579   0.3612   0.2650  -0.1530  -0.2764   0.1010 -17.00    2.4
2173 195447.000   -261331.6434  -5070388.3289   3848246.6493   2   6   0.1525   0.3488   0.2559  -0.1477  -0.2669   0.0975 -16.00    2.5
2173 195448.000   -261331.6361  -5070388.3357   3848246.6647   2   6   0.1476   0.3377   0.2476  -0.1430  -0.2583   0.0944 -15.00    2.6
2173 195449.000   -261331.6431  -5070388.3074   3848246.6555   2   6   0.1431   0.3275   0.2401  -0.1387  -0.2505   0.0915 -14.00    2.5
2173 195450.000   -261331.6542  -5070388.3216   3848246.6816   2   6   0.1391   0.3181   0.2332  -0.1347  -0.2433   0.0888 -13.00    2.6
2173 195451.000   -261331.6608  -5070388.3078   3848246.6654   2   6   0.1353   0.3095   0.2268  -0.1310  -0.2367   0.0864 -12.00    2.5
2173 195452.000   -261331.6534  -5070388.3172   3848246.6745   2   6   0.1318   0.3016   0.2209  -0.1276  -0.2305   0.0841 -11.00    2.4
2173 195453.000   -261331.6602  -5070388.2952   3848246.6561   2   6   0.1285   0.2942   0.2154  -0.1244  -0.2248   0.0820 -10.00    2.3
2173 195454.000   -261331.6484  -5070388.2935   3848246.6680   2   6   0.1255   0.2872   0.2103  -0.1215  -0.2195   0.0800  -9.00    2.3
2173 195455.000   -261331.6407  -5070388.2909   3848246.6722   2   6   0.1227   0.2808   0.2055  -0.1187  -0.2146   0.0782  -8.00    2.1
2173 195456.000   -261331.6434  -5070388.2728   3848246.6540   2   6   0.1200   0.2747   0.2010  -0.1162  -0.2099   0.0764  -7.00    2.0
2173 195457.000   -261331.6524  -5070388.2532   3848246.6434   2   6   0.1175   0.2691   0.1968  -0.1137  -0.2055   0.0748  -6.00    1.9
2173 195458.000   -261331.6590  -5070388.2594   3848246.6512   2   6   0.1152   0.2637   0.1929  -0.1115  -0.2014   0.0733  -5.00    1.7
2173 195459.000   -261331.6664  -5070388.2321   3848246.6340   2   6   0.1130   0.2586   0.1891  -0.1093  -0.1975   0.0718  -4.00    1.6
2173 195460.000   -261331.6686  -5070388.2272   3848246.6227   2   6   0.1109   0.2539   0.1856  -0.1073  -0.1938   0.0705  -3.00    1.5
2173 195461.000   -261331.6688  -5070388.2377   3848246.6323   2   6   0.1090   0.2493   0.1822  -0.1054  -0.1903   0.0692  -2.00    1.4
2173 195462.000   -261331.6667  -5070388.2417   3848246.6385   2   6   0.1071   0.2451   0.1790  -0.1036  -0.1870   0.0680  -1.00    1.3
2173 195463.000   -261331.6671  -5070388.2412   3848246.6504   2   6   0.1054   0.2410   0.1760  -0.1019  -0.1839   0.0668   0.00    1.2
2173 195464.000   -261331.6783  -5070388.2536   3848246.6632   2   6   0.1037   0.2372   0.1732  -0.1003  -0.1809   0.0657   0.00    1.1
2173 195465.000   -261331.6890  -5070388.2373   3848246.6555   2   6   0.1022   0.2335   0.1705  -0.0987  -0.1781   0.0647   0.00    1.0
2173 195466.000   -261331.6911  -5070388.2323   3848246.6630   2   6   0.1007   0.2300   0.1679  -0.0973  -0.1753   0.0637   0.00    1.0
2173 195467.000   -261331.6848  -5070388.2536   3848246.6683   2   7   0.0978   0.2225   0.1641  -0.0921  -0.1701   0.0599   0.00    1.1
2173 195468.000   -261331.6985  -5070388.2218   3848246.6497   2   7   0.0953   0.2158   0.1605  -0.0875  -0.1654   0.0566   0.00    1.1
2173 195469.000   -261331.6993  -5070388.2635   3848246.6730   2   7   0.0930   0.2098   0.1573  -0.0833  -0.1612   0.0535   0.00    1.2
2173 195470.000   -261331.6996  -5070388.2761   3848246.6898   2   7   0.0908   0.2043   0.1543  -0.0796  -0.1573   0.0508   0.00    1.2
2173 195471.000   -261331.7045  -5070388.2891   3848246.7037   2   7   0.0889   0.1992   0.1515  -0.0762  -0.1537   0.0483   0.00    1.2
2173 195472.000   -261331.7135  -5070388.2817   3848246.7030   2   7   0.0871   0.1946   0.1489  -0.0731  -0.1503   0.0460   0.00    1.2
2173 195473.000   -261331.7236  -5070388.2952   3848246.7188   2   7   0.0854   0.1902   0.1464  -0.0702  -0.1472   0.0439   0.00    1.2
2173 195474.000   -261331.7287  -5070388.2970   3848246.7265   2   7   0.0838   0.1862   0.1440  -0.0675  -0.1443   0.0419   0.00    1.3
2173 195475.000   -261331.7296  -5070388.2915   3848246.7291   2   7   0.0823   0.1824   0.1418  -0.0651  -0.1416   0.0401   0.00    1.3
2173 195476.000   -261331.7303  -5070388.2923   3848246.7334   2   7   0.0809   0.1789   0.1397  -0.0628  -0.1390   0.0384   0.00    1.3
2173 195477.000   -261331.7327  -5070388.2989   3848246.7372   2   7   0.0796   0.1755   0.1376  -0.0607  -0.1366   0.0368   0.00    1.3
2173 195478.000   -261331.7420  -5070388.2832   3848246.7329   2   7   0.0783   0.1724   0.1357  -0.0587  -0.1343   0.0353   0.00    1.3
2173 195479.000   -261331.7443  -5070388.2658   3848246.7285   2   7   0.0771   0.1694   0.1338  -0.0568  -0.1321   0.0339   0.00    1.3
2173 195480.000   -261331.7462  -5070388.2552   3848246.7206   2   7   0.0760   0.1666   0.1320  -0.0550  -0.1300   0.0326   0.00    1.3
2173 195481.000   -261331.7570  -5070388.2275   3848246.7107   2   7   0.0750   0.1639   0.1303  -0.0534  -0.1280   0.0313   0.00    1.3
2173 195482.000   -261331.7602  -5070388.2377   3848246.7297   2   7   0.0739   0.1613   0.1287  -0.0518  -0.1261   0.0301   0.00    1.3
2173 195483.000   -261331.7659  -5070388.2386   3848246.7430   2   7   0.0730   0.1589   0.1270  -0.0503  -0.1242   0.0289   0.00    1.3
2173 195484.000   -261331.7715  -5070388.2463   3848246.7512   2   7   0.0720   0.1565   0.1255  -0.0489  -0.1225   0.0278   0.00    1.3
2173 195485.000   -261331.7648  -5070388.2409   3848246.7500   2   7   0.0711   0.1543   0.1240  -0.0475  -0.1208   0.0269   0.00    1.3
2173 195486.000   -261331.7637  -5070388.2464   3848246.7523   2   7   0.0703   0.1521   0.1225  -0.0463  -0.1192   0.0259   0.00    1.3
2173 195487.000   -261331.7711  -5070388.2405   3848246.7468   2   7   0.0694   0.1501   0.1211  -0.0451  -0.1176   0.0249   0.00    1.3
2173 195488.000   -261331.7790  -5070388.2163   3848246.7338   2   7   0.0686   0.1481   0.1198  -0.0439  -0.1161   0.0240   0.00    1.3
2173 195489.000   -261331.7828  -5070388.2061   3848246.7266   2   7   0.0679   0.1462   0.1184  -0.0428  -0.1147   0.0231   0.00    1.3
2173 195490.000   -261331.7870  -5070388.2040   3848246.7228   2   7   0.0671   0.1443   0.1171  -0.0418  -0.1132   0.0224   0.00    1.4
2173 195491.000   -261331.7856  -5070388.1917   3848246.7137   2   7   0.0664   0.1426   0.1159  -0.0408  -0.1119   0.0215   0.00    1.4
2173 195492.000   -261331.7872  -5070388.1843   3848246.7091   2   7   0.0656   0.1408   0.1146  -0.0398  -0.1106   0.0207   0.00    1.4
2173 195493.000   -261331.7910  -5070388.1695   3848246.6984   2   7   0.0650   0.1392   0.1134  -0.0389  -0.1093   0.0200   0.00    1.4
2173 195494.000   -261331.7977  -5070388.1662   3848246.6907   2   7   0.0643   0.1376   0.1123  -0.0380  -0.1080   0.0192   0.00    1.4
2173 195495.000   -261331.8003  -5070388.1382   3848246.6733   2   7   0.0637   0.1360   0.1111  -0.0372  -0.1068   0.0186   0.00    1.4
2173 195496.000   -261331.8055  -5070388.0964   3848246.6272   2   7   0.0631   0.1345   0.1100  -0.0364  -0.1056   0.0178   0.00    1.4
2173 195497.000   -261331.8079  -5070388.0806   3848246.6081   2   7   0.0625   0.1331   0.1089  -0.0356  -0.1045   0.0172   0.00    1.4
2173 195498.000   -261331.8041  -5070388.0802   3848246.5990   2   7   0.0619   0.1317   0.1078  -0.0349  -0.1034   0.0166   0.00    1.4
2173 195499.000   -261331.8035  -5070388.0698   3848246.5833   2   7   0.0613   0.1303   0.1068  -0.0341  -0.1023   0.0159   0.00    1.4
2173 195500.000   -261331.7956  -5070388.0459   3848246.5704   2   7   0.0608   0.1289   0.1058  -0.0334  -0.1012   0.0154   0.00    1.4
2173 195501.000   -261331.7959  -5070388.0311   3848246.5576   2   7   0.0603   0.1276   0.1047  -0.0327  -0.1002   0.0147   0.00    1.4
2173 195502.000   -261331.8024  -5070388.0120   3848246.5359   2   7   0.0598   0.1263   0.1038  -0.0321  -0.0991   0.0142   0.00    1.4
2173 195503.000   -261331.8066  -5070387.9858   3848246.5148   2   7   0.0593   0.1251   0.1028  -0.0314  -0.0981   0.0136   0.00    1.4
2173 195504.000   -261331.8095  -5070387.9888   3848246.5149   2   7   0.0588   0.1239   0.1018  -0.0308  -0.0972   0.0130   0.00    1.4
2173 195505.000   -261331.8084  -5070387.9923   3848246.5136   2   7   0.0583   0.1227   0.1009  -0.0302  -0.0962   0.0126   0.00    1.4
2173 195506.000   -261331.8083  -5070388.0150   3848246.5300   2   7   0.0578   0.1216   0.1000  -0.0296  -0.0953   0.0120   0.00    1.4
2173 195507.000   -261331.8048  -5070388.0131   3848246.5283   2   7   0.0574   0.1205   0.0991  -0.0291  -0.0944   0.0114   0.00    1.4
2173 195508.000   -261331.8134  -5070387.9983   3848246.5218   2   7   0.0570   0.1194   0.0982  -0.0285  -0.0935   0.0109   0.00    1.4
2173 195509.000   -261331.8165  -5070387.9757   3848246.5055   2   7   0.0565   0.1183   0.0973  -0.0280  -0.0926   0.0103   0.00    1.4
2173 195510.000   -261331.8215  -5070387.9610   3848246.4926   2   7   0.0561   0.1172   0.0965  -0.0275  -0.0917   0.0099   0.00    1.4
2173 195511.000   -261331.8275  -5070387.9400   3848246.4741   2   7   0.0557   0.1162   0.0956  -0.0270  -0.0909   0.0094   0.00    1.4
2173 195512.000   -261331.8303  -5070387.9179   3848246.4513   2   7   0.0553   0.1152   0.0948  -0.0265  -0.0901   0.0088   0.00    1.4
2173 195513.000   -261331.8322  -5070387.9031   3848246.4352   2   7   0.0549   0.1142   0.0940  -0.0260  -0.0893   0.0085   0.00    1.3
2173 195514.000   -261331.8288  -5070387.8952   3848246.4277   2   7   0.0545   0.1133   0.0932  -0.0256  -0.0885   0.0079   0.00    1.3
2173 195515.000   -261331.8231  -5070387.8928   3848246.4212   2   7   0.0541   0.1123   0.0924  -0.0252  -0.0877   0.0073   0.00    1.3
2173 195516.000   -261331.8214  -5070387.8933   3848246.4176   2   7   0.0538   0.1114   0.0916  -0.0247  -0.0869   0.0066   0.00    1.3
2173 195517.000   -261331.8212  -5070387.8845   3848246.4084   2   7   0.0534   0.1105   0.0909  -0.0243  -0.0862   0.0061   0.00    1.3
2173 195518.000   -261331.8195  -5070387.8684   3848246.3911   2   7   0.0530   0.1096   0.0901  -0.0239  -0.0854   0.0057   0.00    1.3
2173 195519.000   -261331.8218  -5070387.8582   3848246.3800   2   7   0.0527   0.1088   0.0894  -0.0235  -0.0847   0.0050   0.00    1.3
2173 195520.000   -261331.8215  -5070387.8440   3848246.3678   2   7   0.0523   0.1079   0.0886  -0.0231  -0.0840   0.0046   0.00    1.3
2173 195521.000   -261331.8234  -5070387.8268   3848246.3549   2   7   0.0520   0.1071   0.0879  -0.0227  -0.0833   0.0033   0.00    1.3
2173 195522.000   -261331.8256  -5070387.8172   3848246.3473   2   7   0.0517   0.1062   0.0872  -0.0223  -0.0825   0.0033   0.00    1.3
2173 195523.000   -261331.8249  -5070387.8112   3848246.3455   2   7   0.0514   0.1054   0.0865  -0.0220  -0.0819   0.0020   0.00    1.2
2173 195524.000   -261331.8272  -5070387.8063   3848246.3340   2   7   0.0510   0.1046   0.0858  -0.0216  -0.0812  -0.0016   0.00    1.2
2173 195525.000   -261331.8277  -5070387.7972   3848246.3217   2   7   0.0507   0.1039   0.0851  -0.0212  -0.0805  -0.0023   0.00    1.2
2173 195526.000   -261331.8291  -5070387.7871   3848246.3107   2   7   0.0504   0.1031   0.0844  -0.0209  -0.0799  -0.0031   0.00    1.2
2173 195527.000   -261331.8262  -5070387.7783   3848246.2972   2   7   0.0501   0.1023   0.0837  -0.0206  -0.0792  -0.0037   0.00    1.2
2173 195528.000   -261331.8245  -5070387.7752   3848246.2900   2   7   0.0498   0.1016   0.0830  -0.0202  -0.0786  -0.0042   0.00    1.2
2173 195529.000   -261331.8244  -5070387.7646   3848246.2814   2   7   0.0495   0.1009   0.0824  -0.0200  -0.0779  -0.0045   0.00    1.2
2173 195530.000   -261331.8228  -5070387.7572   3848246.2714   2   7   0.0492   0.1001   0.0818  -0.0196  -0.0773  -0.0047   0.00    1.2
2173 195531.000   -261331.8193  -5070387.7530   3848246.2671   2   7   0.0489   0.0994   0.0811  -0.0193  -0.0767  -0.0052   0.00    1.2
2173 195532.000   -261331.8180  -5070387.7500   3848246.2614   2   7   0.0487   0.0987   0.0805  -0.0190  -0.0761  -0.0057   0.00    1.2
2173 195533.000   -261331.8175  -5070387.7554   3848246.2689   2   7   0.0484   0.0981   0.0798  -0.0187  -0.0755  -0.0062   0.00    1.2
2173 195534.000   -261331.8148  -5070387.7653   3848246.2750   2   7   0.0482   0.0974   0.0792  -0.0185  -0.0749  -0.0061   0.00    1.2
2173 195535.000   -261331.8169  -5070387.7706   3848246.2862   2   7   0.0479   0.0967   0.0786  -0.0181  -0.0743  -0.0063   0.00    1.2
2173 195536.000   -261331.8183  -5070387.7787   3848246.2948   2   7   0.0476   0.0961   0.0780  -0.0178  -0.0738  -0.0067   0.00    1.2
2173 195537.000   -261331.8153  -5070387.7762   3848246.2985   2   7   0.0474   0.0954   0.0774  -0.0176  -0.0732  -0.0068   0.00    1.1
2173 195538.000   -261331.8216  -5070387.7789   3848246.3072   2   7   0.0472   0.0948   0.0768  -0.0174  -0.0726  -0.0069   0.00    1.1
2173 195539.000   -261331.8227  -5070387.7895   3848246.3143   2   7   0.0469   0.0942   0.0762  -0.0170  -0.0721  -0.0069   0.00    1.1
2173 195540.000   -261331.8208  -5070387.8014   3848246.3321   2   7   0.0466   0.0936   0.0757  -0.0168  -0.0715  -0.0074   0.00    1.1
2173 195541.000   -261331.8215  -5070387.8098   3848246.3460   2   7   0.0464   0.0929   0.0751  -0.0166  -0.0710  -0.0075   0.00    1.1
2173 195542.000   -261331.8237  -5070387.8260   3848246.3669   2   7   0.0461   0.0923   0.0745  -0.0162  -0.0705  -0.0075   0.00    1.1
2173 195543.000   -261331.8227  -5070387.8359   3848246.3762   2   7   0.0459   0.0918   0.0740  -0.0160  -0.0700  -0.0075   0.00    1.1
2173 195544.000   -261331.8220  -5070387.8323   3848246.3749   2   7   0.0457   0.0912   0.0734  -0.0158  -0.0694  -0.0078   0.00    1.1
2173 195545.000   -261331.8278  -5070387.8209   3848246.3663   2   7   0.0455   0.0906   0.0729  -0.0155  -0.0689  -0.0079   0.00    1.1
2173 195546.000   -261331.8299  -5070387.8218   3848246.3655   2   7   0.0452   0.0900   0.0724  -0.0154  -0.0684  -0.0079   0.00    1.1
2173 195547.000   -261331.8244  -5070387.8325   3848246.3740   2   7   0.0450   0.0895   0.0718  -0.0150  -0.0679  -0.0080   0.00    1.1
2173 195548.000   -261331.8266  -5070387.8241   3848246.3725   2   7   0.0448   0.0889   0.0713  -0.0149  -0.0674  -0.0081   0.00    1.1
2173 195549.000   -261331.8252  -5070387.8228   3848246.3701   2   7   0.0446   0.0884   0.0708  -0.0146  -0.0669  -0.0082   0.00    1.1
2173 195550.000   -261331.8270  -5070387.8156   3848246.3660   2   7   0.0444   0.0878   0.0702  -0.0144  -0.0665  -0.0083   0.00    1.1
2173 195551.000   -261331.8292  -5070387.8089   3848246.3608   2   7   0.0442   0.0873   0.0697  -0.0142  -0.0660  -0.0083   0.00    1.1
2173 195552.000   -261331.8339  -5070387.8155   3848246.3649   2   7   0.0440   0.0868   0.0692  -0.0140  -0.0655  -0.0084   0.00    1.1
2173 195553.000   -261331.8322  -5070387.8188   3848246.3690   2   7   0.0438   0.0863   0.0687  -0.0137  -0.0650  -0.0084   0.00    1.1
2173 195554.000   -261331.8271  -5070387.8263   3848246.3762   2   7   0.0435   0.0858   0.0682  -0.0135  -0.0646  -0.0085   0.00    1.1
2173 195555.000   -261331.8282  -5070387.8288   3848246.3813   2   7   0.0433   0.0852   0.0677  -0.0132  -0.0641  -0.0084   0.00    1.1
2173 195556.000   -261331.8344  -5070387.8422   3848246.3765   2   7   0.0433   0.0848   0.0673  -0.0131  -0.0637  -0.0086   0.00    1.1
2173 195557.000   -261331.8346  -5070387.8363   3848246.3701   2   7   0.0430   0.0843   0.0668  -0.0128  -0.0632  -0.0085   0.00    1.1
2173 195558.000   -261331.8363  -5070387.8330   3848246.3697   2   7   0.0429   0.0838   0.0663  -0.0128  -0.0628  -0.0088   0.00    1.1
2173 195559.000   -261331.8390  -5070387.8132   3848246.3562   2   7   0.0426   0.0833   0.0658  -0.0125  -0.0624  -0.0087   0.00    1.0
2173 195560.000   -261331.8387  -5070387.8022   3848246.3482   2   7   0.0424   0.0828   0.0653  -0.0123  -0.0619  -0.0087   0.00    1.0
2173 195561.000   -261331.8405  -5070387.7951   3848246.3390   2   7   0.0422   0.0824   0.0649  -0.0121  -0.0615  -0.0087   0.00    1.0
2173 195562.000   -261331.8401  -5070387.7896   3848246.3398   2   7   0.0421   0.0819   0.0644  -0.0118  -0.0611  -0.0089   0.00    1.0
2173 195563.000   -261331.8444  -5070387.7883   3848246.3413   2   7   0.0419   0.0815   0.0640  -0.0118  -0.0607  -0.0088   0.00    1.0
2173 195564.000   -261331.8431  -5070387.7889   3848246.3457   2   7   0.0417   0.0810   0.0635  -0.0115  -0.0603  -0.0088   0.00    1.0
2173 195565.000   -261331.8504  -5070387.7749   3848246.3359   2   7   0.0416   0.0806   0.0631  -0.0114  -0.0599  -0.0090   0.00    1.0
2173 195566.000   -261331.8518  -5070387.7624   3848246.3245   2   7   0.0414   0.0801   0.0626  -0.0110  -0.0595  -0.0089   0.00    1.0
2173 195567.000   -261331.8563  -5070387.7462   3848246.3110   2   7   0.0413   0.0797   0.0622  -0.0111  -0.0591  -0.0089   0.00    1.0
2173 195568.000   -261331.8590  -5070387.7321   3848246.3002   2   7   0.0411   0.0793   0.0618  -0.0108  -0.0587  -0.0090   0.00    1.0
2173 195569.000   -261331.8568  -5070387.7295   3848246.2955   2   7   0.0409   0.0788   0.0613  -0.0107  -0.0583  -0.0091   0.00    1.0
2173 195570.000   -261331.8552  -5070387.7240   3848246.2886   2   7   0.0407   0.0784   0.0609  -0.0102  -0.0579  -0.0088   0.00    1.0
2173 195571.000   -261331.8525  -5070387.7174   3848246.2846   2   7   0.0405   0.0780   0.0605  -0.0102  -0.0575  -0.0092   0.00    1.0
2173 195572.000   -261331.8578  -5070387.7138   3848246.2828   2   7   0.0404   0.0776   0.0601  -0.0099  -0.0571  -0.0089   0.00    1.0
2173 195573.000   -261331.8565  -5070387.7085   3848246.2799   2   7   0.0402   0.0772   0.0597  -0.0097  -0.0568  -0.0091   0.00    1.0
2173 195574.000   -261331.8577  -5070387.7034   3848246.2705   2   7   0.0401   0.0768   0.0593  -0.0096  -0.0564  -0.0090   0.00    1.0
2173 195575.000   -261331.8514  -5070387.6516   3848246.2372   2   7   0.0400   0.0764   0.0589  -0.0096  -0.0560  -0.0092   0.00    1.0
2173 195576.000   -261331.8477  -5070387.6451   3848246.2208   2   7   0.0398   0.0760   0.0585  -0.0092  -0.0557  -0.0091   0.00    1.0
2173 195577.000   -261331.8438  -5070387.6508   3848246.2197   2   7   0.0396   0.0756   0.0581  -0.0091  -0.0553  -0.0091   0.00    1.1
2173 195578.000   -261331.8430  -5070387.6470   3848246.2091   2   7   0.0395   0.0752   0.0577  -0.0089  -0.0550  -0.0090   0.00    1.1
2173 195579.000   -261331.8416  -5070387.6451   3848246.2037   2   7   0.0393   0.0748   0.0573  -0.0088  -0.0546  -0.0091   0.00    1.1
2173 195580.000   -261331.8458  -5070387.6356   3848246.1898   2   7   0.0392   0.0745   0.0569  -0.0085  -0.0543  -0.0092   0.00    1.1
2173 195581.000   -261331.8455  -5070387.6196   3848246.1703   2   7   0.0390   0.0741   0.0565  -0.0084  -0.0539  -0.0091   0.00    1.1
2173 195582.000   -261331.8448  -5070387.6074   3848246.1549   2   7   0.0389   0.0737   0.0561  -0.0081  -0.0536  -0.0092   0.00    1.1
2173 195583.000   -261331.8454  -5070387.6004   3848246.1405   2   7   0.0387   0.0734   0.0558  -0.0080  -0.0532  -0.0091   0.00    1.1
2173 195584.000   -261331.8450  -5070387.5928   3848246.1244   2   7   0.0386   0.0730   0.0554  -0.0078  -0.0529  -0.0092   0.00    1.1
2173 195585.000   -261331.8451  -5070387.5809   3848246.1115   2   7   0.0385   0.0726   0.0551  -0.0076  -0.0526  -0.0092   0.00    1.1
2173 195586.000   -261331.8439  -5070387.5675   3848246.0960   2   7   0.0383   0.0723   0.0547  -0.0075  -0.0523  -0.0091   0.00    1.1
2173 195587.000   -261331.8406  -5070387.5561   3848246.0765   2   7   0.0382   0.0719   0.0543  -0.0072  -0.0520  -0.0092   0.00    1.1
2173 195588.000   -261331.8434  -5070387.5438   3848246.0651   2   7   0.0380   0.0716   0.0540  -0.0072  -0.0516  -0.0092   0.00    1.1
2173 195589.000   -261331.8396  -5070387.5492   3848246.0566   2   7   0.0379   0.0712   0.0536  -0.0070  -0.0513  -0.0091   0.00    1.1
2173 195590.000   -261331.8347  -5070387.5473   3848246.0510   2   7   0.0378   0.0709   0.0533  -0.0066  -0.0510  -0.0091   0.00    1.1
2173 195591.000   -261331.8366  -5070387.5395   3848246.0446   2   7   0.0377   0.0706   0.0530  -0.0066  -0.0507  -0.0091   0.00    1.1
2173 195592.000   -261331.8341  -5070387.5350   3848246.0321   2   7   0.0375   0.0702   0.0526  -0.0063  -0.0504  -0.0091   0.00    1.1
2173 195593.000   -261331.8343  -5070387.5415   3848246.0323   2   7   0.0374   0.0699   0.0523  -0.0060  -0.0501  -0.0090   0.00    1.1
2173 195594.000   -261331.8389  -5070387.5279   3848246.0218   2   7   0.0373   0.0696   0.0520  -0.0061  -0.0498  -0.0091   0.00    1.1
2173 195595.000   -261331.8353  -5070387.5322   3848246.0193   2   7   0.0372   0.0693   0.0516  -0.0060  -0.0495  -0.0092   0.00    1.1
2173 195596.000   -261331.8347  -5070387.5272   3848246.0137   2   7   0.0370   0.0689   0.0513  -0.0054  -0.0492  -0.0090   0.00    1.1
2173 195597.000   -261331.8337  -5070387.5198   3848246.0024   2   7   0.0369   0.0686   0.0509  -0.0054  -0.0489  -0.0092   0.00    1.1
2173 195598.000   -261331.8362  -5070387.5036   3848245.9827   2   7   0.0368   0.0683   0.0506  -0.0052  -0.0486  -0.0091   0.00    1.1
2173 195599.000   -261331.8338  -5070387.4944   3848245.9707   2   7   0.0367   0.0680   0.0503  -0.0050  -0.0483  -0.0090   0.00    1.1
2173 195600.000   -261331.8327  -5070387.4841   3848245.9565   2   7   0.0365   0.0677   0.0500  -0.0046  -0.0480  -0.0091   0.00    1.1
2173 195601.000   -261331.8332  -5070387.4754   3848245.9445   2   7   0.0364   0.0674   0.0497  -0.0046  -0.0478  -0.0090   0.00    1.1
2173 195602.000   -261331.8269  -5070387.4663   3848245.9322   2   7   0.0363   0.0671   0.0494  -0.0041  -0.0475  -0.0090   0.00    1.1
2173 195603.000   -261331.8271  -5070387.4593   3848245.9169   2   7   0.0362   0.0668   0.0491  -0.0038  -0.0472  -0.0090   0.00    1.1
2173 195604.000   -261331.8222  -5070387.4503   3848245.9061   2   7   0.0361   0.0665   0.0488  -0.0037  -0.0469  -0.0090   0.00    1.1
2173 195605.000   -261331.8200  -5070387.4470   3848245.8934   2   7   0.0360   0.0662   0.0485  -0.0035  -0.0467  -0.0090   0.00    1.1
2173 195606.000   -261331.8216  -5070387.4472   3848245.8837   2   7   0.0358   0.0659   0.0481  -0.0031  -0.0464  -0.0090   0.00    1.1
2173 195607.000   -261331.8185  -5070387.4478   3848245.8760   2   7   0.0357   0.0656   0.0479  -0.0029  -0.0461  -0.0089   0.00    1.0
2173 195608.000   -261331.8156  -5070387.4527   3848245.8846   2   7   0.0357   0.0654   0.0476  -0.0026  -0.0459  -0.0090   0.00    1.0
2173 195609.000   -261331.8161  -5070387.4523   3848245.8797   2   7   0.0355   0.0651   0.0473  -0.0024  -0.0456  -0.0089   0.00    1.0
2173 195610.000   -261331.8157  -5070387.4413   3848245.8771   2   7   0.0354   0.0648   0.0470  -0.0011  -0.0454  -0.0090   0.00    1.0
2173 195611.000   -261331.8157  -5070387.4485   3848245.8827   2   7   0.0352   0.0645   0.0467  -0.0013  -0.0451  -0.0090   0.00    1.0
2173 195612.000   -261331.8144  -5070387.4401   3848245.8761   2   7   0.0351   0.0642   0.0465   0.0021  -0.0449  -0.0089   0.00    1.0
2173 195613.000   -261331.8179  -5070387.4276   3848245.8660   2   7   0.0351   0.0640   0.0462   0.0015  -0.0446  -0.0089   0.00    1.0
2173 195614.000   -261331.8171  -5070387.4103   3848245.8493   2   7   0.0349   0.0637   0.0459   0.0026  -0.0444  -0.0087   0.00    1.0
2173 195615.000   -261331.8197  -5070387.3993   3848245.8345   2   7   0.0348   0.0634   0.0456   0.0023  -0.0441  -0.0089   0.00    1.0
2173 195616.000   -261331.8178  -5070387.3778   3848245.8060   2   7   0.0347   0.0632   0.0453   0.0026  -0.0439  -0.0088   0.00    1.0
2173 195617.000   -261331.8207  -5070387.3602   3848245.7851   2   7   0.0346   0.0629   0.0451   0.0029  -0.0436  -0.0089   0.00    1.0
2173 195618.000   -261331.8192  -5070387.3543   3848245.7760   2   7   0.0345   0.0627   0.0448   0.0036  -0.0434  -0.0088   0.00    1.0
2173 195619.000   -261331.8207  -5070387.3516   3848245.7730   2   7   0.0344   0.0624   0.0445   0.0037  -0.0432  -0.0090   0.00    1.0
2173 195620.000   -261331.8194  -5070387.3526   3848245.7698   2   7   0.0343   0.0621   0.0443   0.0038  -0.0430  -0.0089   0.00    1.0
2173 195621.000   -261331.8200  -5070387.3494   3848245.7685   2   7   0.0342   0.0619   0.0440   0.0041  -0.0427  -0.0088   0.00    1.0
2173 195622.000   -261331.8173  -5070387.3580   3848245.7770   2   7   0.0341   0.0616   0.0438   0.0041  -0.0425  -0.0085   0.00    1.0
2173 195623.000   -261331.8165  -5070387.3446   3848245.7712   2   7   0.0340   0.0614   0.0435   0.0044  -0.0423  -0.0088   0.00    1.0
2173 195624.000   -261331.8187  -5070387.3372   3848245.7661   2   7   0.0339   0.0611   0.0433   0.0047  -0.0420  -0.0087   0.00    1.0
2173 195625.000   -261331.8177  -5070387.3329   3848245.7646   2   7   0.0339   0.0609   0.0430   0.0047  -0.0418  -0.0087   0.00    1.0
2173 195626.000   -261331.8160  -5070387.3315   3848245.7573   2   7   0.0337   0.0607   0.0428   0.0051  -0.0416  -0.0087   0.00    1.0
2173 195627.000   -261331.8193  -5070387.3201   3848245.7541   2   7   0.0336   0.0604   0.0425   0.0050  -0.0414  -0.0087   0.00    1.0
2173 195628.000   -261331.8209  -5070387.3200   3848245.7571   2   7   0.0336   0.0602   0.0423   0.0051  -0.0412  -0.0088   0.00    1.0
2173 195629.000   -261331.8182  -5070387.3210   3848245.7590   2   7   0.0335   0.0600   0.0420   0.0052  -0.0409  -0.0087   0.00    1.0
2173 195630.000   -261331.8207  -5070387.3129   3848245.7554   2   7   0.0334   0.0597   0.0418   0.0054  -0.0407  -0.0086   0.00    1.0
2173 195631.000   -261331.8214  -5070387.3003   3848245.7451   2   7   0.0332   0.0595   0.0416   0.0055  -0.0405  -0.0087   0.00    1.0
2173 195632.000   -261331.8259  -5070387.2981   3848245.7445   2   7   0.0331   0.0592   0.0413   0.0058  -0.0403  -0.0088   0.00    1.0
2173 195633.000   -261331.8296  -5070387.2913   3848245.7370   2   7   0.0330   0.0590   0.0411   0.0059  -0.0401  -0.0087   0.00    1.0
2173 195634.000   -261331.8314  -5070387.2788   3848245.7229   2   7   0.0330   0.0588   0.0409   0.0060  -0.0399  -0.0086   0.00    1.0
2173 195635.000   -261331.8312  -5070387.2646   3848245.7133   2   7   0.0329   0.0586   0.0406   0.0061  -0.0397  -0.0085   0.00    1.0
2173 195636.000   -261331.8333  -5070387.2490   3848245.6988   2   7   0.0328   0.0583   0.0404   0.0063  -0.0395  -0.0086   0.00    1.0
2173 195637.000   -261331.8351  -5070387.2327   3848245.6832   2   7   0.0327   0.0581   0.0402   0.0063  -0.0393  -0.0086   0.00    1.0
2173 195638.000   -261331.8367  -5070387.2152   3848245.6690   2   7   0.0326   0.0579   0.0399   0.0063  -0.0391  -0.0087   0.00    1.0
2173 195639.000   -261331.8386  -5070387.2090   3848245.6641   2   7   0.0325   0.0577   0.0397   0.0063  -0.0389  -0.0086   0.00    1.0
2173 195640.000   -261331.8367  -5070387.2095   3848245.6636   2   7   0.0324   0.0575   0.0395   0.0065  -0.0387  -0.0086   0.00    1.0
2173 195641.000   -261331.8383  -5070387.1883   3848245.6433   2   7   0.0323   0.0573   0.0393   0.0067  -0.0385  -0.0085   0.00    1.0
2173 195642.000   -261331.8365  -5070387.1829   3848245.6363   2   7   0.0323   0.0571   0.0391   0.0064  -0.0383  -0.0086   0.00    1.0
2173 195643.000   -261331.8378  -5070387.1686   3848245.6308   2   7   0.0322   0.0568   0.0389   0.0067  -0.0382  -0.0085   0.00    1.0
2173 195644.000   -261331.8416  -5070387.1589   3848245.6179   2   7   0.0321   0.0566   0.0387   0.0067  -0.0380  -0.0084   0.00    1.0
2173 195645.000   -261331.8424  -5070387.1518   3848245.6090   2   7   0.0320   0.0564   0.0385   0.0069  -0.0378  -0.0084   0.00    1.0
2173 195646.000   -261331.8426  -5070387.1414   3848245.5974   2   7   0.0319   0.0562   0.0382   0.0071  -0.0377  -0.0084   0.00    1.0
2173 195647.000   -261331.8395  -5070387.1429   3848245.5981   2   7   0.0318   0.0560   0.0381   0.0072  -0.0375  -0.0084   0.00    1.1
2173 195648.000   -261331.8342  -5070387.1483   3848245.6015   2   7   0.0318   0.0558   0.0378   0.0072  -0.0373  -0.0084   0.00    1.1
2173 195649.000   -261331.8374  -5070387.1451   3848245.6033   2   7   0.0316   0.0556   0.0376   0.0072  -0.0371  -0.0085   0.00    1.1
2173 195650.000   -261331.8348  -5070387.1509   3848245.6106   2   7   0.0316   0.0554   0.0375   0.0075  -0.0369  -0.0082   0.00    1.1
2173 195651.000   -261331.8349  -5070387.1473   3848245.6113   2   7   0.0315   0.0552   0.0372   0.0075  -0.0367  -0.0084   0.00    1.1
2173 195652.000   -261331.8357  -5070387.1551   3848245.6175   2   7   0.0314   0.0550   0.0371   0.0073  -0.0365  -0.0084   0.00    1.1
2173 195653.000   -261331.8394  -5070387.1465   3848245.6153   2   7   0.0313   0.0548   0.0368   0.0076  -0.0364  -0.0085   0.00    1.1
2173 195654.000   -261331.8397  -5070387.1631   3848245.6308   2   7   0.0312   0.0546   0.0367   0.0075  -0.0362  -0.0083   0.00    1.1
2173 195655.000   -261331.8408  -5070387.1485   3848245.6242   2   7   0.0312   0.0544   0.0365   0.0076  -0.0361  -0.0084   0.00    1.1
2173 195656.000   -261331.8404  -5070387.1557   3848245.6321   2   7   0.0311   0.0543   0.0363   0.0077  -0.0359  -0.0082   0.00    1.1
2173 195657.000   -261331.8417  -5070387.1550   3848245.6397   2   7   0.0310   0.0541   0.0361   0.0076  -0.0357  -0.0084   0.00    1.1
2173 195658.000   -261331.8447  -5070387.1523   3848245.6398   2   7   0.0310   0.0539   0.0360   0.0077  -0.0355  -0.0083   0.00    1.1
2173 195659.000   -261331.8461  -5070387.1476   3848245.6416   2   7   0.0309   0.0537   0.0357   0.0079  -0.0354  -0.0083   0.00    1.1
2173 195660.000   -261331.8494  -5070387.1369   3848245.6278   2   7   0.0308   0.0535   0.0356   0.0079  -0.0352  -0.0082   0.00    1.1
2173 195661.000   -261331.8504  -5070387.1261   3848245.6176   2   7   0.0307   0.0533   0.0353   0.0080  -0.0351  -0.0084   0.00    1.1
2173 195662.000   -261331.8516  -5070387.1139   3848245.6102   2   7   0.0306   0.0532   0.0352   0.0079  -0.0349  -0.0082   0.00    1.1
2173 195663.000   -261331.8514  -5070387.1159   3848245.6124   2   7   0.0305   0.0530   0.0350   0.0082  -0.0348  -0.0083   0.00    1.1
2173 195664.000   -261331.8527  -5070387.1123   3848245.6108   2   7   0.0305   0.0528   0.0348   0.0081  -0.0346  -0.0083   0.00    1.1
2173 195665.000   -261331.8506  -5070387.1039   3848245.6074   2   7   0.0304   0.0526   0.0347   0.0081  -0.0345  -0.0082   0.00    1.1
2173 195666.000   -261331.8489  -5070387.1058   3848245.6050   2   7   0.0303   0.0524   0.0345   0.0084  -0.0343  -0.0082   0.00    1.1
2173 195667.000   -261331.8506  -5070387.1086   3848245.6060   2   7   0.0303   0.0523   0.0344   0.0083  -0.0341  -0.0082   0.00    1.1
2173 195668.000   -261331.8546  -5070387.1147   3848245.6178   2   7   0.0301   0.0521   0.0341   0.0086  -0.0340  -0.0082   0.00    1.1
2173 195669.000   -261331.8521  -5070387.1096   3848245.6167   2   7   0.0301   0.0519   0.0340   0.0084  -0.0339  -0.0082   0.00    1.1
2173 195670.000   -261331.8578  -5070387.1138   3848245.6214   2   7   0.0301   0.0517   0.0339   0.0085  -0.0337  -0.0081   0.00    1.1
2173 195671.000   -261331.8557  -5070387.1154   3848245.6222   2   7   0.0301   0.0516   0.0337   0.0086  -0.0336  -0.0081   0.00    1.1
2173 195672.000   -261331.8553  -5070387.1181   3848245.6249   2   7   0.0299   0.0514   0.0335   0.0084  -0.0334  -0.0082   0.00    1.1
2173 195673.000   -261331.8582  -5070387.1154   3848245.6250   2   7   0.0298   0.0512   0.0333   0.0087  -0.0333  -0.0083   0.00    1.1
2173 195674.000   -261331.8566  -5070387.1103   3848245.6181   2   7   0.0297   0.0511   0.0331   0.0087  -0.0331  -0.0083   0.00    1.1
2173 195675.000   -261331.8580  -5070387.1136   3848245.6212   2   7   0.0296   0.0509   0.0330   0.0088  -0.0330  -0.0081   0.00    1.1
2173 195676.000   -261331.8444  -5070387.1083   3848245.6068   2   7   0.0297   0.0508   0.0329   0.0086  -0.0328  -0.0083   0.00    1.1
2173 195677.000   -261331.8517  -5070387.1114   3848245.6100   2   7   0.0295   0.0506   0.0327   0.0089  -0.0327  -0.0081   0.00    1.1
2173 195678.000   -261331.8470  -5070387.1160   3848245.6111   2   7   0.0294   0.0504   0.0326   0.0090  -0.0326  -0.0081   0.00    1.1
2173 195679.000   -261331.8507  -5070387.1167   3848245.6115   2   7   0.0295   0.0503   0.0324   0.0089  -0.0324  -0.0080   0.00    1.1
2173 195680.000   -261331.8485  -5070387.1094   3848245.6050   2   7   0.0293   0.0501   0.0323   0.0090  -0.0323  -0.0080   0.00    1.1
2173 195681.000   -261331.8543  -5070387.0963   3848245.5975   2   7   0.0292   0.0500   0.0321   0.0090  -0.0322  -0.0082   0.00    1.1
2173 195682.000   -261331.8546  -5070387.0867   3848245.5899   2   7   0.0293   0.0498   0.0320   0.0090  -0.0320  -0.0080   0.00    1.1
2173 195683.000   -261331.8579  -5070387.0844   3848245.5854   2   7   0.0292   0.0497   0.0318   0.0091  -0.0319  -0.0081   0.00    1.1
2173 195684.000   -261331.8571  -5070387.0726   3848245.5763   2   7   0.0291   0.0495   0.0316   0.0090  -0.0318  -0.0081   0.00    1.1
2173 195685.000   -261331.8607  -5070387.0647   3848245.5686   2   7   0.0290   0.0493   0.0315   0.0092  -0.0316  -0.0079   0.00    1.1
2173 195686.000   -261331.8586  -5070387.0571   3848245.5612   2   7   0.0290   0.0492   0.0313   0.0093  -0.0315  -0.0079   0.00    1.1
2173 195687.000   -261331.8248  -5070387.0749   3848245.6123   2   7   0.0289   0.0490   0.0312   0.0092  -0.0314  -0.0081   0.00    1.1
2173 195688.000   -261331.8252  -5070387.0767   3848245.6241   2   7   0.0288   0.0489   0.0310   0.0092  -0.0313  -0.0080   0.00    1.1
2173 195689.000   -261331.8286  -5070387.0860   3848245.6371   2   7   0.0288   0.0487   0.0310   0.0092  -0.0311  -0.0079   0.00    1.1
2173 195690.000   -261331.8280  -5070387.0900   3848245.6476   2   7   0.0286   0.0486   0.0308   0.0093  -0.0310  -0.0076   0.00    1.2
2173 195691.000   -261331.8256  -5070387.1083   3848245.6668   2   7   0.0286   0.0484   0.0306   0.0096  -0.0309  -0.0079   0.00    1.2
2173 195692.000   -261331.8323  -5070387.1138   3848245.6839   2   7   0.0285   0.0483   0.0305   0.0096  -0.0308  -0.0078   0.00    1.2
2173 195693.000   -261331.8350  -5070387.1185   3848245.6932   2   7   0.0286   0.0482   0.0304   0.0094  -0.0306  -0.0079   0.00    1.2
2173 195694.000   -261331.8357  -5070387.1237   3848245.7000   2   7   0.0285   0.0480   0.0302   0.0094  -0.0305  -0.0081   0.00    1.2
2173 195695.000   -261331.8420  -5070387.1276   3848245.7117   2   7   0.0283   0.0479   0.0301   0.0095  -0.0304  -0.0080   0.00    1.2
2173 195696.000   -261331.8472  -5070387.1275   3848245.7233   2   7   0.0283   0.0477   0.0300   0.0095  -0.0303  -0.0079   0.00    1.2
2173 195697.000   -261331.8497  -5070387.1298   3848245.7285   2   7   0.0283   0.0476   0.0298   0.0096  -0.0302  -0.0079   0.00    1.2
2173 195698.000   -261331.8506  -5070387.1419   3848245.7482   2   7   0.0282   0.0474   0.0297   0.0096  -0.0301  -0.0079   0.00    1.2
2173 195699.000   -261331.8485  -5070387.1470   3848245.7601   2   7   0.0282   0.0473   0.0295   0.0096  -0.0299  -0.0078   0.00    1.2
2173 195700.000   -261331.8588  -5070387.1461   3848245.7685   2   7   0.0281   0.0472   0.0295   0.0097  -0.0298  -0.0078   0.00    1.2
2173 195701.000   -261331.8629  -5070387.1461   3848245.7760   2   7   0.0281   0.0470   0.0294   0.0097  -0.0297  -0.0079   0.00    1.2
2173 195702.000   -261331.8634  -5070387.1467   3848245.7857   2   7   0.0279   0.0469   0.0292   0.0097  -0.0296  -0.0079   0.00    1.2
2173 195703.000   -261331.8682  -5070387.1479   3848245.7911   2   7   0.0279   0.0467   0.0291   0.0098  -0.0295  -0.0078   0.00    1.2
2173 195704.000   -261331.8742  -5070387.1421   3848245.7931   2   7   0.0279   0.0466   0.0289   0.0098  -0.0294  -0.0077   0.00    1.2
2173 195705.000   -261331.8766  -5070387.1371   3848245.7967   2   7   0.0277   0.0465   0.0288   0.0098  -0.0293  -0.0078   0.00    1.2
2173 195706.000   -261331.8813  -5070387.1366   3848245.8037   2   7   0.0277   0.0463   0.0287   0.0099  -0.0292  -0.0076   0.00    1.2
2173 195707.000   -261331.8831  -5070387.1395   3848245.8042   2   7   0.0277   0.0462   0.0286   0.0099  -0.0290  -0.0077   0.00    1.2
2173 195708.000   -261331.8815  -5070387.1454   3848245.8162   2   7   0.0276   0.0461   0.0285   0.0101  -0.0289  -0.0078   0.00    1.2
2173 195709.000   -261331.8800  -5070387.1545   3848245.8286   2   7   0.0275   0.0459   0.0283   0.0100  -0.0288  -0.0077   0.00    1.2
2173 195710.000   -261331.8823  -5070387.1639   3848245.8417   2   7   0.0275   0.0458   0.0282   0.0100  -0.0287  -0.0076   0.00    1.2
2173 195711.000   -261331.8831  -5070387.1820   3848245.8642   2   7   0.0274   0.0457   0.0281   0.0101  -0.0286  -0.0078   0.00    1.2
2173 195712.000   -261331.8856  -5070387.1829   3848245.8711   2   7   0.0274   0.0456   0.0280   0.0100  -0.0285  -0.0077   0.00    1.2
2173 195713.000   -261331.8871  -5070387.1818   3848245.8778   2   7   0.0273   0.0454   0.0278   0.0101  -0.0284  -0.0078   0.00    1.2
2173 195714.000   -261331.8954  -5070387.1768   3848245.8817   2   7   0.0272   0.0453   0.0278   0.0102  -0.0283  -0.0075   0.00    1.2
2173 195715.000   -261331.8973  -5070387.1849   3848245.8956   2   7   0.0272   0.0452   0.0276   0.0102  -0.0282  -0.0078   0.00    1.2
2173 195716.000   -261331.8996  -5070387.1818   3848245.8996   2   7   0.0271   0.0450   0.0275   0.0102  -0.0281  -0.0077   0.00    1.2
2173 195717.000   -261331.9002  -5070387.1783   3848245.9001   2   7   0.0272   0.0449   0.0274   0.0102  -0.0280  -0.0077   0.00    1.2
2173 195718.000   -261331.9020  -5070387.1942   3848245.9178   2   7   0.0270   0.0448   0.0273   0.0103  -0.0279  -0.0075   0.00    1.2
2173 195719.000   -261331.9023  -5070387.2000   3848245.9259   2   7   0.0269   0.0447   0.0272   0.0104  -0.0278  -0.0075   0.00    1.2
2173 195720.000   -261331.9061  -5070387.2014   3848245.9357   2   7   0.0271   0.0446   0.0271   0.0102  -0.0277  -0.0077   0.00    1.2
2173 195721.000   -261331.9086  -5070387.1996   3848245.9380   2   7   0.0269   0.0444   0.0270   0.0103  -0.0276  -0.0075   0.00    1.2
2173 195722.000   -261331.9097  -5070387.1949   3848245.9385   2   7   0.0270   0.0443   0.0268   0.0102  -0.0275  -0.0077   0.00    1.2
2173 195723.000   -261331.9145  -5070387.1886   3848245.9414   2   7   0.0268   0.0442   0.0267   0.0103  -0.0274  -0.0077   0.00    1.2
2173 195724.000   -261331.9147  -5070387.1752   3848245.9334   2   7   0.0268   0.0441   0.0267   0.0104  -0.0273  -0.0076   0.00    1.2
2173 195725.000   -261331.9179  -5070387.1849   3848245.9365   2   7   0.0267   0.0439   0.0265   0.0104  -0.0272  -0.0074   0.00    1.3
2173 195726.000   -261331.9165  -5070387.1877   3848245.9411   2   7   0.0267   0.0438   0.0265   0.0105  -0.0271  -0.0076   0.00    1.3
2173 195727.000   -261331.9204  -5070387.1885   3848245.9427   2   7   0.0266   0.0437   0.0264   0.0104  -0.0270  -0.0077   0.00    1.3
2173 195728.000   -261331.9153  -5070387.1978   3848245.9579   2   7   0.0266   0.0436   0.0262   0.0104  -0.0269  -0.0075   0.00    1.3
2173 195729.000   -261331.9153  -5070387.2051   3848245.9631   2   7   0.0265   0.0435   0.0261   0.0105  -0.0269  -0.0076   0.00    1.3
2173 195730.000   -261331.9186  -5070387.2089   3848245.9688   2   7   0.0264   0.0434   0.0260   0.0106  -0.0267  -0.0075   0.00    1.3
2173 195731.000   -261331.9208  -5070387.2051   3848245.9688   2   7   0.0264   0.0433   0.0259   0.0104  -0.0267  -0.0077   0.00    1.3
2173 195732.000   -261331.9246  -5070387.1936   3848245.9637   2   7   0.0262   0.0431   0.0258   0.0106  -0.0266  -0.0074   0.00    1.3
2173 195733.000   -261331.9235  -5070387.2016   3848245.9732   2   7   0.0263   0.0430   0.0257   0.0106  -0.0265  -0.0074   0.00    1.3
2173 195734.000   -261331.9265  -5070387.2070   3848245.9821   2   7   0.0263   0.0429   0.0256   0.0105  -0.0264  -0.0076   0.00    1.3
2173 195735.000   -261331.9242  -5070387.2026   3848245.9848   2   7   0.0263   0.0428   0.0255   0.0106  -0.0263  -0.0076   0.00    1.3
2173 195736.000   -261331.9226  -5070387.2089   3848245.9956   2   7   0.0261   0.0427   0.0254   0.0107  -0.0262  -0.0074   0.00    1.3
2173 195737.000   -261331.9252  -5070387.2224   3848246.0094   2   7   0.0261   0.0426   0.0253   0.0105  -0.0261  -0.0074   0.00    1.3
2173 195738.000   -261331.9238  -5070387.2134   3848246.0189   2   7   0.0260   0.0424   0.0253   0.0107  -0.0261  -0.0074   0.00    1.3
2173 195739.000   -261331.9243  -5070387.2277   3848246.0374   2   7   0.0260   0.0424   0.0251   0.0108  -0.0260  -0.0074   0.00    1.3
2173 195740.000   -261331.9272  -5070387.2374   3848246.0566   2   7   0.0259   0.0423   0.0250   0.0106  -0.0259  -0.0074   0.00    1.3
2173 195741.000   -261331.9292  -5070387.2508   3848246.0736   2   7   0.0259   0.0421   0.0249   0.0107  -0.0258  -0.0076   0.00    1.3
2173 195742.000   -261331.9310  -5070387.2525   3848246.0817   2   7   0.0258   0.0420   0.0248   0.0108  -0.0257  -0.0075   0.00    1.3
2173 195743.000   -261331.9358  -5070387.2450   3848246.0869   2   7   0.0259   0.0419   0.0247   0.0106  -0.0256  -0.0077   0.00    1.3
2173 195744.000   -261331.9350  -5070387.2496   3848246.0933   2   7   0.0257   0.0418   0.0246   0.0108  -0.0256  -0.0076   0.00    1.3
2173 195745.000   -261331.9401  -5070387.2540   3848246.1046   2   7   0.0257   0.0417   0.0245   0.0108  -0.0255  -0.0077   0.00    1.3
2173 195746.000   -261331.9461  -5070387.2487   3848246.1054   2   7   0.0257   0.0416   0.0245   0.0108  -0.0254  -0.0076   0.00    1.3
2173 195747.000   -261331.9495  -5070387.2440   3848246.1073   2   7   0.0256   0.0415   0.0244   0.0109  -0.0253  -0.0075   0.00    1.3
2173 195748.000   -261331.9525  -5070387.2408   3848246.1082   2   7   0.0256   0.0414   0.0243   0.0108  -0.0253  -0.0073   0.00    1.3
2173 195749.000   -261331.9505  -5070387.2373   3848246.1081   2   7   0.0254   0.0413   0.0242   0.0109  -0.0251  -0.0073   0.00    1.3
2173 195750.000   -261331.9520  -5070387.2390   3848246.1134   2   7   0.0254   0.0412   0.0241   0.0109  -0.0251  -0.0075   0.00    1.3
2173 195751.000   -261331.9542  -5070387.2386   3848246.1153   2   7   0.0254   0.0411   0.0241   0.0108  -0.0250  -0.0075   0.00    1.3
2173 195752.000   -261331.9521  -5070387.2487   3848246.1260   2   7   0.0254   0.0410   0.0240   0.0109  -0.0249  -0.0073   0.00    1.3
2173 195753.000   -261331.9482  -5070387.2611   3848246.1380   2   7   0.0254   0.0409   0.0238   0.0109  -0.0248  -0.0075   0.00    1.3
2173 195754.000   -261331.9475  -5070387.2604   3848246.1427   2   7   0.0252   0.0408   0.0238   0.0110  -0.0248  -0.0075   0.00    1.3
2173 195755.000   -261331.9470  -5070387.2669   3848246.1500   2   7   0.0252   0.0407   0.0237   0.0109  -0.0247  -0.0074   0.00    1.3
2173 195756.000   -261331.9517  -5070387.2647   3848246.1528   2   7   0.0253   0.0406   0.0237   0.0109  -0.0246  -0.0072   0.00    1.3
2173 195757.000   -261331.9512  -5070387.2562   3848246.1516   2   7   0.0252   0.0405   0.0235   0.0109  -0.0245  -0.0074   0.00    1.3
2173 195758.000   -261331.9556  -5070387.2596   3848246.1630   2   7   0.0250   0.0404   0.0234   0.0110  -0.0245  -0.0072   0.00    1.3
2173 195759.000   -261331.9578  -5070387.2568   3848246.1663   2   7   0.0249   0.0403   0.0233   0.0111  -0.0244  -0.0073   0.00    1.3
2173 195760.000   -261331.9622  -5070387.2596   3848246.1683   2   7   0.0250   0.0402   0.0233   0.0110  -0.0243  -0.0071   0.00    1.3
2173 195761.000   -261331.9666  -5070387.2595   3848246.1750   2   7   0.0249   0.0401   0.0232   0.0112  -0.0243  -0.0073   0.00    1.3
2173 195762.000   -261331.9714  -5070387.2552   3848246.1759   2   7   0.0249   0.0400   0.0230   0.0110  -0.0242  -0.0076   0.00    1.3
2173 195763.000   -261331.9737  -5070387.2545   3848246.1798   2   7   0.0248   0.0399   0.0230   0.0111  -0.0241  -0.0074   0.00    1.3
2173 195764.000   -261331.9760  -5070387.2487   3848246.1826   2   7   0.0249   0.0398   0.0230   0.0111  -0.0240  -0.0073   0.00    1.3
2173 195765.000   -261331.9768  -5070387.2471   3848246.1852   2   7   0.0248   0.0397   0.0230   0.0111  -0.0240  -0.0072   0.00    1.3
2173 195766.000   -261331.9802  -5070387.2435   3848246.1851   2   7   0.0247   0.0396   0.0228   0.0111  -0.0239  -0.0072   0.00    1.3
2173 195767.000   -261331.9823  -5070387.2388   3848246.1890   2   7   0.0247   0.0395   0.0228   0.0112  -0.0238  -0.0073   0.00    1.3
2173 195768.000   -261331.9800  -5070387.2447   3848246.1946   2   7   0.0246   0.0394   0.0227   0.0111  -0.0237  -0.0072   0.00    1.3
2173 195769.000   -261331.9817  -5070387.2546   3848246.2104   2   7   0.0247   0.0394   0.0226   0.0111  -0.0236  -0.0073   0.00    1.3
2173 195770.000   -261331.9808  -5070387.2651   3848246.2242   2   7   0.0245   0.0393   0.0225   0.0112  -0.0236  -0.0075   0.00    1.3
2173 195771.000   -261331.9824  -5070387.2662   3848246.2311   2   7   0.0246   0.0392   0.0225   0.0110  -0.0235  -0.0076   0.00    1.3
2173 195772.000   -261331.9808  -5070387.2711   3848246.2409   2   7   0.0246   0.0391   0.0224   0.0112  -0.0235  -0.0071   0.00    1.3
2173 195773.000   -261331.9843  -5070387.2727   3848246.2455   2   7   0.0245   0.0390   0.0223   0.0112  -0.0234  -0.0073   0.00    1.3
2173 195774.000   -261331.9851  -5070387.2751   3848246.2548   2   7   0.0244   0.0389   0.0222   0.0112  -0.0234  -0.0073   0.00    1.3
2173 195775.000   -261331.9903  -5070387.2823   3848246.2671   2   7   0.0243   0.0388   0.0221   0.0112  -0.0233  -0.0072   0.00    1.3
2173 195776.000   -261331.9926  -5070387.2873   3848246.2747   2   7   0.0243   0.0387   0.0221   0.0112  -0.0232  -0.0072   0.00    1.3
2173 195777.000   -261331.9952  -5070387.2881   3848246.2733   2   7   0.0244   0.0386   0.0220   0.0112  -0.0231  -0.0072   0.00    1.3
2173 195778.000   -261332.0001  -5070387.2877   3848246.2764   2   7   0.0242   0.0385   0.0219   0.0113  -0.0231  -0.0071   0.00    1.3
2173 195779.000   -261331.9987  -5070387.2923   3848246.2840   2   7   0.0242   0.0385   0.0218   0.0113  -0.0230  -0.0072   0.00    1.3
2173 195780.000   -261331.9998  -5070387.2945   3848246.2875   2   7   0.0242   0.0383   0.0218   0.0112  -0.0230  -0.0072   0.00    1.3
2173 195781.000   -261332.0030  -5070387.2850   3848246.2856   2   7   0.0242   0.0383   0.0217   0.0114  -0.0229  -0.0072   0.00    1.3
2173 195782.000   -261332.0039  -5070387.2847   3848246.2889   2   7   0.0240   0.0382   0.0217   0.0114  -0.0228  -0.0072   0.00    1.3
2173 195783.000   -261332.0051  -5070387.2890   3848246.2960   2   7   0.0240   0.0381   0.0216   0.0115  -0.0227  -0.0071   0.00    1.3
2173 195784.000   -261332.0053  -5070387.2743   3848246.2902   2   7   0.0241   0.0380   0.0215   0.0113  -0.0227  -0.0072   0.00    1.3
2173 195785.000   -261332.0084  -5070387.2842   3848246.2960   2   7   0.0240   0.0379   0.0215   0.0113  -0.0227  -0.0074   0.00    1.3
2173 195786.000   -261332.0094  -5070387.2956   3848246.3046   2   7   0.0240   0.0378   0.0214   0.0114  -0.0226  -0.0071   0.00    1.3
2173 195787.000   -261332.0068  -5070387.2993   3848246.3059   2   7   0.0239   0.0377   0.0213   0.0114  -0.0225  -0.0073   0.00    1.3
2173 195788.000   -261332.0099  -5070387.3058   3848246.3292   2   7   0.0238   0.0377   0.0212   0.0114  -0.0224  -0.0072   0.00    1.3
2173 195789.000   -261332.0107  -5070387.3132   3848246.3338   2   7   0.0237   0.0376   0.0212   0.0115  -0.0224  -0.0070   0.00    1.3
2173 195790.000   -261332.0086  -5070387.3229   3848246.3435   2   7   0.0237   0.0375   0.0211   0.0115  -0.0223  -0.0071   0.00    1.3
2173 195791.000   -261332.0076  -5070387.3306   3848246.3517   2   7   0.0238   0.0374   0.0210   0.0114  -0.0223  -0.0071   0.00    1.3
2173 195792.000   -261332.0109  -5070387.3273   3848246.3573   2   7   0.0236   0.0373   0.0210   0.0116  -0.0222  -0.0070   0.00    1.3
2173 195793.000   -261332.0146  -5070387.3203   3848246.3528   2   7   0.0236   0.0372   0.0209   0.0115  -0.0222  -0.0070   0.00    1.3
2173 195794.000   -261332.0171  -5070387.3174   3848246.3550   2   7   0.0237   0.0372   0.0208   0.0114  -0.0221  -0.0072   0.00    1.3
2173 195795.000   -261332.0208  -5070387.3025   3848246.3500   2   7   0.0236   0.0371   0.0208   0.0114  -0.0220  -0.0070   0.00    1.3
2173 195796.000   -261332.0251  -5070387.3039   3848246.3507   2   7   0.0236   0.0370   0.0207   0.0114  -0.0220  -0.0071   0.00    1.3
2173 195797.000   -261332.0247  -5070387.3030   3848246.3517   2   7   0.0235   0.0369   0.0207   0.0115  -0.0219  -0.0072   0.00    1.3
2173 195798.000   -261332.0237  -5070387.3141   3848246.3627   2   7   0.0233   0.0368   0.0205   0.0116  -0.0219  -0.0070   0.00    1.3
2173 195799.000   -261332.0229  -5070387.3181   3848246.3657   2   7   0.0234   0.0368   0.0206   0.0115  -0.0218  -0.0072   0.00    1.3
2173 195800.000   -261332.0245  -5070387.3193   3848246.3730   2   7   0.0234   0.0367   0.0204   0.0115  -0.0218  -0.0072   0.00    1.3
2173 195801.000   -261332.0280  -5070387.3294   3848246.3844   2   7   0.0234   0.0366   0.0204   0.0116  -0.0217  -0.0070   0.00    1.3
2173 195802.000   -261332.0276  -5070387.3242   3848246.3872   2   7   0.0233   0.0365   0.0204   0.0115  -0.0216  -0.0070   0.00    1.3
2173 195803.000   -261332.0329  -5070387.3233   3848246.3915   2   7   0.0233   0.0364   0.0203   0.0114  -0.0216  -0.0071   0.00    1.3
2173 195804.000   -261332.0375  -5070387.3282   3848246.4005   2   7   0.0233   0.0364   0.0203   0.0116  -0.0215  -0.0068   0.00    1.3
2173 195805.000   -261332.0406  -5070387.3292   3848246.4069   2   7   0.0232   0.0363   0.0201   0.0116  -0.0215  -0.0069   0.00    1.3
2173 195806.000   -261332.0458  -5070387.3386   3848246.4176   2   7   0.0233   0.0362   0.0201   0.0116  -0.0214  -0.0070   0.00    1.3
2173 195807.000   -261332.0487  -5070387.3325   3848246.4263   2   7   0.0232   0.0361   0.0201   0.0115  -0.0214  -0.0070   0.00    1.4
2173 195808.000   -261332.0530  -5070387.3300   3848246.4236   2   7   0.0231   0.0361   0.0200   0.0115  -0.0213  -0.0070   0.00    1.4
2173 195809.000   -261332.0537  -5070387.3256   3848246.4278   2   7   0.0231   0.0360   0.0200   0.0115  -0.0212  -0.0070   0.00    1.4
2173 195810.000   -261332.0543  -5070387.3234   3848246.4261   2   7   0.0230   0.0359   0.0199   0.0117  -0.0212  -0.0071   0.00    1.4
2173 195811.000   -261332.0536  -5070387.3259   3848246.4345   2   7   0.0230   0.0358   0.0198   0.0116  -0.0212  -0.0071   0.00    1.4
2173 195812.000   -261332.0569  -5070387.3201   3848246.4338   2   7   0.0229   0.0358   0.0198   0.0116  -0.0211  -0.0068   0.00    1.4
2173 195813.000   -261332.0568  -5070387.3199   3848246.4329   2   7   0.0229   0.0357   0.0197   0.0117  -0.0211  -0.0068   0.00    1.4
2173 195814.000   -261332.0615  -5070387.3182   3848246.4366   2   7   0.0228   0.0356   0.0196   0.0117  -0.0210  -0.0069   0.00    1.4
2173 195815.000   -261332.0638  -5070387.3215   3848246.4419   2   7   0.0228   0.0355   0.0196   0.0117  -0.0210  -0.0072   0.00    1.4
2173 195816.000   -261332.0680  -5070387.3100   3848246.4393   2   7   0.0228   0.0355   0.0197   0.0117  -0.0209  -0.0069   0.00    1.4
2173 195817.000   -261332.0692  -5070387.3107   3848246.4430   2   7   0.0227   0.0354   0.0195   0.0117  -0.0209  -0.0068   0.00    1.4
2173 195818.000   -261332.0704  -5070387.3097   3848246.4509   2   7   0.0227   0.0353   0.0194   0.0116  -0.0208  -0.0069   0.00    1.4
2173 195819.000   -261332.0730  -5070387.3118   3848246.4561   2   7   0.0228   0.0353   0.0194   0.0116  -0.0208  -0.0071   0.00    1.4
2173 195820.000   -261332.0752  -5070387.3046   3848246.4575   2   7   0.0226   0.0352   0.0194   0.0117  -0.0207  -0.0069   0.00    1.3
2173 195821.000   -261332.0790  -5070387.3008   3848246.4553   2   7   0.0227   0.0351   0.0193   0.0117  -0.0207  -0.0069   0.00    1.3
2173 195822.000   -261332.0815  -5070387.3063   3848246.4625   2   7   0.0226   0.0350   0.0192   0.0117  -0.0206  -0.0070   0.00    1.3
2173 195823.000   -261332.0790  -5070387.3085   3848246.4676   2   7   0.0226   0.0350   0.0192   0.0117  -0.0206  -0.0070   0.00    1.3
2173 195824.000   -261332.0802  -5070387.3137   3848246.4734   2   7   0.0224   0.0349   0.0191   0.0117  -0.0205  -0.0070   0.00    1.3
2173 195825.000   -261332.0803  -5070387.3188   3848246.4794   2   7   0.0225   0.0348   0.0191   0.0117  -0.0204  -0.0068   0.00    1.3
2173 195826.000   -261332.0834  -5070387.3200   3848246.4860   2   7   0.0226   0.0348   0.0191   0.0117  -0.0204  -0.0068   0.00    1.3
2173 195827.000   -261332.0859  -5070387.3264   3848246.4978   2   7   0.0224   0.0347   0.0190   0.0117  -0.0204  -0.0070   0.00    1.3
2173 195828.000   -261332.0835  -5070387.3313   3848246.5030   2   7   0.0224   0.0346   0.0190   0.0118  -0.0203  -0.0068   0.00    1.3
2173 195829.000   -261332.0888  -5070387.3315   3848246.5101   2   7   0.0224   0.0345   0.0189   0.0116  -0.0203  -0.0071   0.00    1.3
2173 195830.000   -261332.0895  -5070387.3386   3848246.5181   2   7   0.0224   0.0345   0.0188   0.0117  -0.0202  -0.0070   0.00    1.3
2173 195831.000   -261332.0986  -5070387.3250   3848246.5136   2   7   0.0223   0.0344   0.0188   0.0118  -0.0202  -0.0068   0.00    1.3
2173 195832.000   -261332.0999  -5070387.3176   3848246.5121   2   7   0.0223   0.0343   0.0187   0.0117  -0.0201  -0.0069   0.00    1.3
2173 195833.000   -261332.0999  -5070387.3183   3848246.5186   2   7   0.0222   0.0343   0.0187   0.0117  -0.0201  -0.0067   0.00    1.3
2173 195834.000   -261332.1060  -5070387.3163   3848246.5177   2   7   0.0222   0.0342   0.0185   0.0118  -0.0200  -0.0070   0.00    1.3
2173 195835.000   -261332.1067  -5070387.3159   3848246.5242   2   7   0.0221   0.0341   0.0185   0.0119  -0.0200  -0.0069   0.00    1.2
2173 195836.000   -261332.1098  -5070387.3184   3848246.5283   2   7   0.0222   0.0341   0.0186   0.0118  -0.0199  -0.0069   0.00    1.2
2173 195837.000   -261332.1110  -5070387.3142   3848246.5304   2   7   0.0221   0.0340   0.0185   0.0118  -0.0199  -0.0069   0.00    1.2
2173 195838.000   -261332.1103  -5070387.3130   3848246.5338   2   7   0.0221   0.0339   0.0184   0.0118  -0.0199  -0.0066   0.00    1.2
2173 195839.000   -261332.1152  -5070387.3066   3848246.5327   2   7   0.0220   0.0339   0.0184   0.0118  -0.0198  -0.0068   0.00    1.2
2173 195840.000   -261332.1160  -5070387.3038   3848246.5328   2   7   0.0220   0.0338   0.0184   0.0118  -0.0198  -0.0068   0.00    1.2
2173 195841.000   -261332.1203  -5070387.3043   3848246.5317   2   7   0.0220   0.0337   0.0183   0.0118  -0.0197  -0.0067   0.00    1.2
2173 195842.000   -261332.1207  -5070387.3081   3848246.5409   2   7   0.0221   0.0337   0.0183   0.0117  -0.0197  -0.0070   0.00    1.2
2173 195843.000   -261332.1226  -5070387.3090   3848246.5443   2   7   0.0218   0.0336   0.0182   0.0119  -0.0197  -0.0068   0.00    1.2
2173 195844.000   -261332.1214  -5070387.3167   3848246.5530   2   7   0.0219   0.0336   0.0182   0.0118  -0.0196  -0.0067   0.00    1.2
2173 195845.000   -261332.1262  -5070387.3175   3848246.5606   2   7   0.0219   0.0335   0.0181   0.0118  -0.0196  -0.0068   0.00    1.2
2173 195846.000   -261332.1255  -5070387.3162   3848246.5621   2   7   0.0218   0.0334   0.0181   0.0119  -0.0195  -0.0068   0.00    1.2
2173 195847.000   -261332.1288  -5070387.3140   3848246.5595   2   7   0.0218   0.0333   0.0181   0.0118  -0.0195  -0.0068   0.00    1.2
2173 195848.000   -261332.1360  -5070387.3071   3848246.5689   2   7   0.0218   0.0333   0.0181   0.0118  -0.0194  -0.0068   0.00    1.1
2173 195849.000   -261332.1427  -5070387.2947   3848246.5617   2   7   0.0217   0.0332   0.0179   0.0119  -0.0194  -0.0067   0.00    1.1
2173 195850.000   -261332.1498  -5070387.2906   3848246.5655   2   7   0.0218   0.0332   0.0178   0.0117  -0.0194  -0.0072   0.00    1.1
2173 195851.000   -261332.1529  -5070387.2793   3848246.5636   2   7   0.0217   0.0331   0.0178   0.0119  -0.0193  -0.0067   0.00    1.1
2173 195852.000   -261332.1574  -5070387.2660   3848246.5546   2   7   0.0217   0.0331   0.0178   0.0118  -0.0193  -0.0070   0.00    1.1
2173 195853.000   -261332.1561  -5070387.2701   3848246.5634   2   7   0.0217   0.0330   0.0178   0.0118  -0.0192  -0.0067   0.00    1.1
2173 195854.000   -261332.1534  -5070387.2644   3848246.5618   2   7   0.0217   0.0329   0.0178   0.0119  -0.0191  -0.0067   0.00    1.1
2173 195855.000   -261332.1537  -5070387.2788   3848246.6034   2   7   0.0215   0.0329   0.0176   0.0119  -0.0191  -0.0070   0.00    1.1
2173 195856.000   -261332.1614  -5070387.2997   3848246.6254   2   7   0.0215   0.0328   0.0176   0.0118  -0.0191  -0.0069   0.00    1.1
2173 195857.000   -261332.1588  -5070387.3212   3848246.6365   2   7   0.0215   0.0327   0.0177   0.0119  -0.0191  -0.0066   0.00    1.1
2173 195858.000   -261332.1595  -5070387.3306   3848246.6437   2   7   0.0214   0.0327   0.0176   0.0119  -0.0190  -0.0067   0.00    1.1
2173 195859.000   -261332.1580  -5070387.3485   3848246.6557   2   7   0.0214   0.0326   0.0175   0.0119  -0.0190  -0.0066   0.00    1.1
2173 195860.000   -261332.1602  -5070387.3655   3848246.6667   2   7   0.0212   0.0325   0.0174   0.0120  -0.0190  -0.0067   0.00    1.0
2173 195861.000   -261332.1597  -5070387.3796   3848246.6772   2   7   0.0214   0.0325   0.0175   0.0118  -0.0189  -0.0068   0.00    1.0
2173 195862.000   -261332.1598  -5070387.3954   3848246.6874   2   7   0.0213   0.0325   0.0174   0.0118  -0.0189  -0.0066   0.00    1.0
2173 195863.000   -261332.1622  -5070387.4013   3848246.6909   2   7   0.0213   0.0324   0.0174   0.0119  -0.0188  -0.0068   0.00    1.0
2173 195864.000   -261332.1620  -5070387.4092   3848246.6943   2   7   0.0213   0.0323   0.0173   0.0119  -0.0188  -0.0067   0.00    1.0
2173 195865.000   -261332.1593  -5070387.4254   3848246.7023   2   7   0.0214   0.0323   0.0173   0.0118  -0.0187  -0.0068   0.00    1.0
