% program   : rnx2rtkp ver.2.4.3 b31
% inp file  : ngs/21_08_29_00_11_01_sdrc.obs
% inp file  : ngs/21_08_29_00_11_01_sdrc_VZ.obs
% inp file  : ngs/21_08_29_00_11_01_brdc.nav
% obs start : 2021/08/29 00:00:00.0 GPST (week2173      0.0s)
% obs end   : 2021/08/29 00:59:59.0 GPST (week2173   3599.0s)
% ref pos   : -1049101.7689  -4465824.9109   4417907.0650
%
% (x/y/z-ecef=WGS84,Q=1:fix,2:float,3:sbas,4:dgps,5:single,6:ppp,ns=# of satellites)
%  GPST              x-ecef(m)      y-ecef(m)      z-ecef(m)   Q  ns   sdx(m)   sdy(m)   sdz(m)  sdxy(m)  sdyz(m)  sdzx(m) age(s)  ratio
2173    651.000  -1050083.3873  -4468050.5666   4415386.0029   2   8   0.4137   0.8759   1.1009   0.4160  -0.8151  -0.3137 -30.00    1.5
2173    652.000  -1050083.5026  -4468050.8283   4415386.2482   2   8   0.2944   0.6231   0.7831   0.2962  -0.5799  -0.2240 -29.00    1.5
2173    653.000  -1050083.4745  -4468050.8648   4415386.2391   2   8   0.2410   0.5102   0.6411   0.2425  -0.4748  -0.1834 -28.00    1.5
2173    654.000  -1050083.5076  -4468050.9705   4415386.3570   2   8   0.2091   0.4426   0.5562   0.2104  -0.4119  -0.1591 -27.00    1.5
2173    655.000  -1050083.5060  -4468050.9778   4415386.3982   2   8   0.1872   0.3964   0.4981   0.1884  -0.3688  -0.1425 -26.00    1.5
2173    656.000  -1050083.5424  -4468051.0440   4415386.4084   2   8   0.1711   0.3622   0.4551   0.1721  -0.3370  -0.1301 -25.00    1.5
2173    657.000  -1050083.5593  -4468051.0632   4415386.4065   2   8   0.1585   0.3356   0.4216   0.1594  -0.3122  -0.1205 -24.00    1.5
2173    658.000  -1050083.5618  -4468051.0567   4415386.3662   2   8   0.1483   0.3141   0.3946   0.1492  -0.2922  -0.1128 -23.00    1.5
2173    659.000  -1050083.5695  -4468051.0517   4415386.3821   2   8   0.1399   0.2962   0.3721   0.1407  -0.2756  -0.1064 -22.00    1.5
2173    660.000  -1050083.5598  -4468051.0309   4415386.3597   2   8   0.1327   0.2811   0.3531   0.1335  -0.2615  -0.1009 -21.00    1.6
2173    661.000  -1050083.5423  -4468050.9969   4415386.3526   2   8   0.1266   0.2680   0.3366   0.1273  -0.2493  -0.0962 -20.00    1.6
2173    662.000  -1050083.5425  -4468051.0071   4415386.3569   2   8   0.1212   0.2566   0.3223   0.1219  -0.2387  -0.0921 -19.00    1.7
2173    663.000  -1050083.5395  -4468050.9953   4415386.3343   2   8   0.1164   0.2466   0.3095   0.1171  -0.2293  -0.0885 -18.00    1.7
2173    664.000  -1050083.5376  -4468051.0028   4415386.3536   2   8   0.1122   0.2375   0.2982   0.1128  -0.2209  -0.0853 -17.00    1.7
2173    665.000  -1050083.5444  -4468050.9997   4415386.3277   2   8   0.1083   0.2294   0.2879   0.1090  -0.2133  -0.0824 -16.00    1.8
2173    666.000  -1050083.5313  -4468050.9823   4415386.3177   2   8   0.1049   0.2221   0.2786   0.1055  -0.2064  -0.0798 -15.00    1.9
2173    667.000  -1050083.5308  -4468050.9810   4415386.3168   2   8   0.1017   0.2154   0.2702   0.1023  -0.2001  -0.0774 -14.00    2.0
2173    668.000  -1050083.5282  -4468050.9730   4415386.3148   2   8   0.0988   0.2092   0.2624   0.0994  -0.1944  -0.0752 -13.00    2.0
2173    669.000  -1050083.5308  -4468050.9860   4415386.3181   2   8   0.0961   0.2035   0.2552   0.0967  -0.1891  -0.0732 -12.00    2.1
2173    670.000  -1050083.5315  -4468050.9779   4415386.2968   2   8   0.0936   0.1983   0.2485   0.0942  -0.1841  -0.0713 -11.00    2.3
2173    671.000  -1050083.5337  -4468050.9689   4415386.2897   2   8   0.0913   0.1934   0.2423   0.0919  -0.1795  -0.0696 -10.00    2.4
2173    672.000  -1050083.5355  -4468050.9626   4415386.2894   2   8   0.0892   0.1888   0.2365   0.0897  -0.1753  -0.0680  -9.00    2.6
2173    673.000  -1050083.5312  -4468050.9540   4415386.2794   2   8   0.0872   0.1846   0.2310   0.0877  -0.1712  -0.0664  -8.00    2.8
2173    674.000  -1050083.4350  -4468050.9899   4415386.6553   1   8   0.0064   0.0140   0.0177   0.0062  -0.0129  -0.0027  -7.00    3.1
2173    675.000  -1050083.4330  -4468050.9869   4415386.6509   1   8   0.0059   0.0129   0.0163   0.0057  -0.0118  -0.0029  -6.00    3.5
2173    676.000  -1050083.4329  -4468050.9843   4415386.6491   1   8   0.0058   0.0119   0.0149   0.0054  -0.0108  -0.0030  -5.00    4.0
2173    677.000  -1050083.4306  -4468050.9757   4415386.6390   1   8   0.0049   0.0109   0.0136   0.0049  -0.0100  -0.0030  -4.00    4.7
2173    678.000  -1050083.4303  -4468050.9758   4415386.6439   1   8   0.0046   0.0101   0.0126   0.0045  -0.0093  -0.0030  -3.00    5.5
2173    679.000  -1050083.4292  -4468050.9715   4415386.6378   1   8   0.0042   0.0095   0.0118   0.0041  -0.0087  -0.0031  -2.00    6.7
2173    680.000  -1050083.4284  -4468050.9714   4415386.6363   1   8   0.0043   0.0090   0.0113   0.0041  -0.0083  -0.0031  -1.00    8.5
2173    681.000  -1050083.4279  -4468050.9669   4415386.6328   1   8   0.0040   0.0087   0.0111   0.0044  -0.0082  -0.0031   0.00   10.2
2173    682.000  -1050083.4268  -4468050.9696   4415386.6345   1   8   0.0039   0.0087   0.0111   0.0044  -0.0083  -0.0033   0.00   11.9
2173    683.000  -1050083.4275  -4468050.9700   4415386.6333   1   8   0.0038   0.0087   0.0112   0.0043  -0.0082  -0.0032   0.00   13.3
2173    684.000  -1050083.4279  -4468050.9681   4415386.6312   1   8   0.0042   0.0089   0.0111   0.0043  -0.0081  -0.0030   0.00   13.9
2173    685.000  -1050083.4284  -4468050.9661   4415386.6279   1   8   0.0039   0.0087   0.0111   0.0046  -0.0082  -0.0031   0.00   14.5
2173    686.000  -1050083.4310  -4468050.9728   4415386.6364   1   8   0.0042   0.0091   0.0111   0.0036  -0.0080  -0.0033   0.00   14.6
2173    687.000  -1050083.4284  -4468050.9718   4415386.6370   1   8   0.0040   0.0088   0.0111   0.0043  -0.0082  -0.0032   0.00   14.8
2173    688.000  -1050083.4291  -4468050.9698   4415386.6367   1   8   0.0042   0.0090   0.0111   0.0042  -0.0081  -0.0033   0.00   14.6
2173    689.000  -1050083.4288  -4468050.9708   4415386.6356   1   8   0.0041   0.0087   0.0111   0.0046  -0.0082  -0.0029   0.00   14.8
2173    690.000  -1050083.4257  -4468050.9682   4415386.6366   1   8   0.0039   0.0089   0.0111   0.0042  -0.0081  -0.0033   0.00   15.3
2173    691.000  -1050083.4269  -4468050.9711   4415386.6374   1   8   0.0040   0.0091   0.0111   0.0040  -0.0081  -0.0035   0.00   15.6
2173    692.000  -1050083.4266  -4468050.9698   4415386.6345   1   8   0.0042   0.0089   0.0110   0.0041  -0.0082  -0.0034   0.00   15.9
2173    693.000  -1050083.4275  -4468050.9689   4415386.6327   1   8   0.0040   0.0087   0.0111   0.0043  -0.0082  -0.0028   0.00   16.0
2173    694.000  -1050083.4228  -4468050.9665   4415386.6328   1   8   0.0044   0.0089   0.0110   0.0043  -0.0082  -0.0034   0.00   16.1
2173    695.000  -1050083.4271  -4468050.9709   4415386.6357   1   8   0.0042   0.0090   0.0112   0.0042  -0.0081  -0.0030   0.00   16.2
2173    696.000  -1050083.4233  -4468050.9630   4415386.6315   1   8   0.0040   0.0088   0.0110   0.0046  -0.0082  -0.0030   0.00   16.3
2173    697.000  -1050083.4272  -4468050.9719   4415386.6355   1   8   0.0044   0.0086   0.0111   0.0046  -0.0083  -0.0033   0.00   16.4
2173    698.000  -1050083.4263  -4468050.9685   4415386.6330   1   8   0.0043   0.0089   0.0112   0.0040  -0.0082  -0.0032   0.00   16.6
2173    699.000  -1050083.4206  -4468050.9670   4415386.6337   1   8   0.0038   0.0087   0.0111   0.0041  -0.0083  -0.0033   0.00   16.9
2173    700.000  -1050083.4201  -4468050.9605   4415386.6283   1   8   0.0037   0.0086   0.0111   0.0045  -0.0083  -0.0030   0.00   17.6
2173    701.000  -1050083.4223  -4468050.9643   4415386.6337   1   8   0.0039   0.0089   0.0111   0.0042  -0.0082  -0.0033   0.00   17.9
2173    702.000  -1050083.4244  -4468050.9684   4415386.6358   1   8   0.0037   0.0085   0.0110   0.0045  -0.0084  -0.0030   0.00   18.0
2173    703.000  -1050083.4286  -4468050.9745   4415386.6408   1   8   0.0040   0.0087   0.0111   0.0041  -0.0082  -0.0033   0.00   18.0
2173    704.000  -1050083.4242  -4468050.9648   4415386.6271   1   8   0.0046   0.0090   0.0111   0.0039  -0.0081  -0.0030   0.00   18.2
2173    705.000  -1050083.4249  -4468050.9694   4415386.6353   1   8   0.0043   0.0091   0.0111   0.0041  -0.0080  -0.0033   0.00   18.4
2173    706.000  -1050083.4309  -4468050.9758   4415386.6398   1   8   0.0041   0.0088   0.0111   0.0041  -0.0082  -0.0034   0.00   18.3
2173    707.000  -1050083.4229  -4468050.9701   4415386.6369   1   8   0.0043   0.0089   0.0111   0.0043  -0.0082  -0.0033   0.00   18.6
2173    708.000  -1050083.4244  -4468050.9698   4415386.6322   1   8   0.0042   0.0092   0.0111   0.0036  -0.0081  -0.0031   0.00   18.9
2173    709.000  -1050083.4244  -4468050.9698   4415386.6370   1   8   0.0043   0.0089   0.0110   0.0043  -0.0082  -0.0030   0.00   19.1
2173    710.000  -1050083.4223  -4468050.9660   4415386.6341   1   8   0.0047   0.0090   0.0111   0.0041  -0.0081  -0.0033   0.00   19.2
2173    711.000  -1050083.4230  -4468050.9677   4415386.6398   1   8   0.0046   0.0091   0.0111   0.0039  -0.0080  -0.0035   0.00   19.2
2173    712.000  -1050083.4266  -4468050.9738   4415386.6404   1   8   0.0044   0.0087   0.0110   0.0043  -0.0082  -0.0033   0.00   19.2
2173    713.000  -1050083.4285  -4468050.9754   4415386.6415   1   8   0.0045   0.0087   0.0110   0.0043  -0.0083  -0.0031   0.00   19.0
2173    714.000  -1050083.4280  -4468050.9749   4415386.6412   1   8   0.0041   0.0088   0.0111   0.0044  -0.0081  -0.0032   0.00   18.8
2173    715.000  -1050083.4267  -4468050.9737   4415386.6399   1   8   0.0040   0.0088   0.0110   0.0041  -0.0082  -0.0033   0.00   18.7
2173    716.000  -1050083.4237  -4468050.9701   4415386.6331   1   8   0.0044   0.0088   0.0111   0.0041  -0.0082  -0.0031   0.00   18.7
2173    717.000  -1050083.4245  -4468050.9697   4415386.6328   1   8   0.0040   0.0087   0.0111   0.0043  -0.0082  -0.0029   0.00   18.7
2173    718.000  -1050083.4228  -4468050.9681   4415386.6373   1   8   0.0040   0.0087   0.0111   0.0044  -0.0083  -0.0029   0.00   18.7
2173    719.000  -1050083.4252  -4468050.9721   4415386.6400   1   8   0.0041   0.0087   0.0111   0.0046  -0.0082  -0.0030   0.00   18.7
2173    720.000  -1050083.4202  -4468050.9640   4415386.6318   1   8   0.0045   0.0090   0.0111   0.0039  -0.0081  -0.0033   0.00   18.8
2173    721.000  -1050083.4235  -4468050.9676   4415386.6346   1   8   0.0044   0.0092   0.0111   0.0035  -0.0080  -0.0038   0.00   18.9
2173    722.000  -1050083.4247  -4468050.9715   4415386.6385   1   8   0.0045   0.0090   0.0111   0.0038  -0.0080  -0.0033   0.00   18.8
2173    723.000  -1050083.4236  -4468050.9706   4415386.6374   1   8   0.0042   0.0091   0.0111   0.0037  -0.0080  -0.0032   0.00   18.7
2173    724.000  -1050083.4270  -4468050.9770   4415386.6455   1   8   0.0040   0.0085   0.0111   0.0044  -0.0083  -0.0031   0.00   18.4
2173    725.000  -1050083.4245  -4468050.9688   4415386.6356   1   8   0.0041   0.0085   0.0110   0.0044  -0.0083  -0.0034   0.00   18.3
2173    726.000  -1050083.4201  -4468050.9651   4415386.6390   1   8   0.0042   0.0088   0.0111   0.0041  -0.0081  -0.0033   0.00   18.3
2173    727.000  -1050083.4236  -4468050.9714   4415386.6409   1   8   0.0036   0.0088   0.0111   0.0045  -0.0081  -0.0028   0.00   18.1
2173    728.000  -1050083.4229  -4468050.9721   4415386.6435   1   8   0.0043   0.0090   0.0111   0.0039  -0.0081  -0.0034   0.00   18.0
2173    729.000  -1050083.4266  -4468050.9770   4415386.6449   1   8   0.0041   0.0090   0.0111   0.0035  -0.0081  -0.0031   0.00   17.8
2173    730.000  -1050083.4272  -4468050.9739   4415386.6383   1   8   0.0041   0.0088   0.0111   0.0038  -0.0082  -0.0031   0.00   17.7
2173    731.000  -1050083.4224  -4468050.9728   4415386.6418   1   8   0.0042   0.0090   0.0111   0.0037  -0.0081  -0.0033   0.00   17.5
2173    732.000  -1050083.4236  -4468050.9716   4415386.6433   1   8   0.0040   0.0088   0.0111   0.0041  -0.0081  -0.0034   0.00   17.4
2173    733.000  -1050083.4249  -4468050.9717   4415386.6421   1   8   0.0042   0.0086   0.0110   0.0045  -0.0082  -0.0032   0.00   17.3
2173    734.000  -1050083.4210  -4468050.9660   4415386.6317   1   8   0.0041   0.0086   0.0111   0.0043  -0.0083  -0.0032   0.00   17.3
2173    735.000  -1050083.4238  -4468050.9713   4415386.6396   1   8   0.0040   0.0088   0.0111   0.0039  -0.0082  -0.0030   0.00   17.2
2173    736.000  -1050083.4210  -4468050.9699   4415386.6400   1   8   0.0042   0.0089   0.0111   0.0041  -0.0081  -0.0031   0.00   17.2
2173    737.000  -1050083.4214  -4468050.9705   4415386.6422   1   8   0.0042   0.0086   0.0111   0.0045  -0.0083  -0.0031   0.00   17.0
2173    738.000  -1050083.4222  -4468050.9692   4415386.6366   1   8   0.0041   0.0091   0.0111   0.0038  -0.0080  -0.0033   0.00   17.0
2173    739.000  -1050083.4232  -4468050.9716   4415386.6419   1   8   0.0039   0.0087   0.0111   0.0041  -0.0082  -0.0028   0.00   16.9
2173    740.000  -1050083.4230  -4468050.9754   4415386.6476   1   8   0.0041   0.0087   0.0111   0.0040  -0.0082  -0.0031   0.00   16.8
2173    741.000  -1050083.4317  -4468050.9857   4415386.6533   1   8   0.0036   0.0082   0.0110   0.0044  -0.0084  -0.0031   0.00   16.7
2173    742.000  -1050083.4238  -4468050.9763   4415386.6464   1   8   0.0038   0.0085   0.0111   0.0043  -0.0083  -0.0034   0.00   16.6
2173    743.000  -1050083.4221  -4468050.9707   4415386.6399   1   8   0.0044   0.0090   0.0111   0.0038  -0.0081  -0.0033   0.00   16.6
2173    744.000  -1050083.4232  -4468050.9692   4415386.6419   1   8   0.0043   0.0091   0.0111   0.0038  -0.0080  -0.0031   0.00   16.6
2173    745.000  -1050083.4257  -4468050.9755   4415386.6466   1   8   0.0039   0.0090   0.0111   0.0040  -0.0081  -0.0035   0.00   16.6
2173    746.000  -1050083.4243  -4468050.9739   4415386.6433   1   8   0.0043   0.0086   0.0111   0.0046  -0.0082  -0.0033   0.00   16.6
2173    747.000  -1050083.4232  -4468050.9728   4415386.6463   1   8   0.0040   0.0087   0.0111   0.0048  -0.0081  -0.0030   0.00   16.7
2173    748.000  -1050083.4267  -4468050.9740   4415386.6472   1   8   0.0040   0.0086   0.0110   0.0041  -0.0083  -0.0030   0.00   16.7
2173    749.000  -1050083.4262  -4468050.9748   4415386.6416   1   8   0.0041   0.0087   0.0111   0.0042  -0.0082  -0.0030   0.00   16.7
2173    750.000  -1050083.4871  -4468051.1168   4415386.5511   2   8   0.0410   0.0794   0.0805   0.0391  -0.0614  -0.0247   0.00    1.5
2173    751.000  -1050083.4883  -4468051.1213   4415386.5588   2   8   0.0408   0.0788   0.0797   0.0387  -0.0608  -0.0244   0.00    2.1
2173    752.000  -1050083.4857  -4468051.1137   4415386.5497   2   8   0.0405   0.0783   0.0789   0.0385  -0.0602  -0.0241   0.00    2.6
2173    753.000  -1050083.4256  -4468050.9762   4415386.6451   1   8   0.0040   0.0088   0.0111   0.0041  -0.0082  -0.0031   0.00    3.2
2173    754.000  -1050083.4182  -4468050.9644   4415386.6369   1   8   0.0041   0.0087   0.0111   0.0042  -0.0082  -0.0031   0.00    3.7
2173    755.000  -1050083.4219  -4468050.9748   4415386.6482   1   8   0.0046   0.0088   0.0111   0.0042  -0.0080  -0.0032   0.00    4.3
2173    756.000  -1050083.4223  -4468050.9729   4415386.6442   1   8   0.0044   0.0087   0.0111   0.0041  -0.0082  -0.0030   0.00    4.8
2173    757.000  -1050083.4324  -4468050.9747   4415386.6334   1   8   0.0043   0.0088   0.0110   0.0042  -0.0082  -0.0033   0.00    5.3
2173    758.000  -1050083.4248  -4468050.9515   4415386.6231   1   8   0.0042   0.0089   0.0110   0.0040  -0.0081  -0.0032   0.00    5.7
2173    759.000  -1050083.4235  -4468050.9644   4415386.6264   1   8   0.0037   0.0088   0.0111   0.0043  -0.0082  -0.0032   0.00    6.2
2173    760.000  -1050083.4256  -4468050.9697   4415386.6329   1   8   0.0043   0.0086   0.0111   0.0046  -0.0081  -0.0028   0.00    6.6
2173    761.000  -1050083.4235  -4468050.9673   4415386.6267   1   8   0.0037   0.0086   0.0110   0.0047  -0.0082  -0.0029   0.00    7.0
2173    762.000  -1050083.4251  -4468050.9642   4415386.6261   1   8   0.0038   0.0083   0.0111   0.0044  -0.0084  -0.0032   0.00    7.4
2173    763.000  -1050083.4234  -4468050.9626   4415386.6254   1   8   0.0041   0.0087   0.0110   0.0041  -0.0082  -0.0033   0.00    7.9
2173    764.000  -1050083.4226  -4468050.9635   4415386.6252   1   8   0.0040   0.0090   0.0111   0.0040  -0.0081  -0.0032   0.00    8.3
2173    765.000  -1050083.4209  -4468050.9650   4415386.6318   1   8   0.0040   0.0086   0.0111   0.0044  -0.0083  -0.0031   0.00    8.7
2173    766.000  -1050083.4253  -4468050.9671   4415386.6334   1   8   0.0044   0.0090   0.0111   0.0039  -0.0081  -0.0037   0.00    9.1
2173    767.000  -1050083.4221  -4468050.9643   4415386.6336   1   8   0.0043   0.0091   0.0111   0.0039  -0.0080  -0.0032   0.00    9.3
2173    768.000  -1050083.4209  -4468050.9622   4415386.6280   1   8   0.0040   0.0088   0.0111   0.0044  -0.0081  -0.0031   0.00    9.6
2173    769.000  -1050083.4210  -4468050.9617   4415386.6279   1   8   0.0041   0.0086   0.0111   0.0043  -0.0082  -0.0032   0.00    9.9
2173    770.000  -1050083.4195  -4468050.9605   4415386.6281   1   8   0.0041   0.0089   0.0111   0.0041  -0.0081  -0.0029   0.00   10.2
2173    771.000  -1050083.4200  -4468050.9609   4415386.6289   1   8   0.0042   0.0090   0.0111   0.0036  -0.0080  -0.0033   0.00   10.5
2173    772.000  -1050083.4235  -4468050.9613   4415386.6279   1   8   0.0034   0.0085   0.0110   0.0046  -0.0082  -0.0028   0.00   10.8
2173    773.000  -1050083.4249  -4468050.9663   4415386.6320   1   8   0.0041   0.0085   0.0111   0.0043  -0.0083  -0.0032   0.00   11.1
2173    774.000  -1050083.4261  -4468050.9686   4415386.6338   1   8   0.0040   0.0085   0.0110   0.0042  -0.0082  -0.0032   0.00   11.5
2173    775.000  -1050083.4258  -4468050.9687   4415386.6348   1   8   0.0041   0.0089   0.0110   0.0040  -0.0081  -0.0030   0.00   11.9
2173    776.000  -1050083.4279  -4468050.9684   4415386.6336   1   8   0.0041   0.0087   0.0111   0.0043  -0.0081  -0.0026   0.00   12.3
2173    777.000  -1050083.4271  -4468050.9692   4415386.6360   1   8   0.0038   0.0086   0.0111   0.0041  -0.0082  -0.0031   0.00   12.6
2173    778.000  -1050083.4264  -4468050.9703   4415386.6363   1   8   0.0046   0.0090   0.0111   0.0034  -0.0080  -0.0036   0.00   13.0
2173    779.000  -1050083.4217  -4468050.9610   4415386.6285   1   8   0.0041   0.0086   0.0111   0.0044  -0.0082  -0.0032   0.00   13.2
2173    780.000  -1050083.4258  -4468050.9697   4415386.6392   1   8   0.0044   0.0088   0.0110   0.0044  -0.0081  -0.0033   0.00   13.3
2173    781.000  -1050083.4217  -4468050.9634   4415386.6321   1   8   0.0039   0.0088   0.0111   0.0044  -0.0081  -0.0031   0.00   13.3
2173    782.000  -1050083.4213  -4468050.9569   4415386.6249   1   8   0.0047   0.0088   0.0110   0.0041  -0.0082  -0.0033   0.00   13.2
2173    783.000  -1050083.4210  -4468050.9602   4415386.6275   1   8   0.0042   0.0085   0.0111   0.0044  -0.0083  -0.0033   0.00   13.1
2173    784.000  -1050083.4170  -4468050.9555   4415386.6301   1   8   0.0037   0.0086   0.0110   0.0042  -0.0082  -0.0033   0.00   12.9
2173    785.000  -1050083.4207  -4468050.9574   4415386.6254   1   8   0.0044   0.0087   0.0111   0.0042  -0.0081  -0.0030   0.00   12.8
2173    786.000  -1050083.4233  -4468050.9603   4415386.6354   1   8   0.0042   0.0090   0.0111   0.0037  -0.0080  -0.0032   0.00   12.7
2173    787.000  -1050083.4221  -4468050.9590   4415386.6298   1   8   0.0038   0.0088   0.0111   0.0043  -0.0081  -0.0028   0.00   12.6
2173    788.000  -1050083.4186  -4468050.9574   4415386.6243   1   8   0.0042   0.0086   0.0110   0.0047  -0.0082  -0.0026   0.00   12.4
2173    789.000  -1050083.5089  -4468051.2483   4415386.7837   2   8   0.0345   0.0638   0.0562   0.0322  -0.0437  -0.0193   0.00    1.4
2173    790.000  -1050083.5104  -4468051.2500   4415386.7822   2   8   0.0343   0.0634   0.0557   0.0319  -0.0432  -0.0190   0.00    1.8
2173    791.000  -1050083.5063  -4468051.2477   4415386.7851   2   8   0.0342   0.0631   0.0552   0.0317  -0.0428  -0.0188   0.00    2.1
2173    792.000  -1050083.5079  -4468051.2514   4415386.7847   2   8   0.0340   0.0627   0.0547   0.0316  -0.0425  -0.0187   0.00    2.5
2173    793.000  -1050083.5119  -4468051.2574   4415386.7851   2   8   0.0339   0.0624   0.0542   0.0314  -0.0422  -0.0186   0.00    2.9
2173    794.000  -1050083.4181  -4468050.9575   4415386.6313   1   8   0.0045   0.0087   0.0110   0.0041  -0.0081  -0.0034   0.00    3.3
2173    795.000  -1050083.4173  -4468050.9617   4415386.6331   1   8   0.0042   0.0089   0.0111   0.0043  -0.0081  -0.0030   0.00    3.6
2173    796.000  -1050083.4216  -4468050.9594   4415386.6274   1   8   0.0037   0.0083   0.0110   0.0046  -0.0083  -0.0030   0.00    4.0
2173    797.000  -1050083.4205  -4468050.9586   4415386.6318   1   8   0.0044   0.0088   0.0111   0.0042  -0.0081  -0.0031   0.00    4.3
2173    798.000  -1050083.4176  -4468050.9545   4415386.6246   1   8   0.0043   0.0090   0.0110   0.0040  -0.0080  -0.0033   0.00    4.6
2173    799.000  -1050083.4156  -4468050.9517   4415386.6251   1   8   0.0042   0.0090   0.0111   0.0037  -0.0080  -0.0035   0.00    4.9
2173    800.000  -1050083.4193  -4468050.9566   4415386.6295   1   8   0.0039   0.0085   0.0110   0.0047  -0.0082  -0.0029   0.00    5.1
2173    801.000  -1050083.4189  -4468050.9536   4415386.6286   1   8   0.0041   0.0087   0.0110   0.0041  -0.0082  -0.0035   0.00    5.4
2173    802.000  -1050083.4192  -4468050.9571   4415386.6305   1   8   0.0043   0.0090   0.0111   0.0039  -0.0080  -0.0033   0.00    5.7
2173    803.000  -1050083.4184  -4468050.9530   4415386.6270   1   8   0.0043   0.0088   0.0110   0.0042  -0.0081  -0.0030   0.00    5.9
2173    804.000  -1050083.4288  -4468050.9689   4415386.6390   1   7   0.0053   0.0103   0.0118   0.0058  -0.0093  -0.0050   0.00   14.9
2173    805.000  -1050083.5047  -4468051.2431   4415386.7758   2   8   0.0327   0.0593   0.0493   0.0301  -0.0387  -0.0178   0.00    1.4
2173    806.000  -1050083.5066  -4468051.2373   4415386.7690   2   8   0.0324   0.0590   0.0488   0.0298  -0.0383  -0.0175   0.00    1.7
2173    807.000  -1050083.4222  -4468050.9544   4415386.6444   1   7   0.0053   0.0101   0.0118   0.0057  -0.0093  -0.0049   0.00   14.9
2173    808.000  -1050083.5024  -4468051.2366   4415386.7700   2   7   0.0323   0.0586   0.0482   0.0298  -0.0379  -0.0176   0.00    1.5
2173    809.000  -1050083.4237  -4468050.9533   4415386.6377   1   7   0.0055   0.0101   0.0118   0.0060  -0.0093  -0.0050   0.00   15.1
2173    810.000  -1050083.5007  -4468051.2393   4415386.7606   2   7   0.0321   0.0581   0.0474   0.0297  -0.0374  -0.0175   0.00    1.4
2173    811.000  -1050083.4887  -4468051.2182   4415386.7521   2   8   0.0321   0.0579   0.0471   0.0295  -0.0371  -0.0174   0.00    1.4
2173    812.000  -1050083.4935  -4468051.2170   4415386.7471   2   8   0.0319   0.0576   0.0466   0.0292  -0.0367  -0.0171   0.00    1.7
2173    813.000  -1050083.4816  -4468051.2116   4415386.7316   2   8   0.0318   0.0573   0.0463   0.0291  -0.0365  -0.0170   0.00    1.6
2173    814.000  -1050083.4764  -4468051.2001   4415386.7190   2   8   0.0316   0.0570   0.0459   0.0290  -0.0362  -0.0169   0.00    2.2
2173    815.000  -1050083.4841  -4468051.2057   4415386.7265   2   8   0.0315   0.0569   0.0455   0.0288  -0.0358  -0.0168   0.00    2.5
2173    816.000  -1050083.4868  -4468051.2133   4415386.7312   2   8   0.0313   0.0565   0.0452   0.0288  -0.0356  -0.0166   0.00    2.9
2173    817.000  -1050083.4134  -4468050.9479   4415386.6279   1   8   0.0036   0.0086   0.0110   0.0044  -0.0081  -0.0030   0.00    3.3
2173    818.000  -1050083.4109  -4468050.9501   4415386.6415   1   8   0.0041   0.0089   0.0110   0.0039  -0.0081  -0.0031   0.00    3.6
2173    819.000  -1050083.4072  -4468050.9461   4415386.6410   1   8   0.0039   0.0087   0.0111   0.0042  -0.0082  -0.0029   0.00    3.9
2173    820.000  -1050083.4098  -4468050.9504   4415386.6402   1   8   0.0040   0.0088   0.0110   0.0042  -0.0081  -0.0031   0.00    4.2
2173    821.000  -1050083.4129  -4468050.9585   4415386.6541   1   8   0.0042   0.0085   0.0111   0.0047  -0.0082  -0.0028   0.00    4.5
2173    822.000  -1050083.4116  -4468050.9532   4415386.6436   1   8   0.0036   0.0087   0.0110   0.0041  -0.0081  -0.0030   0.00    4.8
2173    823.000  -1050083.4167  -4468050.9505   4415386.6429   1   8   0.0044   0.0084   0.0111   0.0040  -0.0083  -0.0033   0.00    5.0
2173    824.000  -1050083.4765  -4468051.2710   4415386.7843   2   8   0.0308   0.0550   0.0427   0.0281  -0.0339  -0.0164   0.00    1.2
2173    825.000  -1050083.4799  -4468051.2834   4415386.7844   2   8   0.0306   0.0547   0.0424   0.0280  -0.0338  -0.0163   0.00    1.3
2173    826.000  -1050083.4773  -4468051.2849   4415386.7883   2   8   0.0304   0.0544   0.0420   0.0277  -0.0334  -0.0160   0.00    1.5
2173    827.000  -1050083.4820  -4468051.2934   4415386.7911   2   8   0.0302   0.0542   0.0417   0.0276  -0.0331  -0.0159   0.00    1.8
2173    828.000  -1050083.4770  -4468051.2927   4415386.8069   2   8   0.0302   0.0540   0.0414   0.0274  -0.0328  -0.0157   0.00    2.0
2173    829.000  -1050083.4891  -4468051.3224   4415386.8265   2   8   0.0302   0.0539   0.0412   0.0275  -0.0329  -0.0161   0.00    1.3
2173    830.000  -1050083.4910  -4468051.3267   4415386.8278   2   8   0.0300   0.0536   0.0408   0.0273  -0.0325  -0.0157   0.00    1.6
2173    831.000  -1050083.4941  -4468051.3471   4415386.8372   2   8   0.0301   0.0536   0.0407   0.0274  -0.0325  -0.0159   0.00    1.3
2173    832.000  -1050083.4954  -4468051.3539   4415386.8429   2   8   0.0300   0.0534   0.0404   0.0272  -0.0323  -0.0159   0.00    1.3
2173    833.000  -1050083.4941  -4468051.3597   4415386.8502   2   8   0.0299   0.0531   0.0401   0.0272  -0.0321  -0.0158   0.00    1.3
2173    834.000  -1050083.4933  -4468051.3654   4415386.8544   2   8   0.0297   0.0528   0.0397   0.0270  -0.0317  -0.0154   0.00    1.6
2173    835.000  -1050083.4989  -4468051.3756   4415386.8605   2   8   0.0296   0.0527   0.0395   0.0269  -0.0316  -0.0154   0.00    1.4
2173    836.000  -1050083.4985  -4468051.3758   4415386.8608   2   8   0.0295   0.0524   0.0391   0.0266  -0.0313  -0.0153   0.00    1.8
2173    837.000  -1050083.5013  -4468051.3851   4415386.8676   2   8   0.0293   0.0522   0.0389   0.0265  -0.0310  -0.0151   0.00    2.2
2173    838.000  -1050083.5019  -4468051.3847   4415386.8614   2   8   0.0293   0.0520   0.0386   0.0264  -0.0309  -0.0151   0.00    2.6
2173    839.000  -1050083.5037  -4468051.3918   4415386.8696   2   8   0.0292   0.0518   0.0383   0.0263  -0.0306  -0.0151   0.00    2.8
2173    840.000  -1050083.4119  -4468050.9443   4415386.6362   1   8   0.0037   0.0082   0.0110   0.0048  -0.0083  -0.0028   0.00    3.1
2173    841.000  -1050083.4121  -4468050.9456   4415386.6379   1   8   0.0045   0.0087   0.0111   0.0042  -0.0081  -0.0032   0.00    3.3
2173    842.000  -1050083.4107  -4468050.9367   4415386.6277   1   8   0.0041   0.0088   0.0111   0.0042  -0.0080  -0.0032   0.00    3.5
2173    843.000  -1050083.5074  -4468051.4061   4415386.8639   2   8   0.0289   0.0513   0.0375   0.0262  -0.0302  -0.0152   0.00    1.3
2173    844.000  -1050083.5073  -4468051.4097   4415386.8631   2   8   0.0288   0.0510   0.0372   0.0260  -0.0299  -0.0148   0.00    1.5
2173    845.000  -1050083.5090  -4468051.4140   4415386.8664   2   8   0.0287   0.0508   0.0369   0.0259  -0.0296  -0.0147   0.00    1.7
2173    846.000  -1050083.5021  -4468051.4101   4415386.8629   2   8   0.0285   0.0506   0.0366   0.0257  -0.0295  -0.0146   0.00    2.0
2173    847.000  -1050083.4144  -4468050.9458   4415386.6321   1   7   0.0056   0.0101   0.0118   0.0059  -0.0093  -0.0049   0.00   16.5
2173    848.000  -1050083.4144  -4468050.9504   4415386.6357   1   7   0.0051   0.0100   0.0117   0.0061  -0.0093  -0.0048   0.00   16.5
2173    849.000  -1050083.4116  -4468050.9518   4415386.6373   1   7   0.0052   0.0100   0.0118   0.0060  -0.0093  -0.0047   0.00   16.4
2173    850.000  -1050083.4133  -4468050.9483   4415386.6364   1   7   0.0052   0.0099   0.0118   0.0063  -0.0093  -0.0048   0.00   16.4
2173    851.000  -1050083.4145  -4468050.9544   4415386.6433   1   7   0.0053   0.0100   0.0117   0.0059  -0.0094  -0.0051   0.00   16.3
2173    852.000  -1050083.4102  -4468050.9498   4415386.6381   1   7   0.0050   0.0100   0.0117   0.0059  -0.0093  -0.0049   0.00   16.3
2173    853.000  -1050083.4107  -4468050.9491   4415386.6390   1   7   0.0055   0.0102   0.0118   0.0055  -0.0092  -0.0049   0.00   16.3
2173    854.000  -1050083.4123  -4468050.9462   4415386.6353   1   7   0.0053   0.0101   0.0118   0.0059  -0.0093  -0.0050   0.00   16.3
2173    855.000  -1050083.4077  -4468050.9448   4415386.6426   1   7   0.0055   0.0101   0.0118   0.0058  -0.0093  -0.0050   0.00   16.2
2173    856.000  -1050083.4176  -4468050.9558   4415386.6422   1   7   0.0053   0.0100   0.0118   0.0058  -0.0093  -0.0050   0.00   16.2
2173    857.000  -1050083.4289  -4468050.9733   4415386.6400   1   7   0.0050   0.0099   0.0117   0.0059  -0.0094  -0.0049   0.00   16.3
2173    858.000  -1050083.4272  -4468050.9708   4415386.6368   1   7   0.0052   0.0097   0.0117   0.0062  -0.0094  -0.0049   0.00   16.4
2173    859.000  -1050083.4268  -4468050.9694   4415386.6410   1   7   0.0053   0.0098   0.0118   0.0059  -0.0094  -0.0050   0.00   16.4
2173    860.000  -1050083.4303  -4468050.9761   4415386.6388   1   7   0.0056   0.0102   0.0118   0.0058  -0.0092  -0.0050   0.00   16.5
2173    861.000  -1050083.4310  -4468050.9735   4415386.6366   1   7   0.0050   0.0100   0.0117   0.0061  -0.0093  -0.0046   0.00   16.6
2173    862.000  -1050083.4319  -4468050.9736   4415386.6396   1   7   0.0051   0.0100   0.0117   0.0059  -0.0093  -0.0048   0.00   16.6
2173    863.000  -1050083.4326  -4468050.9739   4415386.6398   1   7   0.0054   0.0102   0.0117   0.0057  -0.0092  -0.0050   0.00   16.7
2173    864.000  -1050083.4321  -4468050.9802   4415386.6421   1   7   0.0053   0.0099   0.0117   0.0061  -0.0093  -0.0048   0.00   16.7
2173    865.000  -1050083.4333  -4468050.9745   4415386.6340   1   7   0.0052   0.0100   0.0118   0.0059  -0.0093  -0.0049   0.00   16.8
2173    866.000  -1050083.4330  -4468050.9742   4415386.6343   1   7   0.0052   0.0096   0.0117   0.0064  -0.0094  -0.0048   0.00   17.0
2173    867.000  -1050083.4303  -4468050.9755   4415386.6384   1   7   0.0053   0.0098   0.0118   0.0060  -0.0094  -0.0048   0.00   17.0
2173    868.000  -1050083.4321  -4468050.9765   4415386.6362   1   7   0.0054   0.0103   0.0118   0.0055  -0.0091  -0.0050   0.00   17.1
2173    869.000  -1050083.4307  -4468050.9746   4415386.6389   1   7   0.0055   0.0100   0.0117   0.0058  -0.0093  -0.0049   0.00   17.1
2173    870.000  -1050083.4311  -4468050.9779   4415386.6371   1   7   0.0050   0.0097   0.0117   0.0062  -0.0093  -0.0048   0.00   17.1
2173    871.000  -1050083.4348  -4468050.9784   4415386.6342   1   7   0.0055   0.0101   0.0118   0.0058  -0.0092  -0.0048   0.00   17.1
2173    872.000  -1050083.4321  -4468050.9757   4415386.6326   1   7   0.0056   0.0104   0.0118   0.0055  -0.0091  -0.0051   0.00   17.2
2173    873.000  -1050083.4313  -4468050.9710   4415386.6346   1   7   0.0053   0.0100   0.0117   0.0058  -0.0092  -0.0049   0.00   17.2
2173    874.000  -1050083.4298  -4468050.9714   4415386.6346   1   7   0.0052   0.0100   0.0117   0.0060  -0.0093  -0.0047   0.00   17.2
2173    875.000  -1050083.4309  -4468050.9740   4415386.6343   1   7   0.0054   0.0102   0.0118   0.0057  -0.0092  -0.0048   0.00   17.3
2173    876.000  -1050083.4296  -4468050.9759   4415386.6377   1   7   0.0055   0.0100   0.0117   0.0056  -0.0093  -0.0049   0.00   17.3
2173    877.000  -1050083.4324  -4468050.9761   4415386.6372   1   7   0.0055   0.0102   0.0117   0.0056  -0.0092  -0.0049   0.00   17.3
2173    878.000  -1050083.4332  -4468050.9828   4415386.6421   1   7   0.0054   0.0098   0.0118   0.0061  -0.0094  -0.0049   0.00   17.4
2173    879.000  -1050083.4325  -4468050.9786   4415386.6410   1   7   0.0053   0.0099   0.0117   0.0060  -0.0093  -0.0050   0.00   17.4
2173    880.000  -1050083.5522  -4468051.4968   4415386.8657   2   7   0.0269   0.0461   0.0303   0.0240  -0.0251  -0.0138   0.00    1.2
2173    881.000  -1050083.4331  -4468050.9797   4415386.6401   1   7   0.0052   0.0101   0.0117   0.0059  -0.0092  -0.0048   0.00   17.4
2173    882.000  -1050083.4264  -4468050.9842   4415386.6606   1   7   0.0055   0.0102   0.0118   0.0057  -0.0092  -0.0052   0.00   17.5
2173    883.000  -1050083.4259  -4468050.9837   4415386.6604   1   7   0.0054   0.0100   0.0118   0.0058  -0.0093  -0.0049   0.00   17.6
2173    884.000  -1050083.4264  -4468050.9830   4415386.6603   1   7   0.0054   0.0101   0.0117   0.0057  -0.0092  -0.0049   0.00   17.6
2173    885.000  -1050083.4267  -4468050.9827   4415386.6594   1   7   0.0052   0.0099   0.0118   0.0058  -0.0093  -0.0049   0.00   17.7
2173    886.000  -1050083.4276  -4468050.9892   4415386.6646   1   7   0.0055   0.0102   0.0117   0.0056  -0.0092  -0.0050   0.00   17.8
2173    887.000  -1050083.4274  -4468050.9864   4415386.6611   1   7   0.0050   0.0100   0.0117   0.0057  -0.0093  -0.0048   0.00   17.9
2173    888.000  -1050083.4248  -4468050.9836   4415386.6619   1   7   0.0054   0.0101   0.0118   0.0059  -0.0092  -0.0049   0.00   17.9
2173    889.000  -1050083.4261  -4468050.9827   4415386.6577   1   7   0.0052   0.0101   0.0118   0.0057  -0.0092  -0.0049   0.00   18.0
2173    890.000  -1050083.4235  -4468050.9833   4415386.6626   1   7   0.0053   0.0100   0.0118   0.0060  -0.0092  -0.0048   0.00   18.0
2173    891.000  -1050083.4238  -4468050.9823   4415386.6606   1   7   0.0053   0.0101   0.0118   0.0059  -0.0092  -0.0048   0.00   18.1
2173    892.000  -1050083.4248  -4468050.9850   4415386.6605   1   7   0.0053   0.0100   0.0117   0.0059  -0.0093  -0.0050   0.00   18.2
2173    893.000  -1050083.4261  -4468050.9854   4415386.6597   1   7   0.0054   0.0100   0.0117   0.0060  -0.0092  -0.0049   0.00   18.2
2173    894.000  -1050083.4251  -4468050.9850   4415386.6607   1   7   0.0052   0.0101   0.0117   0.0058  -0.0091  -0.0049   0.00   18.3
2173    895.000  -1050083.4249  -4468050.9862   4415386.6604   1   7   0.0053   0.0100   0.0117   0.0059  -0.0092  -0.0049   0.00   18.3
2173    896.000  -1050083.4258  -4468050.9874   4415386.6638   1   7   0.0054   0.0100   0.0118   0.0059  -0.0092  -0.0048   0.00   18.4
2173    897.000  -1050083.4286  -4468050.9876   4415386.6612   1   7   0.0056   0.0102   0.0117   0.0056  -0.0092  -0.0050   0.00   18.4
2173    898.000  -1050083.4251  -4468050.9833   4415386.6564   1   7   0.0053   0.0099   0.0117   0.0058  -0.0092  -0.0049   0.00   18.5
2173    899.000  -1050083.4248  -4468050.9830   4415386.6561   1   7   0.0054   0.0101   0.0117   0.0060  -0.0091  -0.0048   0.00   18.5
2173    900.000  -1050083.4225  -4468050.9848   4415386.6569   1   7   0.0053   0.0099   0.0118   0.0059  -0.0092  -0.0047   0.00   18.6
2173    901.000  -1050083.4205  -4468050.9820   4415386.6581   1   7   0.0055   0.0099   0.0117   0.0059  -0.0093  -0.0049   0.00   18.6
2173    902.000  -1050083.4199  -4468050.9818   4415386.6590   1   7   0.0054   0.0102   0.0117   0.0055  -0.0092  -0.0049   0.00   18.6
2173    903.000  -1050083.4218  -4468050.9812   4415386.6516   1   7   0.0054   0.0102   0.0118   0.0055  -0.0092  -0.0050   0.00   18.7
2173    904.000  -1050083.4215  -4468050.9826   4415386.6545   1   7   0.0053   0.0099   0.0117   0.0057  -0.0093  -0.0050   0.00   18.7
2173    905.000  -1050083.4250  -4468050.9835   4415386.6512   1   7   0.0050   0.0100   0.0117   0.0059  -0.0092  -0.0048   0.00   18.7
2173    906.000  -1050083.4211  -4468050.9811   4415386.6523   1   7   0.0057   0.0103   0.0118   0.0055  -0.0091  -0.0049   0.00   18.7
2173    907.000  -1050083.4230  -4468050.9817   4415386.6529   1   7   0.0054   0.0100   0.0117   0.0059  -0.0092  -0.0048   0.00   18.7
2173    908.000  -1050083.4225  -4468050.9813   4415386.6530   1   7   0.0052   0.0101   0.0117   0.0055  -0.0092  -0.0048   0.00   18.7
2173    909.000  -1050083.4216  -4468050.9809   4415386.6520   1   7   0.0053   0.0098   0.0117   0.0060  -0.0093  -0.0048   0.00   18.7
2173    910.000  -1050083.4212  -4468050.9866   4415386.6605   1   7   0.0056   0.0102   0.0117   0.0055  -0.0091  -0.0049   0.00   18.7
2173    911.000  -1050083.4227  -4468050.9828   4415386.6507   1   7   0.0051   0.0101   0.0117   0.0059  -0.0092  -0.0048   0.00   18.7
2173    912.000  -1050083.4223  -4468050.9817   4415386.6525   1   7   0.0051   0.0099   0.0117   0.0060  -0.0092  -0.0048   0.00   18.7
2173    913.000  -1050083.4232  -4468050.9836   4415386.6531   1   7   0.0052   0.0098   0.0117   0.0061  -0.0092  -0.0046   0.00   18.7
2173    914.000  -1050083.4229  -4468050.9850   4415386.6595   1   7   0.0053   0.0100   0.0117   0.0059  -0.0092  -0.0048   0.00   18.7
2173    915.000  -1050083.4232  -4468050.9839   4415386.6572   1   7   0.0054   0.0100   0.0117   0.0058  -0.0092  -0.0048   0.00   18.7
2173    916.000  -1050083.4242  -4468050.9842   4415386.6511   1   7   0.0052   0.0098   0.0116   0.0059  -0.0093  -0.0046   0.00   18.7
2173    917.000  -1050083.4197  -4468050.9825   4415386.6566   1   7   0.0052   0.0099   0.0117   0.0058  -0.0093  -0.0048   0.00   18.7
2173    918.000  -1050083.4220  -4468050.9832   4415386.6545   1   7   0.0050   0.0100   0.0117   0.0059  -0.0091  -0.0049   0.00   18.7
2173    919.000  -1050083.4221  -4468050.9833   4415386.6568   1   7   0.0051   0.0101   0.0117   0.0056  -0.0091  -0.0048   0.00   18.7
2173    920.000  -1050083.4225  -4468050.9804   4415386.6532   1   7   0.0052   0.0098   0.0117   0.0060  -0.0093  -0.0048   0.00   18.7
2173    921.000  -1050083.4226  -4468050.9825   4415386.6550   1   7   0.0052   0.0100   0.0117   0.0059  -0.0092  -0.0047   0.00   18.7
2173    922.000  -1050083.4220  -4468050.9784   4415386.6483   1   7   0.0054   0.0098   0.0117   0.0059  -0.0093  -0.0049   0.00   18.7
2173    923.000  -1050083.4223  -4468050.9809   4415386.6507   1   7   0.0051   0.0100   0.0117   0.0057  -0.0092  -0.0049   0.00   18.7
2173    924.000  -1050083.4205  -4468050.9779   4415386.6477   1   7   0.0052   0.0098   0.0117   0.0061  -0.0092  -0.0047   0.00   18.7
2173    925.000  -1050083.4202  -4468050.9794   4415386.6531   1   7   0.0056   0.0102   0.0117   0.0054  -0.0091  -0.0050   0.00   18.7
2173    926.000  -1050083.4203  -4468050.9800   4415386.6475   1   7   0.0054   0.0101   0.0117   0.0058  -0.0091  -0.0048   0.00   18.7
2173    927.000  -1050083.4199  -4468050.9787   4415386.6457   1   7   0.0054   0.0102   0.0117   0.0057  -0.0091  -0.0049   0.00   18.7
2173    928.000  -1050083.4208  -4468050.9803   4415386.6522   1   7   0.0050   0.0101   0.0117   0.0058  -0.0091  -0.0048   0.00   18.7
2173    929.000  -1050083.4216  -4468050.9778   4415386.6474   1   7   0.0051   0.0098   0.0117   0.0061  -0.0093  -0.0047   0.00   18.7
2173    930.000  -1050083.4189  -4468050.9802   4415386.6514   1   7   0.0055   0.0100   0.0117   0.0058  -0.0092  -0.0049   0.00   18.6
2173    931.000  -1050083.4181  -4468050.9754   4415386.6441   1   7   0.0054   0.0100   0.0117   0.0059  -0.0091  -0.0049   0.00   18.6
2173    932.000  -1050083.4204  -4468050.9777   4415386.6428   1   7   0.0055   0.0101   0.0117   0.0056  -0.0091  -0.0049   0.00   18.6
2173    933.000  -1050083.4191  -4468050.9752   4415386.6420   1   7   0.0049   0.0098   0.0117   0.0062  -0.0092  -0.0047   0.00   18.5
2173    934.000  -1050083.4190  -4468050.9745   4415386.6420   1   7   0.0053   0.0100   0.0117   0.0059  -0.0091  -0.0048   0.00   18.5
2173    935.000  -1050083.4202  -4468050.9773   4415386.6469   1   7   0.0051   0.0099   0.0117   0.0059  -0.0092  -0.0047   0.00   18.5
2173    936.000  -1050083.4202  -4468050.9754   4415386.6472   1   7   0.0055   0.0102   0.0117   0.0056  -0.0091  -0.0049   0.00   18.5
2173    937.000  -1050083.4203  -4468050.9802   4415386.6490   1   7   0.0053   0.0101   0.0117   0.0055  -0.0091  -0.0050   0.00   18.5
2173    938.000  -1050083.4189  -4468050.9763   4415386.6465   1   7   0.0054   0.0100   0.0117   0.0058  -0.0091  -0.0048   0.00   18.4
2173    939.000  -1050083.4200  -4468050.9747   4415386.6437   1   7   0.0049   0.0098   0.0117   0.0060  -0.0092  -0.0048   0.00   18.4
2173    940.000  -1050083.4197  -4468050.9784   4415386.6488   1   7   0.0051   0.0101   0.0117   0.0054  -0.0091  -0.0050   0.00   18.3
2173    941.000  -1050083.4188  -4468050.9763   4415386.6492   1   7   0.0052   0.0099   0.0117   0.0059  -0.0092  -0.0047   0.00   18.3
2173    942.000  -1050083.4205  -4468050.9798   4415386.6488   1   7   0.0051   0.0097   0.0117   0.0059  -0.0093  -0.0047   0.00   18.3
2173    943.000  -1050083.4205  -4468050.9767   4415386.6474   1   7   0.0053   0.0100   0.0117   0.0057  -0.0092  -0.0048   0.00   18.2
2173    944.000  -1050083.4207  -4468050.9804   4415386.6525   1   7   0.0053   0.0097   0.0116   0.0063  -0.0092  -0.0049   0.00   18.2
2173    945.000  -1050083.4178  -4468050.9759   4415386.6482   1   7   0.0054   0.0102   0.0117   0.0056  -0.0090  -0.0049   0.00   18.1
2173    946.000  -1050083.4211  -4468050.9793   4415386.6519   1   7   0.0053   0.0098   0.0117   0.0059  -0.0092  -0.0048   0.00   18.1
2173    947.000  -1050083.4192  -4468050.9773   4415386.6516   1   7   0.0054   0.0101   0.0117   0.0059  -0.0091  -0.0049   0.00   18.0
2173    948.000  -1050083.4206  -4468050.9774   4415386.6493   1   7   0.0056   0.0102   0.0117   0.0055  -0.0090  -0.0050   0.00   18.0
2173    949.000  -1050083.4219  -4468050.9816   4415386.6522   1   7   0.0052   0.0100   0.0117   0.0058  -0.0091  -0.0049   0.00   17.9
2173    950.000  -1050083.4213  -4468050.9829   4415386.6555   1   7   0.0051   0.0101   0.0117   0.0057  -0.0091  -0.0047   0.00   17.9
2173    951.000  -1050083.4238  -4468050.9832   4415386.6516   1   7   0.0050   0.0098   0.0116   0.0061  -0.0092  -0.0047   0.00   17.9
2173    952.000  -1050083.4227  -4468050.9830   4415386.6561   1   7   0.0057   0.0102   0.0117   0.0057  -0.0090  -0.0048   0.00   17.8
2173    953.000  -1050083.4198  -4468050.9801   4415386.6543   1   7   0.0053   0.0100   0.0117   0.0057  -0.0091  -0.0048   0.00   17.7
2173    954.000  -1050083.4239  -4468050.9810   4415386.6536   1   7   0.0050   0.0099   0.0117   0.0060  -0.0091  -0.0047   0.00   17.7
2173    955.000  -1050083.4344  -4468051.1379   4415386.5860   2   7   0.0234   0.0385   0.0220   0.0202  -0.0192  -0.0117   0.00    1.2
2173    956.000  -1050083.4229  -4468050.9836   4415386.6532   1   7   0.0054   0.0100   0.0117   0.0057  -0.0091  -0.0050   0.00   17.6
2173    957.000  -1050083.4227  -4468050.9811   4415386.6542   1   7   0.0054   0.0100   0.0117   0.0058  -0.0091  -0.0047   0.00   17.5
2173    958.000  -1050083.4223  -4468050.9818   4415386.6573   1   7   0.0049   0.0096   0.0116   0.0060  -0.0093  -0.0047   0.00   17.4
2173    959.000  -1050083.4246  -4468050.9891   4415386.6604   1   7   0.0055   0.0100   0.0117   0.0057  -0.0091  -0.0048   0.00   17.4
2173    960.000  -1050083.4224  -4468050.9854   4415386.6606   1   7   0.0054   0.0100   0.0117   0.0058  -0.0091  -0.0049   0.00   17.3
2173    961.000  -1050083.4269  -4468051.1218   4415386.5837   2   8   0.0232   0.0380   0.0216   0.0199  -0.0188  -0.0116   0.00    1.1
2173    962.000  -1050083.4248  -4468051.1105   4415386.5770   2   8   0.0231   0.0379   0.0215   0.0199  -0.0187  -0.0116   0.00    1.1
2173    963.000  -1050083.4704  -4468051.1842   4415386.6358   2   7   0.0229   0.0377   0.0213   0.0199  -0.0186  -0.0113   0.00    1.4
2173    964.000  -1050083.4541  -4468051.1573   4415386.6145   2   7   0.0229   0.0376   0.0212   0.0196  -0.0184  -0.0113   0.00    1.6
2173    965.000  -1050083.4429  -4468051.1362   4415386.6035   2   7   0.0229   0.0375   0.0211   0.0195  -0.0183  -0.0112   0.00    1.4
2173    966.000  -1050083.4171  -4468051.0996   4415386.5762   2   7   0.0229   0.0376   0.0212   0.0197  -0.0185  -0.0115   0.00    1.2
2173    967.000  -1050083.4154  -4468051.0964   4415386.5758   2   7   0.0227   0.0373   0.0210   0.0196  -0.0183  -0.0113   0.00    1.4
2173    968.000  -1050083.4262  -4468050.9879   4415386.6621   1   7   0.0053   0.0100   0.0117   0.0057  -0.0091  -0.0048   0.00   16.9
2173    969.000  -1050083.4120  -4468051.0874   4415386.5696   2   7   0.0228   0.0374   0.0210   0.0195  -0.0183  -0.0114   0.00    1.2
2173    970.000  -1050083.4079  -4468051.0821   4415386.5651   2   7   0.0227   0.0371   0.0208   0.0194  -0.0181  -0.0112   0.00    1.4
2173    971.000  -1050083.4093  -4468051.0836   4415386.5679   2   7   0.0226   0.0370   0.0207   0.0193  -0.0180  -0.0111   0.00    1.6
2173    972.000  -1050083.4084  -4468051.0825   4415386.5704   2   7   0.0226   0.0369   0.0207   0.0192  -0.0179  -0.0111   0.00    1.8
2173    973.000  -1050083.4219  -4468050.9882   4415386.6648   1   7   0.0054   0.0101   0.0117   0.0057  -0.0090  -0.0048   0.00   16.6
2173    974.000  -1050083.4020  -4468051.0722   4415386.5654   2   7   0.0226   0.0369   0.0207   0.0194  -0.0181  -0.0113   0.00    1.2
2173    975.000  -1050083.4016  -4468051.0731   4415386.5650   2   7   0.0225   0.0368   0.0205   0.0191  -0.0179  -0.0112   0.00    1.4
2173    976.000  -1050083.3994  -4468051.0664   4415386.5625   2   7   0.0224   0.0366   0.0204   0.0191  -0.0178  -0.0110   0.00    1.6
2173    977.000  -1050083.3992  -4468051.0615   4415386.5557   2   7   0.0223   0.0365   0.0203   0.0190  -0.0177  -0.0110   0.00    1.8
2173    978.000  -1050083.3945  -4468051.0535   4415386.5524   2   7   0.0223   0.0365   0.0203   0.0188  -0.0176  -0.0110   0.00    2.0
2173    979.000  -1050083.3957  -4468051.0547   4415386.5583   2   8   0.0224   0.0366   0.0204   0.0191  -0.0178  -0.0112   0.00    1.1
2173    980.000  -1050083.3939  -4468051.0500   4415386.5513   2   8   0.0222   0.0363   0.0201   0.0188  -0.0175  -0.0108   0.00    1.3
2173    981.000  -1050083.4238  -4468050.9880   4415386.6619   1   7   0.0051   0.0099   0.0116   0.0058  -0.0091  -0.0047   0.00   16.1
2173    982.000  -1050083.4244  -4468050.9895   4415386.6634   1   7   0.0052   0.0099   0.0116   0.0058  -0.0091  -0.0046   0.00   16.1
2173    983.000  -1050083.4260  -4468050.9892   4415386.6589   1   7   0.0052   0.0100   0.0116   0.0055  -0.0091  -0.0049   0.00   16.0
2173    984.000  -1050083.4229  -4468050.9881   4415386.6615   1   7   0.0056   0.0101   0.0117   0.0054  -0.0090  -0.0048   0.00   16.0
2173    985.000  -1050083.4234  -4468050.9911   4415386.6653   1   7   0.0052   0.0099   0.0116   0.0054  -0.0091  -0.0048   0.00   15.9
2173    986.000  -1050083.4232  -4468050.9934   4415386.6683   1   7   0.0052   0.0100   0.0116   0.0056  -0.0091  -0.0047   0.00   15.9
2173    987.000  -1050083.4213  -4468050.9891   4415386.6652   1   7   0.0052   0.0099   0.0116   0.0057  -0.0091  -0.0048   0.00   15.8
2173    988.000  -1050083.3873  -4468051.0351   4415386.5562   2   7   0.0220   0.0359   0.0199   0.0186  -0.0174  -0.0110   0.00    1.2
2173    989.000  -1050083.3861  -4468051.0330   4415386.5545   2   7   0.0220   0.0358   0.0197   0.0184  -0.0171  -0.0108   0.00    1.4
2173    990.000  -1050083.3824  -4468051.0239   4415386.5499   2   7   0.0219   0.0356   0.0196   0.0184  -0.0171  -0.0107   0.00    1.5
2173    991.000  -1050083.3869  -4468051.0268   4415386.5495   2   8   0.0220   0.0357   0.0197   0.0185  -0.0172  -0.0109   0.00    1.1
2173    992.000  -1050083.3887  -4468051.0300   4415386.5571   2   8   0.0217   0.0354   0.0195   0.0184  -0.0170  -0.0106   0.00    1.3
2173    993.000  -1050083.3830  -4468051.0181   4415386.5474   2   8   0.0216   0.0352   0.0193   0.0182  -0.0168  -0.0104   0.00    1.4
2173    994.000  -1050083.3807  -4468051.0160   4415386.5481   2   8   0.0217   0.0355   0.0196   0.0184  -0.0171  -0.0109   0.00    1.1
2173    995.000  -1050083.4238  -4468050.9889   4415386.6667   1   7   0.0053   0.0100   0.0116   0.0058  -0.0090  -0.0049   0.00   15.3
2173    996.000  -1050083.4212  -4468050.9884   4415386.6688   1   7   0.0050   0.0096   0.0116   0.0061  -0.0092  -0.0046   0.00   15.3
2173    997.000  -1050083.4211  -4468050.9848   4415386.6660   1   7   0.0055   0.0099   0.0117   0.0058  -0.0091  -0.0049   0.00   15.2
2173    998.000  -1050083.3747  -4468051.0049   4415386.5443   2   7   0.0217   0.0351   0.0193   0.0182  -0.0171  -0.0108   0.00    1.2
2173    999.000  -1050083.3749  -4468051.0017   4415386.5466   2   7   0.0214   0.0349   0.0192   0.0181  -0.0168  -0.0105   0.00    1.4
2173   1000.000  -1050083.3717  -4468050.9939   4415386.5394   2   7   0.0214   0.0349   0.0191   0.0179  -0.0167  -0.0106   0.00    1.6
2173   1001.000  -1050083.3726  -4468050.9942   4415386.5379   2   7   0.0213   0.0347   0.0190   0.0179  -0.0166  -0.0104   0.00    1.8
2173   1002.000  -1050083.3693  -4468050.9878   4415386.5396   2   7   0.0213   0.0346   0.0189   0.0178  -0.0166  -0.0104   0.00    1.9
2173   1003.000  -1050083.3701  -4468050.9853   4415386.5377   2   8   0.0215   0.0348   0.0191   0.0180  -0.0167  -0.0108   0.00    1.1
2173   1004.000  -1050083.3668  -4468050.9804   4415386.5333   2   8   0.0213   0.0346   0.0189   0.0178  -0.0164  -0.0105   0.00    1.3
2173   1005.000  -1050083.3673  -4468050.9786   4415386.5317   2   8   0.0213   0.0347   0.0190   0.0178  -0.0167  -0.0107   0.00    1.1
2173   1006.000  -1050083.3671  -4468050.9803   4415386.5417   2   8   0.0212   0.0344   0.0187   0.0176  -0.0164  -0.0103   0.00    1.2
2173   1007.000  -1050083.4198  -4468050.9858   4415386.6673   1   7   0.0053   0.0098   0.0116   0.0059  -0.0091  -0.0048   0.00   14.6
2173   1008.000  -1050083.3631  -4468050.9675   4415386.5266   2   7   0.0212   0.0345   0.0189   0.0178  -0.0166  -0.0106   0.00    1.2
2173   1009.000  -1050083.3638  -4468050.9663   4415386.5294   2   8   0.0211   0.0343   0.0188   0.0178  -0.0166  -0.0105   0.00    1.1
2173   1010.000  -1050083.3608  -4468050.9644   4415386.5316   2   8   0.0210   0.0341   0.0186   0.0175  -0.0162  -0.0103   0.00    1.2
2173   1011.000  -1050083.3621  -4468050.9603   4415386.5247   2   8   0.0209   0.0340   0.0184   0.0174  -0.0161  -0.0100   0.00    1.3
2173   1012.000  -1050083.3589  -4468050.9580   4415386.5258   2   8   0.0208   0.0338   0.0184   0.0173  -0.0161  -0.0100   0.00    1.4
2173   1013.000  -1050083.3583  -4468050.9537   4415386.5244   2   8   0.0208   0.0339   0.0183   0.0171  -0.0159  -0.0100   0.00    1.5
2173   1014.000  -1050083.3581  -4468050.9555   4415386.5263   2   8   0.0208   0.0337   0.0182   0.0172  -0.0159  -0.0099   0.00    1.6
2173   1015.000  -1050083.3605  -4468050.9554   4415386.5253   2   8   0.0209   0.0339   0.0185   0.0175  -0.0163  -0.0104   0.00    1.1
2173   1016.000  -1050083.3604  -4468050.9534   4415386.5289   2   8   0.0210   0.0340   0.0185   0.0173  -0.0162  -0.0105   0.00    1.1
2173   1017.000  -1050083.3601  -4468050.9504   4415386.5251   2   8   0.0207   0.0337   0.0183   0.0171  -0.0159  -0.0101   0.00    1.2
2173   1018.000  -1050083.3588  -4468050.9478   4415386.5257   2   8   0.0207   0.0335   0.0181   0.0170  -0.0158  -0.0101   0.00    1.3
2173   1019.000  -1050083.3574  -4468050.9438   4415386.5237   2   8   0.0206   0.0334   0.0181   0.0169  -0.0157  -0.0099   0.00    1.4
2173   1020.000  -1050083.3558  -4468050.9436   4415386.5237   2   8   0.0208   0.0337   0.0183   0.0172  -0.0160  -0.0104   0.00    1.1
2173   1021.000  -1050083.3570  -4468050.9437   4415386.5270   2   8   0.0204   0.0333   0.0181   0.0170  -0.0159  -0.0100   0.00    1.2
2173   1022.000  -1050083.3523  -4468050.9411   4415386.5312   2   8   0.0206   0.0335   0.0182   0.0171  -0.0161  -0.0103   0.00    1.1
2173   1023.000  -1050083.3495  -4468050.9290   4415386.5204   2   8   0.0205   0.0332   0.0180   0.0169  -0.0157  -0.0100   0.00    1.2
2173   1024.000  -1050083.3522  -4468050.9316   4415386.5241   2   8   0.0204   0.0332   0.0179   0.0167  -0.0155  -0.0098   0.00    1.4
2173   1025.000  -1050083.3504  -4468050.9252   4415386.5186   2   8   0.0203   0.0330   0.0178   0.0165  -0.0155  -0.0098   0.00    1.5
2173   1026.000  -1050083.3510  -4468050.9261   4415386.5201   2   8   0.0203   0.0330   0.0177   0.0166  -0.0154  -0.0097   0.00    1.6
2173   1027.000  -1050083.3506  -4468050.9268   4415386.5239   2   8   0.0202   0.0329   0.0177   0.0164  -0.0153  -0.0096   0.00    1.7
2173   1028.000  -1050083.3463  -4468050.9153   4415386.5135   2   8   0.0202   0.0328   0.0176   0.0165  -0.0153  -0.0097   0.00    1.7
2173   1029.000  -1050083.3499  -4468050.9167   4415386.5198   2   8   0.0203   0.0330   0.0179   0.0169  -0.0158  -0.0102   0.00    1.1
2173   1030.000  -1050083.3504  -4468050.9162   4415386.5146   2   8   0.0201   0.0327   0.0177   0.0167  -0.0155  -0.0097   0.00    1.2
2173   1031.000  -1050083.3446  -4468050.9119   4415386.5149   2   8   0.0201   0.0327   0.0176   0.0164  -0.0153  -0.0097   0.00    1.3
2173   1032.000  -1050083.3492  -4468050.9166   4415386.5206   2   8   0.0201   0.0325   0.0175   0.0163  -0.0153  -0.0097   0.00    1.4
2173   1033.000  -1050083.3486  -4468050.9163   4415386.5229   2   8   0.0199   0.0324   0.0174   0.0164  -0.0152  -0.0095   0.00    1.5
2173   1034.000  -1050083.3447  -4468050.9108   4415386.5222   2   8   0.0199   0.0325   0.0174   0.0161  -0.0151  -0.0096   0.00    1.6
2173   1035.000  -1050083.3466  -4468050.9116   4415386.5187   2   8   0.0198   0.0322   0.0173   0.0163  -0.0151  -0.0094   0.00    1.7
2173   1036.000  -1050083.3457  -4468050.9066   4415386.5150   2   8   0.0198   0.0323   0.0173   0.0161  -0.0150  -0.0095   0.00    1.8
2173   1037.000  -1050083.3458  -4468050.9046   4415386.5158   2   8   0.0197   0.0321   0.0172   0.0162  -0.0150  -0.0093   0.00    1.9
2173   1038.000  -1050083.3436  -4468050.8995   4415386.5109   2   8   0.0198   0.0321   0.0172   0.0159  -0.0149  -0.0094   0.00    2.0
2173   1039.000  -1050083.3450  -4468050.8979   4415386.5114   2   8   0.0198   0.0321   0.0172   0.0159  -0.0149  -0.0095   0.00    2.1
2173   1040.000  -1050083.3455  -4468050.9009   4415386.5160   2   8   0.0196   0.0320   0.0171   0.0159  -0.0148  -0.0093   0.00    2.1
2173   1041.000  -1050083.3420  -4468050.8932   4415386.5094   2   8   0.0197   0.0320   0.0171   0.0158  -0.0148  -0.0093   0.00    2.2
2173   1042.000  -1050083.3430  -4468050.8929   4415386.5107   2   8   0.0195   0.0319   0.0171   0.0158  -0.0148  -0.0093   0.00    2.3
2173   1043.000  -1050083.3410  -4468050.8905   4415386.5138   2   8   0.0196   0.0319   0.0170   0.0157  -0.0147  -0.0094   0.00    2.4
2173   1044.000  -1050083.3385  -4468050.8831   4415386.5054   2   8   0.0195   0.0317   0.0170   0.0157  -0.0147  -0.0093   0.00    2.4
2173   1045.000  -1050083.3441  -4468050.8838   4415386.5017   2   8   0.0195   0.0317   0.0169   0.0157  -0.0147  -0.0093   0.00    2.5
2173   1046.000  -1050083.3436  -4468050.8882   4415386.5120   2   8   0.0195   0.0317   0.0169   0.0155  -0.0146  -0.0093   0.00    2.6
2173   1047.000  -1050083.3423  -4468050.8836   4415386.5121   2   8   0.0194   0.0316   0.0169   0.0155  -0.0146  -0.0093   0.00    2.6
2173   1048.000  -1050083.3422  -4468050.8768   4415386.5028   2   8   0.0193   0.0314   0.0168   0.0157  -0.0147  -0.0091   0.00    2.7
2173   1049.000  -1050083.3396  -4468050.8769   4415386.5107   2   8   0.0195   0.0315   0.0168   0.0154  -0.0145  -0.0093   0.00    2.8
2173   1050.000  -1050083.3431  -4468050.8772   4415386.5044   2   8   0.0193   0.0313   0.0168   0.0156  -0.0146  -0.0091   0.00    2.8
2173   1051.000  -1050083.3414  -4468050.8743   4415386.5097   2   8   0.0194   0.0314   0.0168   0.0153  -0.0144  -0.0093   0.00    2.9
2173   1052.000  -1050083.3454  -4468050.8767   4415386.5096   2   8   0.0193   0.0314   0.0167   0.0152  -0.0144  -0.0091   0.00    2.9
2173   1053.000  -1050083.4058  -4468050.9634   4415386.6452   1   8   0.0041   0.0086   0.0109   0.0038  -0.0079  -0.0029   0.00    3.0
2173   1054.000  -1050083.4062  -4468050.9634   4415386.6447   1   8   0.0040   0.0084   0.0109   0.0043  -0.0080  -0.0029   0.00    3.1
2173   1055.000  -1050083.4009  -4468050.9607   4415386.6452   1   8   0.0040   0.0086   0.0109   0.0041  -0.0079  -0.0031   0.00    3.1
2173   1056.000  -1050083.4031  -4468050.9637   4415386.6445   1   8   0.0036   0.0083   0.0108   0.0042  -0.0080  -0.0028   0.00    3.2
2173   1057.000  -1050083.4041  -4468050.9645   4415386.6447   1   8   0.0040   0.0085   0.0109   0.0043  -0.0080  -0.0029   0.00    3.2
2173   1058.000  -1050083.4099  -4468050.9725   4415386.6518   1   8   0.0044   0.0088   0.0109   0.0039  -0.0078  -0.0030   0.00    3.3
2173   1059.000  -1050083.4058  -4468050.9651   4415386.6474   1   8   0.0038   0.0083   0.0109   0.0043  -0.0081  -0.0032   0.00    3.4
2173   1060.000  -1050083.4054  -4468050.9644   4415386.6429   1   8   0.0036   0.0083   0.0109   0.0046  -0.0080  -0.0028   0.00    3.4
2173   1061.000  -1050083.4039  -4468050.9596   4415386.6406   1   8   0.0039   0.0087   0.0109   0.0040  -0.0078  -0.0032   0.00    3.4
2173   1062.000  -1050083.4024  -4468050.9578   4415386.6410   1   8   0.0041   0.0085   0.0109   0.0037  -0.0080  -0.0034   0.00    3.5
2173   1063.000  -1050083.4031  -4468050.9617   4415386.6412   1   8   0.0038   0.0086   0.0109   0.0044  -0.0079  -0.0031   0.00    3.5
2173   1064.000  -1050083.4045  -4468050.9670   4415386.6482   1   8   0.0038   0.0082   0.0109   0.0045  -0.0081  -0.0030   0.00    3.6
2173   1065.000  -1050083.4036  -4468050.9667   4415386.6400   1   8   0.0039   0.0087   0.0109   0.0039  -0.0079  -0.0028   0.00    3.6
2173   1066.000  -1050083.4055  -4468050.9637   4415386.6434   1   8   0.0047   0.0085   0.0109   0.0043  -0.0079  -0.0033   0.00    3.7
2173   1067.000  -1050083.4054  -4468050.9703   4415386.6508   1   8   0.0039   0.0083   0.0109   0.0046  -0.0079  -0.0031   0.00    3.7
2173   1068.000  -1050083.4067  -4468050.9669   4415386.6436   1   8   0.0040   0.0084   0.0109   0.0045  -0.0079  -0.0029   0.00    3.8
2173   1069.000  -1050083.4074  -4468050.9662   4415386.6414   1   8   0.0040   0.0087   0.0109   0.0040  -0.0079  -0.0029   0.00    3.8
2173   1070.000  -1050083.4074  -4468050.9724   4415386.6509   1   8   0.0039   0.0085   0.0109   0.0039  -0.0079  -0.0031   0.00    3.9
2173   1071.000  -1050083.4075  -4468050.9670   4415386.6440   1   8   0.0038   0.0085   0.0109   0.0043  -0.0079  -0.0029   0.00    3.9
2173   1072.000  -1050083.4059  -4468050.9574   4415386.6371   1   8   0.0044   0.0086   0.0109   0.0039  -0.0078  -0.0034   0.00    4.0
2173   1073.000  -1050083.4033  -4468050.9599   4415386.6417   1   8   0.0040   0.0085   0.0109   0.0045  -0.0079  -0.0031   0.00    4.0
2173   1074.000  -1050083.4028  -4468050.9618   4415386.6417   1   8   0.0043   0.0087   0.0109   0.0040  -0.0078  -0.0033   0.00    4.1
2173   1075.000  -1050083.4078  -4468050.9654   4415386.6461   1   8   0.0038   0.0083   0.0109   0.0044  -0.0079  -0.0029   0.00    4.1
2173   1076.000  -1050083.4064  -4468050.9642   4415386.6423   1   8   0.0038   0.0084   0.0109   0.0048  -0.0079  -0.0027   0.00    4.2
2173   1077.000  -1050083.4087  -4468050.9651   4415386.6421   1   8   0.0038   0.0085   0.0108   0.0041  -0.0079  -0.0027   0.00    4.2
2173   1078.000  -1050083.4068  -4468050.9674   4415386.6452   1   8   0.0040   0.0084   0.0109   0.0040  -0.0080  -0.0030   0.00    4.2
2173   1079.000  -1050083.4040  -4468050.9631   4415386.6434   1   8   0.0036   0.0084   0.0109   0.0040  -0.0080  -0.0031   0.00    4.3
2173   1080.000  -1050083.4076  -4468050.9663   4415386.6412   1   8   0.0042   0.0087   0.0109   0.0036  -0.0079  -0.0031   0.00    4.3
2173   1081.000  -1050083.4053  -4468050.9600   4415386.6341   1   8   0.0039   0.0087   0.0109   0.0041  -0.0078  -0.0032   0.00    4.4
2173   1082.000  -1050083.4033  -4468050.9629   4415386.6417   1   8   0.0038   0.0083   0.0109   0.0042  -0.0080  -0.0030   0.00    4.4
2173   1083.000  -1050083.4072  -4468050.9663   4415386.6389   1   8   0.0037   0.0084   0.0109   0.0044  -0.0079  -0.0029   0.00    4.5
