% program   : rnx2rtkp ver.2.4.3 b31
% inp file  : ngs/21_08_31_09_18_27_arlr.obs
% inp file  : ngs/21_08_31_09_18_27_arlr_P1.obs
% inp file  : ngs/21_08_31_09_18_27_brdc.nav
% obs start : 2021/08/31 09:00:00.0 GPST (week2173 205200.0s)
% obs end   : 2021/08/31 09:59:59.0 GPST (week2173 208799.0s)
% ref pos   :  -194284.8900  -5249181.1730   3605825.9340
%
% (x/y/z-ecef=WGS84,Q=1:fix,2:float,3:sbas,4:dgps,5:single,6:ppp,ns=# of satellites)
%  GPST              x-ecef(m)      y-ecef(m)      z-ecef(m)   Q  ns   sdx(m)   sdy(m)   sdz(m)  sdxy(m)  sdyz(m)  sdzx(m) age(s)  ratio
2173 206282.000   -218301.9685  -5246693.8267   3608099.5059   2   8   0.3825   0.9435   0.7403  -0.0845  -0.6709  -0.1676 -30.00    1.6
2173 206283.000   -218301.8446  -5246693.8664   3608099.5397   2   8   0.2720   0.6709   0.5262  -0.0616  -0.4770  -0.1187 -29.00    1.7
2173 206284.000   -218301.8221  -5246693.9834   3608099.6010   2   8   0.2227   0.5492   0.4307  -0.0507  -0.3904  -0.0971 -28.00    1.7
2173 206285.000   -218301.8334  -5246694.1037   3608099.6516   2   8   0.1932   0.4765   0.3737  -0.0440  -0.3387  -0.0843 -27.00    1.6
2173 206286.000   -218301.8490  -5246694.1069   3608099.6151   2   8   0.1731   0.4267   0.3347  -0.0394  -0.3033  -0.0755 -26.00    1.6
2173 206287.000   -218301.8492  -5246694.0743   3608099.5787   2   8   0.1582   0.3899   0.3058  -0.0360  -0.2772  -0.0690 -25.00    1.7
2173 206288.000   -218301.8495  -5246694.1194   3608099.6054   2   8   0.1465   0.3613   0.2833  -0.0334  -0.2568  -0.0640 -24.00    1.7
2173 206289.000   -218301.8524  -5246694.0819   3608099.5904   2   8   0.1372   0.3381   0.2652  -0.0313  -0.2403  -0.0599 -23.00    1.8
2173 206290.000   -218301.8713  -5246694.0665   3608099.5969   2   8   0.1294   0.3189   0.2501  -0.0296  -0.2267  -0.0565 -22.00    1.9
2173 206291.000   -218301.8696  -5246694.0627   3608099.5786   2   8   0.1228   0.3026   0.2373  -0.0282  -0.2151  -0.0536 -21.00    2.0
2173 206292.000   -218301.8860  -5246694.0669   3608099.5902   2   8   0.1171   0.2886   0.2262  -0.0270  -0.2051  -0.0511 -20.00    2.1
2173 206293.000   -218301.8980  -5246694.0653   3608099.5666   2   8   0.1121   0.2763   0.2166  -0.0260  -0.1963  -0.0489 -19.00    2.2
2173 206294.000   -218301.9093  -5246694.0374   3608099.5652   2   8   0.1077   0.2654   0.2080  -0.0251  -0.1886  -0.0469 -18.00    2.4
2173 206295.000   -218301.9074  -5246694.0155   3608099.5434   2   8   0.1038   0.2557   0.2004  -0.0243  -0.1817  -0.0452 -17.00    2.5
2173 206296.000   -218301.9190  -5246694.0159   3608099.5358   2   8   0.1003   0.2470   0.1935  -0.0236  -0.1755  -0.0436 -16.00    2.6
2173 206297.000   -218301.9245  -5246693.9977   3608099.5226   2   8   0.0971   0.2391   0.1873  -0.0230  -0.1698  -0.0422 -15.00    2.7
2173 206298.000   -218301.9342  -5246693.9817   3608099.5076   2   8   0.0941   0.2318   0.1816  -0.0224  -0.1646  -0.0408 -14.00    2.8
2173 206299.000   -218301.9455  -5246693.9495   3608099.4918   2   8   0.0914   0.2252   0.1763  -0.0219  -0.1599  -0.0396 -13.00    2.9
2173 206300.000   -218301.8715  -5246693.3352   3608099.4849   1   8   0.0093   0.0231   0.0193   0.0046  -0.0170  -0.0063 -12.00    3.0
2173 206301.000   -218301.8713  -5246693.3342   3608099.4818   1   8   0.0086   0.0215   0.0180   0.0043  -0.0158  -0.0058 -11.00    3.1
2173 206302.000   -218301.8701  -5246693.3350   3608099.4806   1   8   0.0080   0.0200   0.0166   0.0038  -0.0147  -0.0053 -10.00    3.3
2173 206303.000   -218301.8699  -5246693.3335   3608099.4751   1   8   0.0075   0.0185   0.0153   0.0034  -0.0135  -0.0048  -9.00    3.5
2173 206304.000   -218301.8692  -5246693.3371   3608099.4734   1   8   0.0069   0.0170   0.0141   0.0029  -0.0124  -0.0044  -8.00    3.8
2173 206305.000   -218301.8666  -5246693.3346   3608099.4679   1   8   0.0063   0.0156   0.0128   0.0024  -0.0113  -0.0039  -7.00    4.0
2173 206306.000   -218301.8649  -5246693.3342   3608099.4651   1   8   0.0058   0.0142   0.0116   0.0022  -0.0104  -0.0033  -6.00    4.3
2173 206307.000   -218301.8650  -5246693.3313   3608099.4618   1   8   0.0052   0.0131   0.0105   0.0017  -0.0093  -0.0030  -5.00    4.6
2173 206308.000   -218301.8653  -5246693.3298   3608099.4607   1   8   0.0048   0.0119   0.0096   0.0010  -0.0085  -0.0026  -4.00    4.6
2173 206309.000   -218301.8647  -5246693.3336   3608099.4586   1   8   0.0044   0.0109   0.0087  -0.0001  -0.0078  -0.0024  -3.00    4.6
2173 206310.000   -218301.8649  -5246693.3333   3608099.4571   1   8   0.0036   0.0101   0.0080  -0.0018  -0.0073  -0.0021  -2.00    4.6
2173 206311.000   -218301.8631  -5246693.3339   3608099.4566   1   8   0.0041   0.0098   0.0076   0.0013  -0.0067  -0.0010  -1.00    4.7
2173 206312.000   -218301.8639  -5246693.3324   3608099.4532   1   8   0.0041   0.0095   0.0075  -0.0014  -0.0068  -0.0009   0.00    4.7
2173 206313.000   -218301.8621  -5246693.3322   3608099.4481   1   8   0.0039   0.0095   0.0074  -0.0010  -0.0067  -0.0017   0.00    4.8
2173 206314.000   -218301.8629  -5246693.3264   3608099.4488   1   8   0.0039   0.0095   0.0074  -0.0010  -0.0067  -0.0017   0.00    3.3
2173 206315.000   -218301.8609  -5246693.3243   3608099.4504   1   8   0.0039   0.0095   0.0074  -0.0010  -0.0067  -0.0017   0.00    3.4
2173 206316.000   -218302.0164  -5246693.2862   3608099.0920   2   8   0.3826   0.9418   0.7369  -0.0940  -0.6684  -0.1661   0.00    2.9
2173 206317.000   -218301.8604  -5246693.3246   3608099.4489   1   8   0.0039   0.0095   0.0074  -0.0010  -0.0067  -0.0017   0.00    3.3
2173 206318.000   -218301.8623  -5246693.3270   3608099.4441   1   8   0.0039   0.0095   0.0074  -0.0010  -0.0067  -0.0017   0.00    6.7
2173 206319.000   -218301.8615  -5246693.3332   3608099.4459   1   8   0.0039   0.0095   0.0074  -0.0010  -0.0067  -0.0017   0.00    4.6
2173 206320.000   -218301.8626  -5246693.3282   3608099.4470   1   8   0.0039   0.0095   0.0074  -0.0010  -0.0067  -0.0017   0.00    5.0
2173 206321.000   -218301.8587  -5246693.3390   3608099.4478   1   8   0.0039   0.0095   0.0074  -0.0010  -0.0067  -0.0017   0.00    4.3
2173 206322.000   -218301.8647  -5246693.3200   3608099.4439   1   8   0.0039   0.0095   0.0074  -0.0010  -0.0067  -0.0017   0.00    3.7
2173 206323.000   -218301.8615  -5246693.3326   3608099.4514   1   8   0.0039   0.0095   0.0074  -0.0010  -0.0067  -0.0017   0.00    4.3
2173 206324.000   -218301.8584  -5246693.3430   3608099.4543   1   8   0.0039   0.0095   0.0074  -0.0010  -0.0067  -0.0017   0.00    4.9
2173 206325.000   -218301.8637  -5246693.3292   3608099.4500   1   8   0.0039   0.0095   0.0074  -0.0010  -0.0067  -0.0017   0.00    6.0
2173 206326.000   -218301.8611  -5246693.3330   3608099.4486   1   8   0.0039   0.0095   0.0074  -0.0010  -0.0067  -0.0017   0.00    6.3
2173 206327.000   -218301.8635  -5246693.3369   3608099.4495   1   8   0.0039   0.0095   0.0074  -0.0010  -0.0067  -0.0017   0.00    4.4
2173 206328.000   -218301.8651  -5246693.3362   3608099.4524   1   8   0.0039   0.0095   0.0074  -0.0010  -0.0067  -0.0017   0.00    3.8
2173 206329.000   -218301.8606  -5246693.3373   3608099.4561   1   8   0.0039   0.0095   0.0074  -0.0010  -0.0067  -0.0016   0.00    4.1
2173 206330.000   -218301.8655  -5246693.3279   3608099.4416   1   8   0.0039   0.0095   0.0074  -0.0010  -0.0067  -0.0016   0.00    3.8
2173 206331.000   -218301.8606  -5246693.3350   3608099.4439   1   8   0.0039   0.0095   0.0074  -0.0010  -0.0067  -0.0016   0.00    4.5
2173 206332.000   -218301.8578  -5246693.3323   3608099.4457   1   8   0.0039   0.0095   0.0074  -0.0010  -0.0067  -0.0016   0.00    4.8
2173 206333.000   -218301.8637  -5246693.3341   3608099.4486   1   8   0.0039   0.0095   0.0074  -0.0010  -0.0067  -0.0016   0.00    5.0
2173 206334.000   -218301.8608  -5246693.3422   3608099.4503   1   8   0.0039   0.0095   0.0074  -0.0010  -0.0067  -0.0016   0.00    4.8
2173 206335.000   -218301.8563  -5246693.3502   3608099.4559   1   8   0.0039   0.0095   0.0074  -0.0010  -0.0067  -0.0016   0.00    3.9
2173 206336.000   -218301.8564  -5246693.3525   3608099.4586   1   8   0.0039   0.0095   0.0074  -0.0010  -0.0067  -0.0016   0.00    4.4
2173 206337.000   -218301.8627  -5246693.3351   3608099.4441   1   8   0.0039   0.0095   0.0074  -0.0010  -0.0067  -0.0016   0.00    7.0
2173 206338.000   -218301.8634  -5246693.3291   3608099.4422   1   8   0.0039   0.0095   0.0074  -0.0010  -0.0067  -0.0016   0.00    5.4
2173 206339.000   -218301.8631  -5246693.3277   3608099.4418   1   8   0.0039   0.0095   0.0074  -0.0010  -0.0067  -0.0016   0.00    4.8
2173 206340.000   -218301.8635  -5246693.3377   3608099.4458   1   8   0.0039   0.0095   0.0074  -0.0011  -0.0067  -0.0016   0.00    5.3
2173 206341.000   -218301.8584  -5246693.3486   3608099.4532   1   8   0.0039   0.0095   0.0074  -0.0011  -0.0067  -0.0016   0.00    5.9
2173 206342.000   -218301.8619  -5246693.3351   3608099.4460   1   8   0.0039   0.0095   0.0074  -0.0011  -0.0067  -0.0016   0.00    3.7
2173 206343.000   -218301.8605  -5246693.3427   3608099.4514   1   8   0.0039   0.0095   0.0074  -0.0011  -0.0067  -0.0016   0.00    3.5
2173 206344.000   -218301.8632  -5246693.3312   3608099.4428   1   8   0.0039   0.0095   0.0074  -0.0011  -0.0067  -0.0016   0.00    4.0
2173 206345.000   -218301.8637  -5246693.3420   3608099.4479   1   8   0.0039   0.0095   0.0074  -0.0011  -0.0067  -0.0016   0.00    4.5
2173 206346.000   -218301.8630  -5246693.3298   3608099.4395   1   8   0.0039   0.0095   0.0074  -0.0011  -0.0067  -0.0016   0.00    5.5
2173 206347.000   -218301.8634  -5246693.3349   3608099.4440   1   8   0.0039   0.0095   0.0074  -0.0011  -0.0067  -0.0016   0.00    5.9
2173 206348.000   -218301.8633  -5246693.3323   3608099.4434   1   8   0.0039   0.0095   0.0074  -0.0011  -0.0067  -0.0016   0.00    5.4
2173 206349.000   -218301.8644  -5246693.3337   3608099.4455   1   8   0.0039   0.0095   0.0074  -0.0011  -0.0067  -0.0016   0.00    5.0
2173 206350.000   -218301.8623  -5246693.3359   3608099.4456   1   8   0.0039   0.0095   0.0074  -0.0011  -0.0067  -0.0016   0.00    4.2
2173 206351.000   -218301.8611  -5246693.3405   3608099.4464   1   8   0.0039   0.0095   0.0074  -0.0011  -0.0067  -0.0016   0.00    5.3
2173 206352.000   -218301.8636  -5246693.3456   3608099.4525   1   8   0.0039   0.0095   0.0074  -0.0011  -0.0067  -0.0016   0.00    4.6
2173 206353.000   -218301.8591  -5246693.3590   3608099.4599   1   8   0.0039   0.0095   0.0074  -0.0011  -0.0067  -0.0016   0.00    4.9
2173 206354.000   -218301.8589  -5246693.3544   3608099.4558   1   8   0.0039   0.0095   0.0074  -0.0011  -0.0067  -0.0016   0.00    5.2
2173 206355.000   -218301.8600  -5246693.3524   3608099.4534   1   8   0.0039   0.0095   0.0074  -0.0011  -0.0067  -0.0016   0.00    4.8
2173 206356.000   -218301.8614  -5246693.3391   3608099.4485   1   8   0.0039   0.0095   0.0074  -0.0011  -0.0067  -0.0016   0.00    4.2
2173 206357.000   -218301.8655  -5246693.3385   3608099.4443   1   8   0.0039   0.0095   0.0074  -0.0011  -0.0067  -0.0016   0.00    6.2
2173 206358.000   -218301.8664  -5246693.3365   3608099.4436   1   8   0.0039   0.0095   0.0074  -0.0011  -0.0067  -0.0016   0.00    5.8
2173 206359.000   -218301.8634  -5246693.3387   3608099.4449   1   8   0.0039   0.0095   0.0074  -0.0011  -0.0067  -0.0016   0.00    6.3
2173 206360.000   -218301.8634  -5246693.3374   3608099.4487   1   8   0.0039   0.0095   0.0074  -0.0011  -0.0067  -0.0016   0.00    5.0
2173 206361.000   -218301.8595  -5246693.3431   3608099.4529   1   8   0.0039   0.0095   0.0074  -0.0011  -0.0067  -0.0016   0.00    3.1
2173 206362.000   -218301.8633  -5246693.3360   3608099.4491   1   8   0.0039   0.0095   0.0074  -0.0011  -0.0067  -0.0016   0.00    3.6
2173 206363.000   -218301.8627  -5246693.3398   3608099.4484   1   8   0.0039   0.0095   0.0074  -0.0011  -0.0067  -0.0016   0.00    3.7
2173 206364.000   -218301.8612  -5246693.3474   3608099.4502   1   8   0.0039   0.0095   0.0074  -0.0011  -0.0067  -0.0016   0.00    3.2
2173 206365.000   -218301.8615  -5246693.3432   3608099.4476   1   8   0.0039   0.0095   0.0074  -0.0011  -0.0067  -0.0016   0.00    3.6
2173 206366.000   -218301.8591  -5246693.3564   3608099.4535   1   8   0.0039   0.0095   0.0074  -0.0011  -0.0067  -0.0016   0.00    4.6
2173 206367.000   -218301.8605  -5246693.3444   3608099.4504   1   8   0.0039   0.0095   0.0074  -0.0011  -0.0067  -0.0016   0.00    3.4
2173 206368.000   -218301.8588  -5246693.3468   3608099.4492   1   8   0.0039   0.0095   0.0074  -0.0011  -0.0067  -0.0016   0.00    3.0
2173 206369.000   -218301.8578  -5246693.3403   3608099.4502   1   8   0.0039   0.0095   0.0074  -0.0011  -0.0067  -0.0016   0.00    3.2
2173 206370.000   -218301.8585  -5246693.3376   3608099.4458   1   8   0.0039   0.0095   0.0074  -0.0011  -0.0067  -0.0016   0.00    4.1
2173 206371.000   -218301.8577  -5246693.3528   3608099.4514   1   8   0.0039   0.0095   0.0074  -0.0011  -0.0067  -0.0016   0.00    4.2
2173 206372.000   -218301.8632  -5246693.3402   3608099.4420   1   8   0.0039   0.0095   0.0074  -0.0011  -0.0067  -0.0016   0.00    4.8
2173 206373.000   -218301.8611  -5246693.3470   3608099.4517   1   8   0.0039   0.0095   0.0074  -0.0011  -0.0067  -0.0016   0.00    4.3
2173 206374.000   -218301.8575  -5246693.3487   3608099.4497   1   8   0.0039   0.0095   0.0074  -0.0011  -0.0067  -0.0016   0.00    4.7
2173 206375.000   -218301.8597  -5246693.3378   3608099.4494   1   8   0.0039   0.0095   0.0074  -0.0011  -0.0067  -0.0016   0.00    4.7
2173 206376.000   -218301.8620  -5246693.3370   3608099.4450   1   8   0.0039   0.0095   0.0074  -0.0011  -0.0067  -0.0016   0.00    4.6
2173 206377.000   -218301.8632  -5246693.3400   3608099.4447   1   8   0.0039   0.0095   0.0074  -0.0011  -0.0067  -0.0016   0.00    4.5
2173 206378.000   -218301.8651  -5246693.3454   3608099.4509   1   8   0.0039   0.0095   0.0074  -0.0011  -0.0067  -0.0016   0.00    4.7
2173 206379.000   -218301.8642  -5246693.3405   3608099.4494   1   8   0.0039   0.0095   0.0074  -0.0011  -0.0067  -0.0016   0.00    4.0
2173 206380.000   -218301.8617  -5246693.3393   3608099.4485   1   8   0.0039   0.0095   0.0074  -0.0011  -0.0067  -0.0016   0.00    4.4
2173 206381.000   -218301.8625  -5246693.3379   3608099.4471   1   8   0.0039   0.0095   0.0074  -0.0011  -0.0067  -0.0016   0.00    3.9
2173 206382.000   -218301.8595  -5246693.3530   3608099.4530   1   8   0.0039   0.0095   0.0074  -0.0011  -0.0067  -0.0016   0.00    4.4
2173 206383.000   -218301.8571  -5246693.3511   3608099.4512   1   8   0.0039   0.0095   0.0074  -0.0011  -0.0067  -0.0016   0.00    3.4
2173 206384.000   -218301.8597  -5246693.3515   3608099.4527   1   8   0.0039   0.0095   0.0074  -0.0011  -0.0067  -0.0016   0.00    3.6
2173 206385.000   -218301.8614  -5246693.3514   3608099.4556   1   8   0.0039   0.0095   0.0074  -0.0011  -0.0067  -0.0016   0.00    4.2
2173 206386.000   -218301.8617  -5246693.3461   3608099.4469   1   8   0.0039   0.0095   0.0074  -0.0011  -0.0067  -0.0016   0.00    3.6
2173 206387.000   -218301.8611  -5246693.3556   3608099.4496   1   8   0.0039   0.0095   0.0074  -0.0012  -0.0067  -0.0016   0.00    3.8
2173 206388.000   -218301.8608  -5246693.3449   3608099.4478   1   8   0.0039   0.0095   0.0074  -0.0012  -0.0067  -0.0016   0.00    3.3
2173 206389.000   -218301.8634  -5246693.7143   3608099.2747   2   8   0.3842   0.9415   0.7325  -0.1105  -0.6653  -0.1642   0.00    2.8
2173 206390.000   -218301.8625  -5246693.3520   3608099.4527   1   8   0.0039   0.0095   0.0074  -0.0012  -0.0067  -0.0016   0.00    3.3
2173 206391.000   -218301.8614  -5246693.3484   3608099.4505   1   8   0.0039   0.0095   0.0074  -0.0012  -0.0067  -0.0016   0.00    4.1
2173 206392.000   -218301.8628  -5246693.3422   3608099.4481   1   8   0.0039   0.0095   0.0074  -0.0012  -0.0067  -0.0016   0.00    3.4
2173 206393.000   -218301.8659  -5246693.3485   3608099.4522   1   8   0.0039   0.0095   0.0074  -0.0012  -0.0067  -0.0016   0.00    3.0
2173 206394.000   -218301.8653  -5246693.3449   3608099.4538   1   8   0.0039   0.0095   0.0074  -0.0012  -0.0067  -0.0016   0.00    3.1
2173 206395.000   -218301.8639  -5246693.3457   3608099.4513   1   8   0.0039   0.0095   0.0074  -0.0012  -0.0067  -0.0016   0.00    3.3
2173 206396.000   -218301.9719  -5246692.5771   3608098.8963   2   8   0.3844   0.9414   0.7321  -0.1120  -0.6650  -0.1640   0.00    3.0
2173 206397.000   -218301.8647  -5246693.3471   3608099.4516   1   8   0.0039   0.0095   0.0074  -0.0012  -0.0067  -0.0016   0.00    3.3
2173 206398.000   -218302.0763  -5246692.9694   3608098.9201   2   8   0.3844   0.9414   0.7320  -0.1124  -0.6649  -0.1640   0.00    2.6
2173 206399.000   -218302.0225  -5246692.7349   3608098.8326   2   8   0.3844   0.9414   0.7319  -0.1126  -0.6649  -0.1639   0.00    2.7
2173 206400.000   -218301.9839  -5246692.5382   3608098.7674   2   8   0.3844   0.9414   0.7318  -0.1128  -0.6648  -0.1639   0.00    2.8
2173 206401.000   -218302.0953  -5246693.1088   3608098.9450   2   8   0.3845   0.9414   0.7318  -0.1130  -0.6648  -0.1639   0.00    2.8
2173 206402.000   -218301.8642  -5246693.3462   3608099.4549   1   8   0.0039   0.0095   0.0074  -0.0012  -0.0067  -0.0016   0.00    3.3
2173 206403.000   -218301.8643  -5246693.3404   3608099.4496   1   8   0.0039   0.0095   0.0074  -0.0012  -0.0067  -0.0016   0.00    3.0
2173 206404.000   -218302.2362  -5246693.5497   3608099.2487   2   8   0.3845   0.9414   0.7316  -0.1137  -0.6647  -0.1638   0.00    2.5
2173 206405.000   -218302.1568  -5246693.4173   3608098.9632   2   8   0.3846   0.9414   0.7315  -0.1139  -0.6646  -0.1638   0.00    2.1
2173 206406.000   -218302.0304  -5246693.4345   3608099.1516   2   8   0.3846   0.9414   0.7315  -0.1141  -0.6646  -0.1637   0.00    1.9
2173 206407.000   -218302.1679  -5246693.5959   3608099.4871   2   8   0.3846   0.9414   0.7314  -0.1143  -0.6645  -0.1637   0.00    2.4
2173 206408.000   -218302.1245  -5246693.7328   3608099.2673   2   8   0.3846   0.9414   0.7313  -0.1145  -0.6645  -0.1637   0.00    2.4
2173 206409.000   -218302.0861  -5246693.4967   3608099.1953   2   8   0.3846   0.9414   0.7313  -0.1147  -0.6645  -0.1637   0.00    2.4
2173 206410.000   -218302.0808  -5246693.5004   3608099.1091   2   8   0.3847   0.9414   0.7312  -0.1149  -0.6644  -0.1636   0.00    2.3
2173 206411.000   -218302.1268  -5246693.1028   3608098.8440   2   8   0.3847   0.9414   0.7312  -0.1151  -0.6644  -0.1636   0.00    2.8
2173 206412.000   -218302.2098  -5246693.4593   3608099.2592   2   8   0.3847   0.9414   0.7311  -0.1153  -0.6643  -0.1636   0.00    2.9
2173 206413.000   -218301.8630  -5246693.3468   3608099.4549   1   8   0.0039   0.0095   0.0074  -0.0012  -0.0067  -0.0016   0.00    3.6
2173 206414.000   -218302.1884  -5246693.3584   3608099.3147   2   8   0.3848   0.9414   0.7310  -0.1157  -0.6642  -0.1635   0.00    2.6
2173 206415.000   -218302.1064  -5246693.2558   3608098.8756   2   8   0.3848   0.9414   0.7309  -0.1159  -0.6642  -0.1635   0.00    2.9
2173 206416.000   -218302.3043  -5246692.8753   3608098.4391   2   8   0.3848   0.9414   0.7309  -0.1161  -0.6642  -0.1635   0.00    1.9
2173 206417.000   -218302.1963  -5246693.0991   3608098.5128   2   8   0.3848   0.9414   0.7308  -0.1163  -0.6641  -0.1635   0.00    2.3
2173 206418.000   -218302.2899  -5246693.2102   3608098.7960   2   8   0.3849   0.9414   0.7307  -0.1165  -0.6641  -0.1634   0.00    2.1
2173 206419.000   -218302.3227  -5246693.1326   3608098.5705   2   8   0.3849   0.9414   0.7307  -0.1167  -0.6640  -0.1634   0.00    2.3
2173 206420.000   -218302.1325  -5246693.3170   3608098.6410   2   8   0.3849   0.9414   0.7306  -0.1169  -0.6640  -0.1634   0.00    2.1
2173 206421.000   -218302.1722  -5246693.0479   3608098.5505   2   8   0.3849   0.9414   0.7306  -0.1171  -0.6639  -0.1633   0.00    2.3
2173 206422.000   -218302.2538  -5246692.9355   3608098.6929   2   8   0.3849   0.9414   0.7305  -0.1173  -0.6639  -0.1633   0.00    2.7
2173 206423.000   -218302.2898  -5246693.1704   3608098.8474   2   8   0.3850   0.9414   0.7304  -0.1175  -0.6639  -0.1633   0.00    2.6
2173 206424.000   -218302.1860  -5246693.1161   3608098.8731   2   8   0.3850   0.9414   0.7304  -0.1177  -0.6638  -0.1633   0.00    2.3
2173 206425.000   -218302.1734  -5246693.0279   3608098.8452   2   8   0.3850   0.9413   0.7303  -0.1179  -0.6638  -0.1632   0.00    2.1
2173 206426.000   -218302.0746  -5246693.2567   3608098.6330   2   8   0.3850   0.9413   0.7303  -0.1181  -0.6637  -0.1632   0.00    1.7
2173 206427.000   -218302.2093  -5246692.9365   3608098.6445   2   8   0.3851   0.9413   0.7302  -0.1183  -0.6637  -0.1632   0.00    2.2
2173 206428.000   -218302.2937  -5246693.3499   3608098.7606   2   8   0.3851   0.9413   0.7301  -0.1185  -0.6636  -0.1632   0.00    1.9
2173 206429.000   -218302.2151  -5246693.3559   3608098.6194   2   8   0.3851   0.9413   0.7301  -0.1187  -0.6636  -0.1631   0.00    2.2
2173 206430.000   -218302.2896  -5246693.4690   3608098.8320   2   8   0.3851   0.9413   0.7300  -0.1189  -0.6636  -0.1631   0.00    1.7
2173 206431.000   -218302.3047  -5246692.9485   3608098.3784   2   8   0.3852   0.9413   0.7299  -0.1191  -0.6635  -0.1631   0.00    1.6
2173 206432.000   -218302.3820  -5246692.8635   3608098.2753   2   8   0.3852   0.9413   0.7299  -0.1193  -0.6635  -0.1631   0.00    2.0
2173 206433.000   -218302.1886  -5246692.9150   3608098.0934   2   8   0.3852   0.9413   0.7298  -0.1195  -0.6634  -0.1630   0.00    1.5
2173 206434.000   -218302.0713  -5246692.7531   3608097.9080   2   8   0.3852   0.9413   0.7298  -0.1197  -0.6634  -0.1630   0.00    1.7
2173 206435.000   -218302.1960  -5246692.6103   3608097.9493   2   8   0.3852   0.9413   0.7297  -0.1199  -0.6633  -0.1630   0.00    1.9
2173 206436.000   -218302.1541  -5246692.7623   3608098.1179   2   8   0.3853   0.9413   0.7296  -0.1201  -0.6633  -0.1630   0.00    1.8
2173 206437.000   -218301.9630  -5246692.8260   3608098.2177   2   8   0.3853   0.9413   0.7296  -0.1203  -0.6633  -0.1629   0.00    2.0
2173 206438.000   -218301.8129  -5246693.3743   3608098.5826   2   8   0.3853   0.9413   0.7295  -0.1205  -0.6632  -0.1629   0.00    2.0
2173 206439.000   -218301.8403  -5246693.4470   3608098.6494   2   8   0.3853   0.9413   0.7295  -0.1207  -0.6632  -0.1629   0.00    1.9
2173 206440.000   -218301.8904  -5246693.8290   3608099.0104   2   8   0.3854   0.9413   0.7294  -0.1209  -0.6631  -0.1628   0.00    2.2
2173 206441.000   -218301.8460  -5246694.1137   3608098.9849   2   8   0.3854   0.9413   0.7293  -0.1211  -0.6631  -0.1628   0.00    2.2
2173 206442.000   -218301.7187  -5246694.0480   3608098.9516   2   8   0.3854   0.9413   0.7293  -0.1212  -0.6630  -0.1628   0.00    2.3
2173 206443.000   -218301.8896  -5246694.1100   3608098.7488   2   8   0.3854   0.9413   0.7292  -0.1214  -0.6630  -0.1628   0.00    2.4
2173 206444.000   -218301.9350  -5246693.6851   3608098.6151   2   8   0.3855   0.9413   0.7292  -0.1216  -0.6630  -0.1627   0.00    2.4
2173 206445.000   -218301.9593  -5246694.2710   3608098.7985   2   8   0.3855   0.9413   0.7291  -0.1218  -0.6629  -0.1627   0.00    2.4
2173 206446.000   -218301.8575  -5246693.7889   3608098.5273   2   8   0.3855   0.9413   0.7290  -0.1220  -0.6629  -0.1627   0.00    2.3
2173 206447.000   -218301.7422  -5246694.0580   3608098.6006   2   8   0.3855   0.9413   0.7290  -0.1222  -0.6628  -0.1627   0.00    2.2
2173 206448.000   -218301.7016  -5246693.2233   3608098.2387   2   8   0.3855   0.9413   0.7289  -0.1224  -0.6628  -0.1626   0.00    2.3
2173 206449.000   -218301.7423  -5246693.6608   3608098.6742   2   8   0.3856   0.9413   0.7288  -0.1226  -0.6627  -0.1626   0.00    2.5
2173 206450.000   -218302.0456  -5246693.5569   3608098.6090   2   8   0.3856   0.9413   0.7288  -0.1228  -0.6627  -0.1626   0.00    2.4
2173 206451.000   -218301.9619  -5246693.5756   3608098.7039   2   8   0.3856   0.9413   0.7287  -0.1230  -0.6627  -0.1626   0.00    2.9
2173 206452.000   -218302.0554  -5246693.5644   3608098.6188   2   8   0.3856   0.9413   0.7287  -0.1232  -0.6626  -0.1625   0.00    2.5
2173 206453.000   -218302.0693  -5246693.4099   3608098.5916   2   8   0.3857   0.9413   0.7286  -0.1234  -0.6626  -0.1625   0.00    2.0
2173 206454.000   -218302.1310  -5246693.1760   3608098.5543   2   8   0.3857   0.9413   0.7285  -0.1236  -0.6625  -0.1625   0.00    3.0
2173 206455.000   -218301.9586  -5246693.3491   3608098.4438   2   8   0.3857   0.9413   0.7285  -0.1237  -0.6625  -0.1624   0.00    2.9
2173 206456.000   -218301.8569  -5246693.3505   3608099.4616   1   8   0.0039   0.0095   0.0073  -0.0013  -0.0067  -0.0016   0.00    3.3
2173 206457.000   -218301.8596  -5246693.3433   3608099.4560   1   8   0.0039   0.0095   0.0073  -0.0013  -0.0067  -0.0016   0.00    3.1
2173 206458.000   -218301.7931  -5246693.2535   3608098.9501   2   8   0.3858   0.9412   0.7283  -0.1243  -0.6624  -0.1624   0.00    2.5
2173 206459.000   -218301.8187  -5246692.6964   3608098.7909   2   8   0.3858   0.9412   0.7282  -0.1245  -0.6623  -0.1623   0.00    3.0
2173 206460.000   -218301.5574  -5246693.0758   3608098.7063   2   8   0.3858   0.9412   0.7282  -0.1247  -0.6623  -0.1623   0.00    2.4
2173 206461.000   -218301.4499  -5246692.8770   3608098.7489   2   8   0.3859   0.9412   0.7281  -0.1249  -0.6622  -0.1623   0.00    2.6
2173 206462.000   -218301.4667  -5246692.5526   3608098.3803   2   8   0.3859   0.9412   0.7281  -0.1251  -0.6622  -0.1623   0.00    2.4
2173 206463.000   -218301.4549  -5246692.6943   3608098.5286   2   8   0.3859   0.9412   0.7280  -0.1253  -0.6621  -0.1622   0.00    2.7
2173 206464.000   -218301.8645  -5246693.3408   3608099.4574   1   8   0.0039   0.0095   0.0073  -0.0013  -0.0067  -0.0016   0.00    3.2
2173 206465.000   -218301.5711  -5246691.9867   3608098.0957   2   8   0.3859   0.9412   0.7279  -0.1256  -0.6621  -0.1622   0.00    2.6
2173 206466.000   -218301.7849  -5246691.9356   3608098.3006   2   8   0.3860   0.9412   0.7278  -0.1258  -0.6620  -0.1621   0.00    2.2
2173 206467.000   -218301.6520  -5246692.2073   3608098.2338   2   8   0.3860   0.9412   0.7277  -0.1260  -0.6620  -0.1621   0.00    2.5
2173 206468.000   -218301.7682  -5246692.0994   3608098.2780   2   8   0.3860   0.9412   0.7277  -0.1262  -0.6619  -0.1621   0.00    2.7
2173 206469.000   -218301.6751  -5246692.4959   3608098.4741   2   8   0.3860   0.9412   0.7276  -0.1264  -0.6619  -0.1621   0.00    2.6
2173 206470.000   -218301.8604  -5246693.3369   3608099.4511   1   8   0.0039   0.0095   0.0073  -0.0013  -0.0067  -0.0016   0.00    3.1
2173 206471.000   -218301.4555  -5246692.3250   3608098.4644   2   8   0.3861   0.9412   0.7275  -0.1268  -0.6618  -0.1620   0.00    2.8
2173 206472.000   -218301.8631  -5246693.3448   3608099.4540   1   8   0.0039   0.0095   0.0073  -0.0013  -0.0067  -0.0016   0.00    3.2
2173 206473.000   -218301.4878  -5246692.1333   3608098.4657   2   8   0.3861   0.9412   0.7274  -0.1271  -0.6617  -0.1620   0.00    2.1
2173 206474.000   -218301.5623  -5246691.9537   3608098.4024   2   8   0.3862   0.9412   0.7273  -0.1273  -0.6617  -0.1619   0.00    2.3
2173 206475.000   -218301.6171  -5246691.8878   3608098.0217   2   8   0.3862   0.9412   0.7273  -0.1275  -0.6616  -0.1619   0.00    2.0
2173 206476.000   -218301.5055  -5246691.8954   3608097.9973   2   8   0.3862   0.9412   0.7272  -0.1277  -0.6616  -0.1619   0.00    2.3
2173 206477.000   -218301.8631  -5246693.3584   3608099.4635   1   8   0.0039   0.0095   0.0073  -0.0013  -0.0067  -0.0016   0.00    3.2
2173 206478.000   -218301.8622  -5246693.3565   3608099.4587   1   8   0.0039   0.0095   0.0073  -0.0013  -0.0067  -0.0016   0.00    3.1
2173 206479.000   -218301.3485  -5246691.8917   3608098.1661   2   8   0.3863   0.9412   0.7270  -0.1282  -0.6615  -0.1618   0.00    2.7
2173 206480.000   -218301.4868  -5246691.3399   3608098.1072   2   8   0.3863   0.9412   0.7270  -0.1284  -0.6614  -0.1618   0.00    2.8
2173 206481.000   -218301.5371  -5246691.1078   3608098.1554   2   8   0.3863   0.9412   0.7269  -0.1286  -0.6614  -0.1617   0.00    2.6
2173 206482.000   -218301.8642  -5246693.3442   3608099.4519   1   8   0.0039   0.0095   0.0073  -0.0013  -0.0067  -0.0016   0.00    3.9
2173 206483.000   -218301.5771  -5246691.2474   3608097.9351   2   8   0.3864   0.9412   0.7268  -0.1290  -0.6613  -0.1617   0.00    2.9
2173 206484.000   -218301.6555  -5246691.2653   3608098.0343   2   8   0.3864   0.9412   0.7267  -0.1292  -0.6612  -0.1617   0.00    2.8
2173 206485.000   -218301.6875  -5246691.0381   3608098.0440   2   8   0.3864   0.9412   0.7267  -0.1293  -0.6612  -0.1616   0.00    2.5
2173 206486.000   -218301.7081  -5246691.1892   3608097.7623   2   8   0.3864   0.9412   0.7266  -0.1295  -0.6612  -0.1616   0.00    2.3
2173 206487.000   -218301.6566  -5246691.5277   3608097.8211   2   8   0.3865   0.9412   0.7265  -0.1297  -0.6611  -0.1616   0.00    2.5
2173 206488.000   -218301.6340  -5246691.2901   3608097.8505   2   8   0.3865   0.9412   0.7265  -0.1299  -0.6611  -0.1616   0.00    1.7
2173 206489.000   -218301.3994  -5246691.9435   3608098.0407   2   8   0.3865   0.9412   0.7264  -0.1301  -0.6610  -0.1615   0.00    2.0
2173 206490.000   -218301.5126  -5246691.7316   3608098.0040   2   8   0.3865   0.9412   0.7263  -0.1302  -0.6610  -0.1615   0.00    2.8
2173 206491.000   -218301.4510  -5246691.3600   3608097.7047   2   8   0.3866   0.9412   0.7263  -0.1304  -0.6609  -0.1615   0.00    2.9
2173 206492.000   -218301.4730  -5246692.0849   3608098.2578   2   8   0.3866   0.9411   0.7262  -0.1306  -0.6609  -0.1614   0.00    2.6
2173 206493.000   -218301.4196  -5246691.9950   3608098.2541   2   8   0.3866   0.9411   0.7262  -0.1308  -0.6609  -0.1614   0.00    2.3
2173 206494.000   -218301.4080  -5246692.0352   3608098.2081   2   8   0.3866   0.9411   0.7261  -0.1310  -0.6608  -0.1614   0.00    2.6
2173 206495.000   -218301.8651  -5246693.3457   3608099.4512   1   8   0.0039   0.0095   0.0073  -0.0014  -0.0067  -0.0016   0.00    3.1
2173 206496.000   -218301.8650  -5246693.3467   3608099.4546   1   8   0.0039   0.0095   0.0073  -0.0014  -0.0067  -0.0016   0.00    3.1
2173 206497.000   -218301.8673  -5246693.3508   3608099.4627   1   8   0.0039   0.0095   0.0073  -0.0014  -0.0067  -0.0016   0.00    3.4
2173 206498.000   -218301.8668  -5246693.3439   3608099.4566   1   8   0.0039   0.0095   0.0073  -0.0014  -0.0067  -0.0016   0.00    3.4
2173 206499.000   -218301.8641  -5246693.3519   3608099.4565   1   8   0.0039   0.0095   0.0073  -0.0014  -0.0067  -0.0016   0.00    4.0
2173 206500.000   -218301.8642  -5246693.3513   3608099.4585   1   8   0.0039   0.0095   0.0073  -0.0014  -0.0067  -0.0016   0.00    3.2
2173 206501.000   -218301.8662  -5246693.3551   3608099.4594   1   8   0.0039   0.0095   0.0073  -0.0014  -0.0067  -0.0016   0.00    3.4
2173 206502.000   -218301.7417  -5246692.1228   3608098.3875   2   8   0.3868   0.9411   0.7256  -0.1324  -0.6605  -0.1612   0.00    3.0
2173 206503.000   -218301.8254  -5246692.2917   3608098.3024   2   8   0.3869   0.9411   0.7256  -0.1326  -0.6604  -0.1612   0.00    2.9
2173 206504.000   -218301.8673  -5246693.3537   3608099.4598   1   8   0.0039   0.0095   0.0073  -0.0014  -0.0067  -0.0016   0.00    4.6
2173 206505.000   -218301.8686  -5246693.3563   3608099.4622   1   8   0.0039   0.0095   0.0073  -0.0014  -0.0067  -0.0016   0.00    4.4
2173 206506.000   -218301.8661  -5246693.3572   3608099.4586   1   8   0.0039   0.0095   0.0073  -0.0014  -0.0067  -0.0016   0.00    4.4
2173 206507.000   -218301.8688  -5246693.3416   3608099.4510   1   8   0.0039   0.0095   0.0073  -0.0014  -0.0067  -0.0016   0.00    3.2
2173 206508.000   -218301.8692  -5246693.3438   3608099.4550   1   8   0.0039   0.0095   0.0073  -0.0014  -0.0067  -0.0016   0.00    3.1
2173 206509.000   -218301.8165  -5246691.6865   3608098.3610   2   8   0.3870   0.9411   0.7252  -0.1337  -0.6602  -0.1610   0.00    1.4
2173 206510.000   -218301.9172  -5246691.8314   3608098.4527   2   8   0.3870   0.9411   0.7251  -0.1338  -0.6601  -0.1610   0.00    2.8
2173 206511.000   -218301.8638  -5246693.3519   3608099.4551   1   8   0.0039   0.0095   0.0073  -0.0014  -0.0067  -0.0016   0.00    4.1
2173 206512.000   -218301.8641  -5246693.3587   3608099.4620   1   8   0.0039   0.0095   0.0073  -0.0014  -0.0067  -0.0016   0.00    3.6
2173 206513.000   -218301.8649  -5246693.3540   3608099.4518   1   8   0.0039   0.0095   0.0073  -0.0014  -0.0067  -0.0016   0.00    5.0
2173 206514.000   -218301.9042  -5246691.9801   3608098.4180   2   8   0.3871   0.9411   0.7249  -0.1345  -0.6599  -0.1609   0.00    3.0
2173 206515.000   -218301.8695  -5246693.3438   3608099.4521   1   8   0.0039   0.0095   0.0073  -0.0014  -0.0067  -0.0016   0.00    4.1
2173 206516.000   -218301.8639  -5246693.3506   3608099.4569   1   8   0.0039   0.0095   0.0073  -0.0014  -0.0067  -0.0016   0.00    5.2
2173 206517.000   -218301.8660  -5246693.3359   3608099.4513   1   8   0.0039   0.0095   0.0073  -0.0014  -0.0067  -0.0016   0.00    3.9
2173 206518.000   -218301.8658  -5246693.3434   3608099.4533   1   8   0.0039   0.0095   0.0073  -0.0014  -0.0067  -0.0016   0.00    3.7
2173 206519.000   -218301.8632  -5246693.3491   3608099.4571   1   8   0.0039   0.0095   0.0073  -0.0014  -0.0067  -0.0016   0.00    4.5
2173 206520.000   -218301.8650  -5246693.3487   3608099.4583   1   8   0.0039   0.0095   0.0073  -0.0014  -0.0067  -0.0016   0.00    4.8
2173 206521.000   -218301.8647  -5246693.3470   3608099.4585   1   8   0.0039   0.0095   0.0073  -0.0014  -0.0067  -0.0016   0.00    4.6
2173 206522.000   -218301.8634  -5246693.3533   3608099.4636   1   8   0.0039   0.0095   0.0073  -0.0014  -0.0067  -0.0016   0.00    3.5
2173 206523.000   -218301.8620  -5246693.3461   3608099.4538   1   8   0.0039   0.0095   0.0073  -0.0014  -0.0067  -0.0016   0.00    3.4
2173 206524.000   -218301.5576  -5246692.6259   3608098.4799   2   8   0.3874   0.9411   0.7243  -0.1363  -0.6595  -0.1606   0.00    2.9
2173 206525.000   -218301.8656  -5246693.3452   3608099.4532   1   8   0.0039   0.0095   0.0073  -0.0014  -0.0067  -0.0016   0.00    3.5
2173 206526.000   -218301.8869  -5246692.3151   3608098.3994   2   8   0.3874   0.9411   0.7241  -0.1366  -0.6594  -0.1605   0.00    2.6
2173 206527.000   -218301.8672  -5246692.2259   3608098.4015   2   8   0.3874   0.9411   0.7241  -0.1368  -0.6594  -0.1605   0.00    2.6
2173 206528.000   -218301.6529  -5246692.7019   3608098.5844   2   8   0.3875   0.9411   0.7240  -0.1370  -0.6593  -0.1605   0.00    2.7
2173 206529.000   -218301.8028  -5246692.7249   3608098.6852   2   8   0.3875   0.9411   0.7240  -0.1372  -0.6593  -0.1604   0.00    2.6
2173 206530.000   -218301.8681  -5246693.2750   3608098.8973   2   8   0.3875   0.9411   0.7239  -0.1373  -0.6593  -0.1604   0.00    2.7
2173 206531.000   -218301.8681  -5246693.3348   3608099.4487   1   8   0.0039   0.0095   0.0073  -0.0014  -0.0066  -0.0016   0.00    3.6
2173 206532.000   -218301.8643  -5246693.3499   3608099.4595   1   8   0.0039   0.0095   0.0073  -0.0014  -0.0066  -0.0016   0.00    3.3
2173 206533.000   -218301.8651  -5246693.3495   3608099.4609   1   8   0.0039   0.0095   0.0073  -0.0014  -0.0066  -0.0016   0.00    4.0
2173 206534.000   -218301.8656  -5246693.3449   3608099.4591   1   8   0.0039   0.0095   0.0073  -0.0014  -0.0066  -0.0016   0.00    3.8
2173 206535.000   -218301.8655  -5246693.3427   3608099.4550   1   8   0.0039   0.0095   0.0073  -0.0014  -0.0066  -0.0016   0.00    3.6
2173 206536.000   -218301.8992  -5246693.9084   3608099.3855   2   8   0.3877   0.9410   0.7235  -0.1384  -0.6590  -0.1603   0.00    2.8
2173 206537.000   -218301.8632  -5246693.3468   3608099.4576   1   8   0.0039   0.0095   0.0073  -0.0014  -0.0066  -0.0016   0.00    4.2
2173 206538.000   -218301.8690  -5246693.3357   3608099.4513   1   8   0.0039   0.0095   0.0073  -0.0014  -0.0066  -0.0016   0.00    3.2
2173 206539.000   -218301.8674  -5246693.3487   3608099.4607   1   8   0.0039   0.0095   0.0073  -0.0014  -0.0066  -0.0016   0.00    3.7
2173 206540.000   -218301.8671  -5246693.3472   3608099.4547   1   8   0.0039   0.0095   0.0073  -0.0014  -0.0066  -0.0016   0.00    3.7
2173 206541.000   -218301.8693  -5246693.3454   3608099.4609   1   8   0.0039   0.0095   0.0073  -0.0014  -0.0066  -0.0016   0.00    3.4
2173 206542.000   -218301.8660  -5246693.3487   3608099.4605   1   8   0.0039   0.0095   0.0073  -0.0014  -0.0066  -0.0016   0.00    3.1
2173 206543.000   -218301.8675  -5246693.3449   3608099.4584   1   8   0.0039   0.0095   0.0073  -0.0014  -0.0066  -0.0016   0.00    3.2
2173 206544.000   -218301.8566  -5246693.0224   3608099.0536   2   8   0.3879   0.9410   0.7231  -0.1397  -0.6586  -0.1600   0.00    2.8
2173 206545.000   -218301.8192  -5246693.2744   3608099.1019   2   8   0.3879   0.9410   0.7230  -0.1399  -0.6586  -0.1600   0.00    2.5
2173 206546.000   -218301.9306  -5246693.0234   3608099.0800   2   8   0.3879   0.9410   0.7229  -0.1401  -0.6586  -0.1600   0.00    2.8
2173 206547.000   -218301.8676  -5246693.3512   3608099.4659   1   8   0.0039   0.0095   0.0073  -0.0014  -0.0066  -0.0016   0.00    3.2
2173 206548.000   -218301.8699  -5246693.3392   3608099.4523   1   8   0.0039   0.0095   0.0073  -0.0014  -0.0066  -0.0016   0.00    3.1
2173 206549.000   -218301.8690  -5246693.3425   3608099.4547   1   8   0.0039   0.0095   0.0073  -0.0015  -0.0066  -0.0016   0.00    3.0
2173 206550.000   -218301.9264  -5246692.8410   3608098.6196   2   8   0.3880   0.9410   0.7227  -0.1408  -0.6584  -0.1599   0.00    2.6
2173 206551.000   -218301.8657  -5246693.3430   3608099.4566   1   8   0.0039   0.0095   0.0073  -0.0015  -0.0066  -0.0016   0.00    3.9
2173 206552.000   -218301.9685  -5246693.4248   3608099.1032   2   8   0.3881   0.9410   0.7226  -0.1411  -0.6583  -0.1598   0.00    2.9
2173 206553.000   -218301.9459  -5246693.6156   3608099.0874   2   8   0.3881   0.9410   0.7225  -0.1413  -0.6583  -0.1598   0.00    2.6
2173 206554.000   -218302.0831  -5246693.4141   3608099.0275   2   8   0.3881   0.9410   0.7224  -0.1414  -0.6582  -0.1598   0.00    2.8
2173 206555.000   -218302.0369  -5246693.4991   3608099.1190   2   8   0.3881   0.9410   0.7224  -0.1416  -0.6582  -0.1597   0.00    2.8
2173 206556.000   -218301.8643  -5246693.3537   3608099.4635   1   8   0.0039   0.0095   0.0073  -0.0015  -0.0066  -0.0016   0.00    3.3
2173 206557.000   -218301.8663  -5246693.3526   3608099.4587   1   8   0.0039   0.0095   0.0073  -0.0015  -0.0066  -0.0016   0.00    3.0
2173 206558.000   -218302.0409  -5246693.0262   3608099.0244   2   8   0.3882   0.9410   0.7222  -0.1421  -0.6580  -0.1597   0.00    2.4
2173 206559.000   -218301.8630  -5246693.3530   3608099.4617   1   8   0.0039   0.0095   0.0073  -0.0015  -0.0066  -0.0016   0.00    3.4
2173 206560.000   -218301.8636  -5246693.3489   3608099.4590   1   8   0.0039   0.0095   0.0073  -0.0015  -0.0066  -0.0016   0.00    3.7
2173 206561.000   -218302.1644  -5246693.1809   3608099.0721   2   8   0.3883   0.9410   0.7220  -0.1426  -0.6579  -0.1596   0.00    2.5
2173 206562.000   -218302.0202  -5246692.8870   3608099.2297   2   8   0.3883   0.9410   0.7220  -0.1428  -0.6579  -0.1595   0.00    3.0
2173 206563.000   -218301.8679  -5246693.3513   3608099.4620   1   8   0.0039   0.0095   0.0073  -0.0015  -0.0066  -0.0016   0.00    4.2
2173 206564.000   -218301.8685  -5246693.3514   3608099.4595   1   8   0.0039   0.0095   0.0073  -0.0015  -0.0066  -0.0016   0.00    3.2
2173 206565.000   -218301.8110  -5246693.1004   3608099.3514   2   8   0.3884   0.9410   0.7218  -0.1433  -0.6577  -0.1595   0.00    2.4
2173 206566.000   -218301.8651  -5246693.3545   3608099.4636   1   8   0.0039   0.0095   0.0073  -0.0015  -0.0066  -0.0016   0.00    3.1
2173 206567.000   -218301.9538  -5246693.3871   3608099.4043   2   8   0.3885   0.9410   0.7216  -0.1436  -0.6576  -0.1594   0.00    2.9
2173 206568.000   -218301.8650  -5246693.3567   3608099.4675   1   8   0.0039   0.0095   0.0073  -0.0015  -0.0066  -0.0016   0.00    4.5
2173 206569.000   -218301.8647  -5246693.3511   3608099.4587   1   8   0.0039   0.0095   0.0073  -0.0015  -0.0066  -0.0016   0.00    5.2
2173 206570.000   -218301.8662  -5246693.3545   3608099.4654   1   8   0.0039   0.0095   0.0073  -0.0015  -0.0066  -0.0016   0.00    3.1
2173 206571.000   -218301.8678  -5246693.3483   3608099.4614   1   8   0.0039   0.0095   0.0073  -0.0015  -0.0066  -0.0016   0.00    3.3
2173 206572.000   -218301.8681  -5246693.3540   3608099.4652   1   8   0.0039   0.0095   0.0073  -0.0015  -0.0066  -0.0016   0.00    4.5
2173 206573.000   -218301.8684  -5246693.3598   3608099.4677   1   8   0.0039   0.0095   0.0073  -0.0015  -0.0066  -0.0016   0.00    3.5
2173 206574.000   -218301.8670  -5246693.3523   3608099.4634   1   8   0.0039   0.0095   0.0073  -0.0015  -0.0066  -0.0016   0.00    3.0
2173 206575.000   -218301.8556  -5246693.9199   3608099.0305   2   8   0.3887   0.9410   0.7212  -0.1449  -0.6573  -0.1592   0.00    2.5
2173 206576.000   -218301.8640  -5246693.3473   3608099.4613   1   8   0.0039   0.0095   0.0073  -0.0015  -0.0066  -0.0016   0.00    3.9
2173 206577.000   -218301.8734  -5246694.0202   3608099.2366   2   8   0.3887   0.9410   0.7210  -0.1453  -0.6572  -0.1591   0.00    2.9
2173 206578.000   -218301.8763  -5246693.6487   3608099.1169   2   8   0.3887   0.9410   0.7210  -0.1454  -0.6572  -0.1591   0.00    2.4
2173 206579.000   -218301.8690  -5246693.3478   3608099.4602   1   8   0.0039   0.0095   0.0073  -0.0015  -0.0066  -0.0016   0.00    3.6
2173 206580.000   -218301.8677  -5246693.3527   3608099.4620   1   8   0.0039   0.0095   0.0073  -0.0015  -0.0066  -0.0016   0.00    3.4
2173 206581.000   -218301.8664  -5246693.3507   3608099.4629   1   8   0.0039   0.0095   0.0073  -0.0015  -0.0066  -0.0016   0.00    3.0
2173 206582.000   -218301.8685  -5246693.3578   3608099.4640   1   8   0.0039   0.0095   0.0073  -0.0015  -0.0066  -0.0016   0.00    3.7
2173 206583.000   -218301.6718  -5246694.0280   3608098.9646   2   8   0.3889   0.9410   0.7207  -0.1463  -0.6570  -0.1590   0.00    2.6
2173 206584.000   -218301.9189  -5246694.0336   3608099.0114   2   8   0.3889   0.9410   0.7206  -0.1464  -0.6569  -0.1589   0.00    2.0
2173 206585.000   -218301.9693  -5246693.9518   3608099.0181   2   8   0.3889   0.9410   0.7206  -0.1466  -0.6569  -0.1589   0.00    1.9
2173 206586.000   -218301.9306  -5246693.7955   3608098.8413   2   8   0.3889   0.9410   0.7205  -0.1468  -0.6568  -0.1589   0.00    2.9
2173 206587.000   -218301.9100  -5246694.1504   3608099.0526   2   8   0.3890   0.9410   0.7204  -0.1469  -0.6568  -0.1589   0.00    2.9
2173 206588.000   -218301.9836  -5246693.9510   3608098.9558   2   8   0.3890   0.9410   0.7204  -0.1471  -0.6567  -0.1588   0.00    2.4
2173 206589.000   -218301.8836  -5246694.0744   3608098.6293   2   8   0.3890   0.9410   0.7203  -0.1472  -0.6567  -0.1588   0.00    1.8
2173 206590.000   -218301.7952  -5246693.8884   3608098.6309   2   8   0.3890   0.9410   0.7202  -0.1474  -0.6566  -0.1588   0.00    1.9
2173 206591.000   -218301.8644  -5246693.8680   3608098.4902   2   8   0.3891   0.9410   0.7202  -0.1476  -0.6566  -0.1587   0.00    2.5
2173 206592.000   -218301.8649  -5246693.3501   3608099.4593   1   8   0.0039   0.0095   0.0073  -0.0015  -0.0066  -0.0016   0.00    3.1
2173 206593.000   -218301.8633  -5246693.3652   3608099.4692   1   8   0.0039   0.0095   0.0073  -0.0015  -0.0066  -0.0016   0.00    3.2
2173 206594.000   -218301.8675  -5246693.3500   3608099.4643   1   8   0.0039   0.0095   0.0073  -0.0015  -0.0066  -0.0016   0.00    3.9
2173 206595.000   -218301.9922  -5246694.6170   3608099.1767   2   8   0.3892   0.9410   0.7199  -0.1482  -0.6564  -0.1586   0.00    2.7
2173 206596.000   -218302.0422  -5246694.3378   3608099.1855   2   8   0.3892   0.9410   0.7199  -0.1484  -0.6564  -0.1586   0.00    2.7
2173 206597.000   -218301.8685  -5246694.2211   3608099.0722   2   8   0.3892   0.9410   0.7198  -0.1485  -0.6563  -0.1586   0.00    2.1
2173 206598.000   -218302.1206  -5246694.2142   3608099.2161   2   8   0.3892   0.9410   0.7198  -0.1487  -0.6563  -0.1586   0.00    2.3
2173 206599.000   -218302.0082  -5246693.6926   3608098.8276   2   8   0.3893   0.9410   0.7197  -0.1489  -0.6563  -0.1585   0.00    2.4
2173 206600.000   -218301.9676  -5246693.5136   3608098.9209   2   8   0.3893   0.9410   0.7196  -0.1490  -0.6562  -0.1585   0.00    2.4
2173 206601.000   -218301.8182  -5246694.1399   3608098.7784   2   8   0.3893   0.9410   0.7196  -0.1492  -0.6562  -0.1585   0.00    2.0
2173 206602.000   -218301.6677  -5246693.9844   3608098.8275   2   8   0.3894   0.9409   0.7195  -0.1493  -0.6561  -0.1584   0.00    1.3
2173 206603.000   -218301.7202  -5246694.4147   3608098.9300   2   8   0.3894   0.9409   0.7195  -0.1495  -0.6561  -0.1584   0.00    1.2
2173 206604.000   -218301.5445  -5246694.5893   3608099.2537   2   8   0.3894   0.9409   0.7194  -0.1497  -0.6560  -0.1584   0.00    1.0
2173 206605.000   -218301.4635  -5246694.6174   3608099.3549   2   8   0.3894   0.9409   0.7193  -0.1498  -0.6560  -0.1584   0.00    1.2
2173 206606.000   -218301.6052  -5246694.2778   3608098.7681   2   8   0.3895   0.9409   0.7193  -0.1500  -0.6559  -0.1583   0.00    1.2
2173 206607.000   -218301.7167  -5246693.9715   3608098.6980   2   8   0.3895   0.9409   0.7192  -0.1501  -0.6559  -0.1583   0.00    1.2
2173 206608.000   -218301.6952  -5246694.3172   3608098.9607   2   8   0.3895   0.9409   0.7192  -0.1503  -0.6559  -0.1583   0.00    1.1
2173 206609.000   -218301.6682  -5246694.2243   3608098.8473   2   8   0.3895   0.9409   0.7191  -0.1505  -0.6558  -0.1583   0.00    1.3
2173 206610.000   -218301.6056  -5246693.9454   3608098.7883   2   8   0.3896   0.9409   0.7190  -0.1506  -0.6558  -0.1582   0.00    1.8
2173 206611.000   -218301.6200  -5246693.7083   3608098.6227   2   8   0.3896   0.9409   0.7190  -0.1508  -0.6557  -0.1582   0.00    1.5
2173 206612.000   -218301.5603  -5246693.3063   3608098.2558   2   8   0.3896   0.9409   0.7189  -0.1509  -0.6557  -0.1582   0.00    1.5
2173 206613.000   -218301.5070  -5246694.0492   3608098.8359   2   8   0.3896   0.9409   0.7188  -0.1511  -0.6556  -0.1581   0.00    1.6
2173 206614.000   -218301.4850  -5246693.5019   3608098.5357   2   8   0.3897   0.9409   0.7188  -0.1513  -0.6556  -0.1581   0.00    1.8
2173 206615.000   -218301.7705  -5246694.1335   3608098.9483   2   8   0.3897   0.9409   0.7187  -0.1514  -0.6556  -0.1581   0.00    1.7
2173 206616.000   -218301.7793  -5246693.3481   3608098.4450   2   8   0.3897   0.9409   0.7187  -0.1516  -0.6555  -0.1581   0.00    1.1
2173 206617.000   -218301.8353  -5246693.3715   3608098.6208   2   8   0.3897   0.9409   0.7186  -0.1517  -0.6555  -0.1580   0.00    1.2
2173 206618.000   -218301.7360  -5246693.4966   3608098.5257   2   8   0.3898   0.9409   0.7185  -0.1519  -0.6554  -0.1580   0.00    1.3
2173 206619.000   -218301.8179  -5246693.0077   3608098.3230   2   8   0.3898   0.9409   0.7185  -0.1521  -0.6554  -0.1580   0.00    1.4
2173 206620.000   -218301.7652  -5246693.0031   3608097.9900   2   8   0.3898   0.9409   0.7184  -0.1522  -0.6553  -0.1579   0.00    1.1
2173 206621.000   -218301.8071  -5246693.2948   3608098.3045   2   8   0.3898   0.9409   0.7184  -0.1524  -0.6553  -0.1579   0.00    1.6
2173 206622.000   -218301.8345  -5246693.7457   3608098.4916   2   8   0.3899   0.9409   0.7183  -0.1525  -0.6553  -0.1579   0.00    1.2
2173 206623.000   -218301.8266  -5246693.4834   3608098.4219   2   8   0.3899   0.9409   0.7182  -0.1527  -0.6552  -0.1579   0.00    1.5
2173 206624.000   -218301.7755  -5246693.2530   3608098.2307   2   8   0.3899   0.9409   0.7182  -0.1528  -0.6552  -0.1578   0.00    1.6
2173 206625.000   -218301.7490  -5246693.3090   3608098.4057   2   8   0.3900   0.9409   0.7181  -0.1530  -0.6551  -0.1578   0.00    2.1
2173 206626.000   -218301.9245  -5246693.6183   3608098.8806   2   8   0.3900   0.9409   0.7181  -0.1532  -0.6551  -0.1578   0.00    1.9
2173 206627.000   -218301.8516  -5246693.4345   3608098.8551   2   8   0.3900   0.9409   0.7180  -0.1533  -0.6550  -0.1578   0.00    1.7
2173 206628.000   -218301.8578  -5246693.3674   3608098.6689   2   8   0.3900   0.9409   0.7179  -0.1535  -0.6550  -0.1577   0.00    2.4
2173 206629.000   -218301.8132  -5246693.1212   3608098.7082   2   8   0.3901   0.9409   0.7179  -0.1536  -0.6549  -0.1577   0.00    2.2
2173 206630.000   -218301.6370  -5246693.5275   3608098.7482   2   8   0.3901   0.9409   0.7178  -0.1538  -0.6549  -0.1577   0.00    1.7
2173 206631.000   -218301.7406  -5246693.2533   3608098.5410   2   8   0.3901   0.9409   0.7178  -0.1539  -0.6549  -0.1576   0.00    1.6
2173 206632.000   -218301.6815  -5246693.2575   3608098.6964   2   8   0.3901   0.9409   0.7177  -0.1541  -0.6548  -0.1576   0.00    2.0
2173 206633.000   -218301.6080  -5246693.5269   3608099.0386   2   8   0.3902   0.9409   0.7176  -0.1543  -0.6548  -0.1576   0.00    2.1
2173 206634.000   -218301.5803  -5246693.0177   3608098.6820   2   8   0.3902   0.9409   0.7176  -0.1544  -0.6547  -0.1576   0.00    1.4
2173 206635.000   -218301.6667  -5246693.7504   3608098.9301   2   8   0.3902   0.9409   0.7175  -0.1546  -0.6547  -0.1575   0.00    1.6
2173 206636.000   -218301.7450  -5246693.9023   3608099.1764   2   8   0.3902   0.9409   0.7175  -0.1547  -0.6546  -0.1575   0.00    1.6
2173 206637.000   -218301.8903  -5246694.0107   3608098.9430   2   8   0.3903   0.9409   0.7174  -0.1549  -0.6546  -0.1575   0.00    1.3
2173 206638.000   -218301.9318  -5246694.7180   3608099.2604   2   8   0.3903   0.9409   0.7173  -0.1550  -0.6546  -0.1574   0.00    1.5
2173 206639.000   -218301.8974  -5246693.9432   3608099.1634   2   8   0.3903   0.9409   0.7173  -0.1552  -0.6545  -0.1574   0.00    1.5
2173 206640.000   -218301.7510  -5246694.3888   3608099.6133   2   8   0.3904   0.9409   0.7172  -0.1553  -0.6545  -0.1574   0.00    2.5
2173 206641.000   -218301.7765  -5246694.3694   3608099.4417   2   8   0.3904   0.9409   0.7171  -0.1555  -0.6544  -0.1574   0.00    1.6
2173 206642.000   -218301.8021  -5246694.7085   3608099.5391   2   8   0.3904   0.9409   0.7171  -0.1557  -0.6544  -0.1573   0.00    1.9
2173 206643.000   -218301.9060  -5246694.3793   3608099.2362   2   8   0.3904   0.9409   0.7170  -0.1558  -0.6543  -0.1573   0.00    1.1
2173 206644.000   -218301.8892  -5246694.6796   3608099.1543   2   8   0.3905   0.9409   0.7170  -0.1560  -0.6543  -0.1573   0.00    1.3
2173 206645.000   -218302.0217  -5246694.2044   3608099.0437   2   8   0.3905   0.9409   0.7169  -0.1561  -0.6542  -0.1573   0.00    2.1
2173 206646.000   -218302.1145  -5246693.9318   3608099.0749   2   8   0.3905   0.9409   0.7168  -0.1563  -0.6542  -0.1572   0.00    1.9
2173 206647.000   -218302.1508  -5246694.3104   3608099.3837   2   8   0.3905   0.9409   0.7168  -0.1564  -0.6542  -0.1572   0.00    1.1
2173 206648.000   -218302.0745  -5246694.3257   3608099.2024   2   8   0.3906   0.9409   0.7167  -0.1566  -0.6541  -0.1572   0.00    1.4
2173 206649.000   -218301.9464  -5246694.3592   3608099.3986   2   8   0.3906   0.9409   0.7167  -0.1567  -0.6541  -0.1571   0.00    1.4
2173 206650.000   -218301.8304  -5246694.5821   3608099.4028   2   8   0.3906   0.9409   0.7166  -0.1569  -0.6540  -0.1571   0.00    1.0
2173 206651.000   -218302.0146  -5246694.3535   3608099.4322   2   8   0.3906   0.9409   0.7165  -0.1570  -0.6540  -0.1571   0.00    1.4
2173 206652.000   -218301.7116  -5246694.6204   3608099.6340   2   8   0.3907   0.9409   0.7165  -0.1572  -0.6539  -0.1571   0.00    1.2
2173 206653.000   -218301.7750  -5246694.5919   3608099.5057   2   8   0.3907   0.9409   0.7164  -0.1574  -0.6539  -0.1570   0.00    1.7
2173 206654.000   -218301.8699  -5246694.2687   3608099.3983   2   8   0.3907   0.9409   0.7164  -0.1575  -0.6539  -0.1570   0.00    1.7
2173 206655.000   -218301.8979  -5246694.5500   3608099.3161   2   8   0.3908   0.9409   0.7163  -0.1577  -0.6538  -0.1570   0.00    1.5
2173 206656.000   -218301.8226  -5246694.3944   3608099.0583   2   8   0.3908   0.9409   0.7162  -0.1578  -0.6538  -0.1570   0.00    1.8
2173 206657.000   -218301.9176  -5246694.8246   3608099.4736   2   8   0.3908   0.9409   0.7162  -0.1580  -0.6537  -0.1569   0.00    1.6
2173 206658.000   -218301.8290  -5246695.0632   3608099.4177   2   8   0.3908   0.9409   0.7161  -0.1581  -0.6537  -0.1569   0.00    1.0
2173 206659.000   -218301.9560  -5246694.7710   3608099.6841   2   8   0.3909   0.9409   0.7161  -0.1583  -0.6536  -0.1569   0.00    1.2
2173 206660.000   -218302.1120  -5246694.6666   3608099.3123   2   8   0.3909   0.9409   0.7160  -0.1584  -0.6536  -0.1568   0.00    2.0
2173 206661.000   -218301.9664  -5246694.9110   3608099.4092   2   8   0.3909   0.9409   0.7159  -0.1586  -0.6535  -0.1568   0.00    2.0
2173 206662.000   -218301.9712  -5246694.9022   3608099.0560   2   8   0.3909   0.9409   0.7159  -0.1587  -0.6535  -0.1568   0.00    1.0
2173 206663.000   -218301.7909  -5246695.1349   3608099.4585   2   8   0.3910   0.9409   0.7158  -0.1589  -0.6535  -0.1568   0.00    1.6
2173 206664.000   -218301.8468  -5246695.4363   3608099.5621   2   8   0.3910   0.9409   0.7158  -0.1590  -0.6534  -0.1567   0.00    1.0
2173 206665.000   -218301.8378  -5246695.5932   3608099.6478   2   8   0.3910   0.9409   0.7157  -0.1592  -0.6534  -0.1567   0.00    1.4
2173 206666.000   -218301.5783  -5246695.0491   3608099.3245   2   8   0.3911   0.9409   0.7156  -0.1593  -0.6533  -0.1567   0.00    1.6
2173 206667.000   -218301.6432  -5246695.5786   3608099.7462   2   8   0.3911   0.9409   0.7156  -0.1595  -0.6533  -0.1566   0.00    2.1
2173 206668.000   -218301.9195  -5246694.6109   3608099.5316   2   8   0.3911   0.9409   0.7155  -0.1596  -0.6532  -0.1566   0.00    2.0
2173 206669.000   -218301.5259  -5246695.3155   3608099.5133   2   8   0.3911   0.9409   0.7155  -0.1598  -0.6532  -0.1566   0.00    2.5
2173 206670.000   -218301.3787  -5246695.1990   3608099.3745   2   8   0.3912   0.9409   0.7154  -0.1599  -0.6532  -0.1566   0.00    2.0
2173 206671.000   -218301.8481  -5246693.4040   3608099.4882   1   7   0.0048   0.0124   0.0081  -0.0049  -0.0085   0.0027   0.00    3.3
2173 206672.000   -218301.8455  -5246693.4003   3608099.4829   1   7   0.0048   0.0124   0.0081  -0.0049  -0.0085   0.0027   0.00    3.8
2173 206673.000   -218301.8080  -5246694.3950   3608098.9146   2   7   0.4717   1.2312   0.8008  -0.4846  -0.8441   0.2653   0.00    2.9
2173 206674.000   -218301.8490  -5246694.5289   3608098.6688   2   7   0.4717   1.2312   0.8008  -0.4848  -0.8441   0.2654   0.00    2.5
2173 206675.000   -218301.6933  -5246694.7904   3608098.9612   2   7   0.4718   1.2313   0.8008  -0.4849  -0.8441   0.2655   0.00    2.6
2173 206676.000   -218301.6625  -5246694.4189   3608098.6519   2   7   0.4718   1.2313   0.8007  -0.4850  -0.8441   0.2656   0.00    2.5
2173 206677.000   -218301.8522  -5246694.5314   3608098.7255   2   7   0.4719   1.2314   0.8007  -0.4851  -0.8441   0.2656   0.00    2.4
2173 206678.000   -218301.7498  -5246694.2740   3608098.5568   2   7   0.4720   1.2314   0.8006  -0.4853  -0.8441   0.2657   0.00    2.6
2173 206679.000   -218301.9216  -5246693.8754   3608098.2754   2   7   0.4720   1.2314   0.8006  -0.4854  -0.8441   0.2658   0.00    2.2
2173 206680.000   -218302.0332  -5246693.2832   3608098.0347   2   7   0.4721   1.2315   0.8006  -0.4855  -0.8441   0.2659   0.00    2.0
2173 206681.000   -218301.7180  -5246693.2537   3608098.0466   2   7   0.4722   1.2315   0.8005  -0.4856  -0.8441   0.2660   0.00    1.8
2173 206682.000   -218301.9432  -5246693.3705   3608098.0204   2   7   0.4722   1.2316   0.8005  -0.4857  -0.8441   0.2660   0.00    1.8
2173 206683.000   -218302.0422  -5246693.3492   3608097.9937   2   7   0.4723   1.2316   0.8004  -0.4859  -0.8441   0.2661   0.00    2.1
2173 206684.000   -218301.5717  -5246693.9211   3608098.2676   2   7   0.4723   1.2316   0.8004  -0.4860  -0.8441   0.2662   0.00    2.5
2173 206685.000   -218301.6581  -5246693.8573   3608098.1700   2   7   0.4724   1.2317   0.8004  -0.4861  -0.8441   0.2663   0.00    2.1
2173 206686.000   -218301.8179  -5246693.3026   3608098.1247   2   7   0.4725   1.2317   0.8003  -0.4862  -0.8440   0.2664   0.00    1.8
2173 206687.000   -218301.7868  -5246693.7628   3608098.5648   2   7   0.4725   1.2318   0.8003  -0.4864  -0.8440   0.2664   0.00    2.5
2173 206688.000   -218301.8262  -5246692.8977   3608098.1672   2   7   0.4726   1.2318   0.8002  -0.4865  -0.8440   0.2665   0.00    2.7
2173 206689.000   -218302.0506  -5246692.8990   3608098.1137   2   7   0.4726   1.2318   0.8002  -0.4866  -0.8440   0.2666   0.00    2.0
2173 206690.000   -218301.9908  -5246692.8295   3608098.3663   2   7   0.4727   1.2319   0.8002  -0.4867  -0.8440   0.2667   0.00    2.5
2173 206691.000   -218302.0073  -5246692.6963   3608098.2268   2   7   0.4728   1.2319   0.8001  -0.4869  -0.8440   0.2668   0.00    2.7
2173 206692.000   -218302.0209  -5246692.8459   3608097.8748   2   7   0.4728   1.2320   0.8001  -0.4870  -0.8440   0.2668   0.00    1.6
2173 206693.000   -218302.0005  -5246692.9510   3608097.8921   2   7   0.4729   1.2320   0.8001  -0.4871  -0.8440   0.2669   0.00    1.9
2173 206694.000   -218302.2806  -5246692.4797   3608097.7040   2   7   0.4729   1.2320   0.8000  -0.4872  -0.8440   0.2670   0.00    1.5
2173 206695.000   -218302.3742  -5246692.2022   3608097.5399   2   7   0.4730   1.2321   0.8000  -0.4873  -0.8440   0.2671   0.00    1.4
2173 206696.000   -218302.0655  -5246692.1014   3608097.4037   2   7   0.4731   1.2321   0.7999  -0.4875  -0.8440   0.2671   0.00    1.5
2173 206697.000   -218301.9703  -5246692.5919   3608097.7919   2   7   0.4731   1.2322   0.7999  -0.4876  -0.8440   0.2672   0.00    1.8
2173 206698.000   -218301.9366  -5246692.3473   3608097.3239   2   7   0.4732   1.2322   0.7999  -0.4877  -0.8440   0.2673   0.00    1.0
2173 206699.000   -218301.7852  -5246692.6658   3608097.5048   2   7   0.4733   1.2323   0.7998  -0.4878  -0.8440   0.2674   0.00    1.3
2173 206700.000   -218302.0740  -5246692.6528   3608097.3475   2   7   0.4733   1.2323   0.7998  -0.4880  -0.8440   0.2675   0.00    1.5
2173 206701.000   -218301.9372  -5246692.4274   3608097.3514   2   7   0.4734   1.2323   0.7997  -0.4881  -0.8440   0.2675   0.00    1.8
2173 206702.000   -218302.0517  -5246692.2249   3608097.4733   2   7   0.4734   1.2324   0.7997  -0.4882  -0.8440   0.2676   0.00    2.1
2173 206703.000   -218302.0803  -5246692.5909   3608097.7602   2   7   0.4735   1.2324   0.7997  -0.4883  -0.8440   0.2677   0.00    1.3
2173 206704.000   -218302.1901  -5246692.7530   3608098.0503   2   7   0.4736   1.2325   0.7996  -0.4884  -0.8440   0.2678   0.00    1.9
2173 206705.000   -218302.1986  -5246692.3880   3608097.7943   2   7   0.4736   1.2325   0.7996  -0.4886  -0.8440   0.2679   0.00    2.3
2173 206706.000   -218302.1746  -5246692.3428   3608097.8754   2   7   0.4737   1.2325   0.7996  -0.4887  -0.8440   0.2679   0.00    1.6
2173 206707.000   -218302.1873  -5246692.3029   3608097.7089   2   7   0.4737   1.2326   0.7995  -0.4888  -0.8439   0.2680   0.00    1.7
2173 206708.000   -218301.9546  -5246692.7567   3608097.9173   2   7   0.4738   1.2326   0.7995  -0.4889  -0.8439   0.2681   0.00    1.8
2173 206709.000   -218302.1871  -5246692.1636   3608097.6387   2   7   0.4739   1.2327   0.7994  -0.4891  -0.8439   0.2682   0.00    2.0
2173 206710.000   -218301.8497  -5246693.3990   3608099.4775   1   7   0.0048   0.0124   0.0081  -0.0049  -0.0085   0.0027   0.00    3.2
2173 206711.000   -218302.1352  -5246692.4265   3608097.8081   2   7   0.4740   1.2327   0.7994  -0.4893  -0.8439   0.2683   0.00    1.9
2173 206712.000   -218302.0421  -5246692.5979   3608098.0394   2   7   0.4741   1.2328   0.7993  -0.4894  -0.8439   0.2684   0.00    2.9
2173 206713.000   -218302.0398  -5246692.0120   3608097.5552   2   8   0.4202   1.0432   0.7416  -0.3089  -0.7186   0.0814   0.00    1.1
2173 206714.000   -218301.8496  -5246692.5201   3608097.7769   2   8   0.4163   1.0320   0.7386  -0.2944  -0.7115   0.0533   0.00    1.0
