% program   : rnx2rtkp ver.2.4.3 b31
% inp file  : ngs/21_09_01_11_12_52_talh.obs
% inp file  : ngs/21_09_01_11_12_52_talh_P1.obs
% inp file  : ngs/21_09_01_11_12_52_brdc.nav
% obs start : 2021/09/01 11:00:00.0 GPST (week2173 298800.0s)
% obs end   : 2021/09/01 11:59:59.0 GPST (week2173 302399.0s)
% ref pos   :   553867.4830  -5487080.4440   3193245.8220
%
% (x/y/z-ecef=WGS84,Q=1:fix,2:float,3:sbas,4:dgps,5:single,6:ppp,ns=# of satellites)
%  GPST              x-ecef(m)      y-ecef(m)      z-ecef(m)   Q  ns   sdx(m)   sdy(m)   sdz(m)  sdxy(m)  sdyz(m)  sdzx(m) age(s)  ratio
2173 299547.000    541527.2693  -5479444.5356   3208362.1459   2   8   0.5029   0.9592   0.6015  -0.1895  -0.5878  -0.1771 -30.00    1.1
2173 299548.000    541527.2631  -5479444.5248   3208362.1424   2   8   0.3582   0.6832   0.4285  -0.1364  -0.4187  -0.1256 -29.00    1.1
2173 299549.000    541527.2584  -5479444.5270   3208362.1425   2   8   0.2934   0.5595   0.3509  -0.1120  -0.3429  -0.1027 -28.00    1.1
2173 299550.000    541527.2590  -5479444.5197   3208362.1388   2   8   0.2545   0.4854   0.3044  -0.0972  -0.2975  -0.0891 -27.00    1.1
2173 299551.000    541527.2613  -5479444.5285   3208362.1405   2   8   0.2279   0.4347   0.2726  -0.0871  -0.2664  -0.0798 -26.00    1.1
2173 299552.000    541527.2582  -5479444.5223   3208362.1398   2   8   0.2083   0.3971   0.2491  -0.0796  -0.2434  -0.0729 -25.00    1.1
2173 299553.000    541527.2578  -5479444.5247   3208362.1415   2   8   0.1930   0.3679   0.2308  -0.0738  -0.2255  -0.0675 -24.00    1.1
2173 299554.000    541527.2591  -5479444.5267   3208362.1390   2   8   0.1806   0.3443   0.2160  -0.0691  -0.2111  -0.0632 -23.00    1.1
2173 299555.000    541527.2571  -5479444.5236   3208362.1401   2   8   0.1703   0.3248   0.2037  -0.0651  -0.1991  -0.0596 -22.00    1.1
2173 299556.000    541527.2588  -5479444.5266   3208362.1389   2   8   0.1616   0.3082   0.1933  -0.0618  -0.1889  -0.0566 -21.00    1.1
2173 299557.000    541527.2571  -5479444.5249   3208362.1408   2   8   0.1541   0.2939   0.1844  -0.0590  -0.1802  -0.0539 -20.00    1.1
2173 299558.000    541527.2555  -5479444.5207   3208362.1404   2   8   0.1476   0.2814   0.1765  -0.0565  -0.1725  -0.0516 -19.00    1.1
2173 299559.000    541527.2550  -5479444.5212   3208362.1368   2   8   0.1418   0.2703   0.1696  -0.0543  -0.1657  -0.0496 -18.00    1.1
2173 299560.000    541527.2543  -5479444.5213   3208362.1395   2   8   0.1366   0.2605   0.1634  -0.0524  -0.1597  -0.0478 -17.00    1.1
2173 299561.000    541527.2534  -5479444.5258   3208362.1384   2   8   0.1320   0.2516   0.1579  -0.0507  -0.1542  -0.0461 -16.00    1.1
2173 299562.000    541527.2518  -5479444.5196   3208362.1370   2   8   0.1278   0.2436   0.1528  -0.0491  -0.1493  -0.0446 -15.00    1.1
2173 299563.000    541527.2522  -5479444.5174   3208362.1334   2   8   0.1239   0.2362   0.1482  -0.0477  -0.1448  -0.0433 -14.00    1.1
2173 299564.000    541527.2525  -5479444.5192   3208362.1326   2   8   0.1204   0.2295   0.1440  -0.0464  -0.1407  -0.0420 -13.00    1.1
2173 299565.000    541527.2524  -5479444.5240   3208362.1340   2   8   0.1172   0.2233   0.1401  -0.0452  -0.1369  -0.0409 -12.00    1.1
2173 299566.000    541527.2542  -5479444.5231   3208362.1325   2   8   0.1142   0.2176   0.1366  -0.0441  -0.1334  -0.0398 -11.00    1.1
2173 299567.000    541527.2543  -5479444.5237   3208362.1322   2   8   0.1114   0.2123   0.1332  -0.0430  -0.1301  -0.0388 -10.00    1.1
2173 299568.000    541527.2528  -5479444.5260   3208362.1312   2   8   0.1088   0.2073   0.1301  -0.0421  -0.1271  -0.0379  -9.00    1.0
2173 299569.000    541527.2531  -5479444.5260   3208362.1318   2   8   0.1064   0.2026   0.1272  -0.0412  -0.1242  -0.0370  -8.00    1.0
2173 299570.000    541527.2528  -5479444.5292   3208362.1328   2   8   0.1041   0.1983   0.1245  -0.0404  -0.1216  -0.0362  -7.00    1.0
2173 299571.000    541527.2511  -5479444.5265   3208362.1318   2   8   0.1020   0.1942   0.1219  -0.0396  -0.1191  -0.0354  -6.00    1.0
2173 299572.000    541527.2525  -5479444.5331   3208362.1332   2   8   0.1000   0.1904   0.1195  -0.0389  -0.1167  -0.0346  -5.00    1.0
2173 299573.000    541527.2534  -5479444.5300   3208362.1314   2   8   0.0981   0.1867   0.1172  -0.0382  -0.1145  -0.0339  -4.00    1.0
2173 299574.000    541527.2538  -5479444.5344   3208362.1311   2   8   0.0962   0.1833   0.1150  -0.0375  -0.1124  -0.0333  -3.00    1.0
2173 299575.000    541527.2540  -5479444.5368   3208362.1305   2   8   0.0946   0.1800   0.1130  -0.0369  -0.1104  -0.0327  -2.00    1.0
2173 299576.000    541527.2576  -5479444.5355   3208362.1277   2   8   0.0929   0.1770   0.1110  -0.0363  -0.1085  -0.0321  -1.00    1.0
2173 299577.000    541527.2571  -5479444.5395   3208362.1274   2   8   0.0914   0.1740   0.1092  -0.0358  -0.1067  -0.0315   0.00    1.0
2173 299578.000    541527.2466  -5479444.5880   3208362.0672   2   8   0.5016   0.9562   0.6022  -0.1874  -0.5875  -0.1782   0.00    1.0
2173 299579.000    541527.2062  -5479444.8294   3208362.1761   2   8   0.5015   0.9561   0.6023  -0.1873  -0.5875  -0.1783   0.00    1.0
2173 299580.000    541527.1864  -5479444.7514   3208362.2020   2   8   0.5015   0.9560   0.6023  -0.1873  -0.5875  -0.1783   0.00    1.2
2173 299581.000    541527.2801  -5479444.6507   3208362.1805   2   8   0.5015   0.9560   0.6023  -0.1872  -0.5875  -0.1783   0.00    1.0
2173 299582.000    541527.3070  -5479444.6068   3208362.1440   2   8   0.5015   0.9559   0.6024  -0.1871  -0.5875  -0.1784   0.00    1.1
2173 299583.000    541527.2152  -5479444.5541   3208362.1657   2   8   0.5015   0.9559   0.6024  -0.1871  -0.5876  -0.1784   0.00    1.2
2173 299584.000    541527.2188  -5479444.6399   3208362.2302   2   8   0.5014   0.9558   0.6025  -0.1870  -0.5876  -0.1785   0.00    1.1
2173 299585.000    541527.2098  -5479444.7082   3208362.2340   2   8   0.5014   0.9558   0.6025  -0.1870  -0.5876  -0.1785   0.00    1.1
2173 299586.000    541527.1637  -5479444.7586   3208362.2016   2   8   0.5014   0.9557   0.6026  -0.1869  -0.5876  -0.1786   0.00    1.1
2173 299587.000    541527.1479  -5479444.9085   3208362.1730   2   8   0.5014   0.9556   0.6026  -0.1869  -0.5876  -0.1786   0.00    1.1
2173 299588.000    541527.1178  -5479444.8006   3208362.1220   2   8   0.5014   0.9556   0.6027  -0.1868  -0.5876  -0.1787   0.00    1.0
2173 299589.000    541527.1720  -5479444.6871   3208362.0709   2   8   0.5013   0.9555   0.6027  -0.1868  -0.5876  -0.1787   0.00    1.1
2173 299590.000    541527.1528  -5479444.7340   3208362.1277   2   8   0.5013   0.9555   0.6027  -0.1867  -0.5876  -0.1788   0.00    1.0
2173 299591.000    541527.1536  -5479444.5030   3208362.1550   2   8   0.5013   0.9554   0.6028  -0.1866  -0.5876  -0.1788   0.00    1.2
2173 299592.000    541527.1426  -5479444.3897   3208362.0933   2   8   0.5013   0.9553   0.6028  -0.1866  -0.5876  -0.1789   0.00    1.1
2173 299593.000    541527.1074  -5479444.2391   3208361.9748   2   8   0.5013   0.9553   0.6029  -0.1865  -0.5876  -0.1789   0.00    1.1
2173 299594.000    541527.1287  -5479444.2550   3208361.9580   2   8   0.5012   0.9552   0.6029  -0.1865  -0.5876  -0.1790   0.00    1.2
2173 299595.000    541527.1218  -5479444.1792   3208361.9529   2   8   0.5012   0.9552   0.6030  -0.1864  -0.5876  -0.1790   0.00    1.1
2173 299596.000    541527.0171  -5479444.3576   3208361.9559   2   8   0.5012   0.9551   0.6030  -0.1864  -0.5877  -0.1790   0.00    1.0
2173 299597.000    541526.9658  -5479444.4037   3208361.9951   2   8   0.5012   0.9550   0.6031  -0.1863  -0.5877  -0.1791   0.00    1.0
2173 299598.000    541526.9641  -5479444.8488   3208362.0316   2   8   0.5012   0.9550   0.6031  -0.1863  -0.5877  -0.1791   0.00    1.1
2173 299599.000    541526.9544  -5479444.8280   3208362.0125   2   8   0.5012   0.9549   0.6032  -0.1862  -0.5877  -0.1792   0.00    1.1
2173 299600.000    541526.9546  -5479444.9106   3208362.0324   2   8   0.5011   0.9549   0.6032  -0.1861  -0.5877  -0.1792   0.00    1.0
2173 299601.000    541527.0858  -5479444.6074   3208361.8998   2   8   0.5011   0.9548   0.6032  -0.1861  -0.5877  -0.1793   0.00    1.0
2173 299602.000    541527.0555  -5479444.6816   3208361.9068   2   8   0.5011   0.9548   0.6033  -0.1860  -0.5877  -0.1793   0.00    1.0
2173 299603.000    541526.9735  -5479444.8342   3208361.8552   2   8   0.5011   0.9547   0.6033  -0.1860  -0.5877  -0.1794   0.00    1.1
2173 299604.000    541526.9079  -5479444.8935   3208361.9636   2   8   0.5011   0.9546   0.6034  -0.1859  -0.5877  -0.1794   0.00    1.1
2173 299605.000    541526.9097  -5479445.0286   3208362.0125   2   8   0.5010   0.9546   0.6034  -0.1859  -0.5877  -0.1795   0.00    1.1
2173 299606.000    541526.8452  -5479445.0109   3208361.9809   2   8   0.5010   0.9545   0.6035  -0.1858  -0.5877  -0.1795   0.00    1.0
2173 299607.000    541526.8666  -5479445.1060   3208361.9293   2   8   0.5010   0.9545   0.6035  -0.1858  -0.5877  -0.1796   0.00    1.0
2173 299608.000    541526.8026  -5479445.4308   3208362.1443   2   8   0.5010   0.9544   0.6036  -0.1857  -0.5877  -0.1796   0.00    1.0
2173 299609.000    541526.8337  -5479445.4772   3208362.0428   2   8   0.5010   0.9544   0.6036  -0.1857  -0.5878  -0.1796   0.00    1.1
2173 299610.000    541526.9255  -5479445.1775   3208361.9141   2   8   0.5009   0.9543   0.6036  -0.1856  -0.5878  -0.1797   0.00    1.1
2173 299611.000    541526.7591  -5479445.7241   3208361.9822   2   8   0.5009   0.9542   0.6037  -0.1856  -0.5878  -0.1797   0.00    1.0
2173 299612.000    541526.6712  -5479445.7566   3208362.0220   2   8   0.5009   0.9542   0.6037  -0.1855  -0.5878  -0.1798   0.00    1.1
2173 299613.000    541526.8058  -5479445.3619   3208361.9337   2   8   0.5009   0.9541   0.6038  -0.1854  -0.5878  -0.1798   0.00    1.0
2173 299614.000    541526.8685  -5479444.9647   3208361.8879   2   8   0.5009   0.9541   0.6038  -0.1854  -0.5878  -0.1799   0.00    1.0
2173 299615.000    541526.7914  -5479445.2480   3208361.9260   2   8   0.5008   0.9540   0.6039  -0.1853  -0.5878  -0.1799   0.00    1.0
2173 299616.000    541526.7788  -5479445.3393   3208361.9783   2   8   0.5008   0.9540   0.6039  -0.1853  -0.5878  -0.1800   0.00    1.0
2173 299617.000    541526.8132  -5479445.5223   3208362.0040   2   8   0.5008   0.9539   0.6040  -0.1852  -0.5878  -0.1800   0.00    1.0
2173 299618.000    541526.9879  -5479445.4065   3208361.9847   2   7   0.5138   1.0084   0.6038   0.0586  -0.5866  -0.1792   0.00    1.0
2173 299619.000    541526.7569  -5479445.7587   3208361.9567   2   8   0.5008   0.9538   0.6041  -0.1851  -0.5878  -0.1801   0.00    1.0
2173 299620.000    541526.7932  -5479445.5693   3208361.9698   2   7   0.5137   1.0083   0.6039   0.0590  -0.5867  -0.1793   0.00    1.0
2173 299621.000    541526.7027  -5479445.9941   3208362.0052   2   8   0.5007   0.9537   0.6041  -0.1850  -0.5879  -0.1802   0.00    1.0
2173 299622.000    541526.5806  -5479446.4965   3208362.0598   2   8   0.5007   0.9536   0.6042  -0.1850  -0.5879  -0.1802   0.00    1.0
2173 299623.000    541526.5734  -5479446.3675   3208361.9434   2   8   0.5007   0.9536   0.6042  -0.1849  -0.5879  -0.1803   0.00    1.0
2173 299624.000    541526.6729  -5479446.3420   3208362.0021   2   7   0.5136   1.0081   0.6041   0.0599  -0.5868  -0.1796   0.00    1.1
2173 299625.000    541526.6634  -5479446.5973   3208362.1218   2   7   0.5135   1.0065   0.6040   0.0554  -0.5862  -0.1793   0.00    1.0
2173 299626.000    541526.6751  -5479446.6838   3208362.1488   2   7   0.5135   1.0056   0.6040   0.0531  -0.5859  -0.1792   0.00    1.1
2173 299627.000    541526.7286  -5479446.6507   3208362.1535   2   7   0.5134   1.0050   0.6040   0.0517  -0.5858  -0.1792   0.00    1.0
2173 299628.000    541526.6441  -5479446.6729   3208362.2130   2   7   0.5134   1.0046   0.6040   0.0508  -0.5857  -0.1792   0.00    1.0
2173 299629.000    541526.5758  -5479446.7815   3208362.3008   2   7   0.5134   1.0043   0.6041   0.0502  -0.5856  -0.1792   0.00    1.0
2173 299630.000    541526.5300  -5479446.9505   3208362.3068   2   7   0.5133   1.0041   0.6041   0.0499  -0.5856  -0.1792   0.00    1.0
2173 299631.000    541526.6072  -5479446.7672   3208362.2826   2   7   0.5133   1.0039   0.6041   0.0496  -0.5855  -0.1793   0.00    1.0
2173 299632.000    541526.7477  -5479446.8444   3208362.3974   2   7   0.5133   1.0038   0.6041   0.0495  -0.5855  -0.1793   0.00    1.1
2173 299633.000    541526.7064  -5479446.8908   3208362.3228   2   7   0.5133   1.0036   0.6042   0.0494  -0.5855  -0.1794   0.00    1.0
2173 299634.000    541526.6610  -5479446.9983   3208362.2776   2   7   0.5132   1.0035   0.6042   0.0494  -0.5855  -0.1794   0.00    1.1
2173 299635.000    541526.5969  -5479446.9080   3208362.2348   2   7   0.5132   1.0034   0.6043   0.0494  -0.5855  -0.1795   0.00    1.0
2173 299636.000    541526.5770  -5479446.8234   3208362.2759   2   7   0.5132   1.0033   0.6043   0.0495  -0.5855  -0.1795   0.00    1.0
2173 299637.000    541526.7324  -5479446.6355   3208362.2013   2   7   0.5132   1.0032   0.6043   0.0496  -0.5855  -0.1796   0.00    1.1
2173 299638.000    541526.8285  -5479446.1098   3208362.1382   2   7   0.5132   1.0031   0.6044   0.0497  -0.5855  -0.1796   0.00    1.1
2173 299639.000    541526.8065  -5479446.0992   3208362.1155   2   7   0.5131   1.0031   0.6044   0.0498  -0.5856  -0.1797   0.00    1.1
2173 299640.000    541526.8267  -5479446.1761   3208362.2133   2   7   0.5131   1.0030   0.6045   0.0499  -0.5856  -0.1798   0.00    1.1
2173 299641.000    541526.7356  -5479446.4378   3208362.1963   2   7   0.5131   1.0029   0.6045   0.0501  -0.5856  -0.1798   0.00    1.0
2173 299642.000    541526.6985  -5479446.5644   3208362.2385   2   7   0.5131   1.0029   0.6046   0.0502  -0.5856  -0.1799   0.00    1.1
2173 299643.000    541526.7297  -5479446.4964   3208362.2053   2   7   0.5131   1.0028   0.6046   0.0504  -0.5856  -0.1799   0.00    1.0
2173 299644.000    541526.6292  -5479446.8449   3208362.3805   2   7   0.5130   1.0027   0.6046   0.0506  -0.5857  -0.1800   0.00    1.0
2173 299645.000    541526.6116  -5479446.7748   3208362.3730   2   7   0.5130   1.0027   0.6047   0.0508  -0.5857  -0.1801   0.00    1.1
2173 299646.000    541526.4505  -5479447.0164   3208362.5020   2   7   0.5130   1.0026   0.6047   0.0509  -0.5857  -0.1801   0.00    1.0
2173 299647.000    541526.5976  -5479446.7171   3208362.4380   2   7   0.5130   1.0026   0.6048   0.0511  -0.5857  -0.1802   0.00    1.0
2173 299648.000    541526.7073  -5479446.5573   3208362.4841   2   7   0.5130   1.0025   0.6048   0.0513  -0.5857  -0.1803   0.00    1.3
2173 299649.000    541526.7210  -5479446.3396   3208362.4539   2   7   0.5130   1.0025   0.6049   0.0515  -0.5858  -0.1803   0.00    1.1
2173 299650.000    541526.6620  -5479446.3951   3208362.4645   2   7   0.5129   1.0024   0.6049   0.0517  -0.5858  -0.1804   0.00    1.1
2173 299651.000    541526.6920  -5479446.3441   3208362.4829   2   7   0.5129   1.0024   0.6050   0.0519  -0.5858  -0.1804   0.00    1.1
2173 299652.000    541526.6811  -5479446.3582   3208362.4997   2   7   0.5129   1.0023   0.6050   0.0521  -0.5858  -0.1805   0.00    1.3
2173 299653.000    541526.7265  -5479446.2451   3208362.5044   2   7   0.5129   1.0023   0.6050   0.0523  -0.5859  -0.1806   0.00    1.2
2173 299654.000    541526.6428  -5479446.4726   3208362.5120   2   7   0.5129   1.0022   0.6051   0.0525  -0.5859  -0.1806   0.00    1.1
2173 299655.000    541526.8458  -5479446.3364   3208362.2947   2   7   0.5128   1.0022   0.6051   0.0527  -0.5859  -0.1807   0.00    1.2
2173 299656.000    541526.8980  -5479446.2279   3208362.3688   2   7   0.5128   1.0021   0.6052   0.0529  -0.5860  -0.1808   0.00    1.1
2173 299657.000    541526.8672  -5479446.1988   3208362.3640   2   7   0.5128   1.0021   0.6052   0.0531  -0.5860  -0.1808   0.00    1.2
2173 299658.000    541526.9530  -5479445.8667   3208362.3874   2   7   0.5367   1.1116   0.6062   0.2795  -0.5914  -0.1845   0.00    2.2
2173 299659.000    541526.7606  -5479446.5543   3208362.4850   2   8   0.5000   0.9516   0.6059  -0.1831  -0.5882  -0.1819   0.00    1.0
2173 299660.000    541526.7519  -5479446.7639   3208362.6375   2   8   0.4997   0.9428   0.6050  -0.1889  -0.5846  -0.1803   0.00    1.1
2173 299661.000    541526.7186  -5479446.8268   3208362.6032   2   8   0.4996   0.9396   0.6047  -0.1909  -0.5832  -0.1798   0.00    1.0
2173 299662.000    541526.7468  -5479446.8844   3208362.4912   2   8   0.4995   0.9379   0.6046  -0.1919  -0.5825  -0.1795   0.00    1.1
2173 299663.000    541526.7545  -5479446.6774   3208362.3832   2   8   0.4995   0.9368   0.6045  -0.1926  -0.5821  -0.1794   0.00    1.1
2173 299664.000    541526.8599  -5479446.5451   3208362.2803   2   8   0.4997   0.9454   0.6055  -0.1868  -0.5858  -0.1810   0.00    1.0
2173 299665.000    541526.8878  -5479446.3689   3208362.2325   2   8   0.4997   0.9452   0.6055  -0.1869  -0.5857  -0.1810   0.00    1.0
2173 299666.000    541526.9116  -5479446.2979   3208362.1421   2   8   0.4997   0.9450   0.6055  -0.1870  -0.5857  -0.1810   0.00    1.1
2173 299667.000    541526.9668  -5479446.4903   3208362.1841   2   8   0.4997   0.9448   0.6056  -0.1870  -0.5856  -0.1810   0.00    1.1
2173 299668.000    541526.9866  -5479446.5641   3208362.2310   2   8   0.4998   0.9511   0.6063  -0.1826  -0.5884  -0.1822   0.00    1.0
2173 299669.000    541527.0072  -5479446.6118   3208362.2423   2   8   0.4998   0.9511   0.6064  -0.1826  -0.5884  -0.1823   0.00    1.1
2173 299670.000    541527.0570  -5479446.5505   3208362.2540   2   8   0.4998   0.9510   0.6064  -0.1825  -0.5884  -0.1823   0.00    1.1
2173 299671.000    541527.0542  -5479446.4387   3208362.2356   2   8   0.4998   0.9510   0.6065  -0.1825  -0.5884  -0.1824   0.00    1.0
2173 299672.000    541527.0606  -5479446.3628   3208362.1354   2   8   0.4998   0.9509   0.6065  -0.1824  -0.5884  -0.1824   0.00    1.1
2173 299673.000    541526.9357  -5479446.6205   3208362.1717   2   8   0.4998   0.9509   0.6066  -0.1824  -0.5884  -0.1825   0.00    1.1
2173 299674.000    541526.9175  -5479446.6606   3208362.2700   2   8   0.4997   0.9508   0.6066  -0.1823  -0.5884  -0.1825   0.00    1.0
2173 299675.000    541526.8766  -5479446.8033   3208362.3199   2   8   0.4997   0.9507   0.6067  -0.1823  -0.5884  -0.1825   0.00    1.1
2173 299676.000    541526.8443  -5479446.9413   3208362.3731   2   8   0.4997   0.9507   0.6067  -0.1822  -0.5884  -0.1826   0.00    1.0
2173 299677.000    541526.9502  -5479446.7261   3208362.3316   2   8   0.4997   0.9506   0.6068  -0.1822  -0.5885  -0.1826   0.00    1.1
2173 299678.000    541526.8613  -5479446.6630   3208362.3283   2   8   0.4997   0.9506   0.6068  -0.1821  -0.5885  -0.1827   0.00    1.1
2173 299679.000    541526.9534  -5479446.3939   3208362.1852   2   8   0.4996   0.9505   0.6069  -0.1821  -0.5885  -0.1827   0.00    1.1
2173 299680.000    541527.0173  -5479446.2375   3208362.0622   2   8   0.4996   0.9505   0.6069  -0.1820  -0.5885  -0.1828   0.00    1.2
2173 299681.000    541526.9287  -5479446.3007   3208362.1252   2   8   0.4996   0.9504   0.6069  -0.1820  -0.5885  -0.1828   0.00    1.1
2173 299682.000    541526.9761  -5479446.0962   3208361.9714   2   8   0.4996   0.9504   0.6070  -0.1819  -0.5885  -0.1828   0.00    1.0
2173 299683.000    541526.9045  -5479446.0206   3208361.9768   2   8   0.4996   0.9503   0.6070  -0.1819  -0.5885  -0.1829   0.00    1.1
2173 299684.000    541526.9129  -5479446.0494   3208362.0620   2   8   0.4995   0.9503   0.6071  -0.1818  -0.5885  -0.1829   0.00    1.1
2173 299685.000    541526.9571  -5479445.8689   3208361.9720   2   8   0.4995   0.9502   0.6071  -0.1818  -0.5886  -0.1830   0.00    1.1
2173 299686.000    541527.0726  -5479445.5921   3208361.7973   2   8   0.4995   0.9502   0.6072  -0.1817  -0.5886  -0.1830   0.00    1.0
2173 299687.000    541527.0969  -5479445.3742   3208361.7785   2   8   0.4995   0.9501   0.6072  -0.1817  -0.5886  -0.1831   0.00    1.1
2173 299688.000    541527.0960  -5479445.4241   3208361.9711   2   8   0.4995   0.9501   0.6073  -0.1816  -0.5886  -0.1831   0.00    1.1
2173 299689.000    541527.0605  -5479445.4152   3208362.0452   2   8   0.4995   0.9500   0.6073  -0.1816  -0.5886  -0.1831   0.00    1.1
2173 299690.000    541527.0906  -5479445.2694   3208362.1268   2   8   0.4994   0.9500   0.6074  -0.1815  -0.5886  -0.1832   0.00    1.2
2173 299691.000    541527.0254  -5479445.2568   3208362.1191   2   8   0.4994   0.9499   0.6074  -0.1815  -0.5886  -0.1832   0.00    1.2
2173 299692.000    541526.9438  -5479445.0923   3208362.2218   2   8   0.4994   0.9499   0.6075  -0.1814  -0.5886  -0.1833   0.00    1.2
2173 299693.000    541526.9427  -5479445.1832   3208362.2209   2   8   0.4994   0.9498   0.6075  -0.1814  -0.5887  -0.1833   0.00    1.4
2173 299694.000    541526.9328  -5479445.0381   3208362.1300   2   8   0.4994   0.9498   0.6076  -0.1813  -0.5887  -0.1833   0.00    1.3
2173 299695.000    541526.9215  -5479444.9896   3208362.1411   2   8   0.4993   0.9497   0.6076  -0.1813  -0.5887  -0.1834   0.00    1.3
2173 299696.000    541526.9242  -5479444.8210   3208362.0733   2   8   0.4993   0.9497   0.6077  -0.1812  -0.5887  -0.1834   0.00    1.1
2173 299697.000    541526.9661  -5479444.7472   3208362.0670   2   8   0.4993   0.9496   0.6077  -0.1812  -0.5887  -0.1835   0.00    1.1
2173 299698.000    541527.0114  -5479444.5325   3208361.9887   2   8   0.4993   0.9496   0.6078  -0.1812  -0.5887  -0.1835   0.00    1.1
2173 299699.000    541526.9950  -5479444.5110   3208362.0287   2   8   0.4993   0.9495   0.6078  -0.1811  -0.5887  -0.1836   0.00    1.2
2173 299700.000    541526.9416  -5479444.5194   3208362.0424   2   8   0.4992   0.9495   0.6079  -0.1811  -0.5887  -0.1836   0.00    1.2
2173 299701.000    541526.9871  -5479444.4594   3208362.0373   2   8   0.4992   0.9494   0.6079  -0.1810  -0.5888  -0.1836   0.00    1.2
2173 299702.000    541526.9609  -5479444.6042   3208362.0760   2   8   0.4992   0.9494   0.6080  -0.1810  -0.5888  -0.1837   0.00    1.3
2173 299703.000    541526.9436  -5479444.6694   3208362.2408   2   8   0.4992   0.9493   0.6080  -0.1809  -0.5888  -0.1837   0.00    1.3
2173 299704.000    541526.9049  -5479444.6434   3208362.2589   2   8   0.4992   0.9493   0.6081  -0.1809  -0.5888  -0.1838   0.00    1.0
2173 299705.000    541526.9168  -5479444.6414   3208362.3612   2   8   0.4992   0.9492   0.6081  -0.1808  -0.5888  -0.1838   0.00    1.1
2173 299706.000    541526.9779  -5479444.4910   3208362.3463   2   8   0.4991   0.9492   0.6081  -0.1808  -0.5888  -0.1838   0.00    1.1
2173 299707.000    541527.0033  -5479444.4048   3208362.4070   2   8   0.4991   0.9491   0.6082  -0.1807  -0.5888  -0.1839   0.00    1.0
2173 299708.000    541527.0237  -5479444.2660   3208362.3347   2   8   0.4991   0.9491   0.6082  -0.1807  -0.5889  -0.1839   0.00    1.2
2173 299709.000    541527.0599  -5479444.1749   3208362.2162   2   8   0.4991   0.9490   0.6083  -0.1806  -0.5889  -0.1840   0.00    1.1
2173 299710.000    541527.0960  -5479444.0268   3208362.1758   2   8   0.4991   0.9490   0.6083  -0.1806  -0.5889  -0.1840   0.00    1.0
2173 299711.000    541527.2224  -5479443.8652   3208362.1168   2   8   0.4990   0.9489   0.6084  -0.1805  -0.5889  -0.1840   0.00    1.2
2173 299712.000    541527.2401  -5479443.7298   3208362.0790   2   8   0.4990   0.9489   0.6084  -0.1805  -0.5889  -0.1841   0.00    1.2
2173 299713.000    541527.2512  -5479443.7700   3208362.0588   2   8   0.4990   0.9488   0.6085  -0.1804  -0.5889  -0.1841   0.00    1.0
2173 299714.000    541527.3863  -5479443.6336   3208362.0124   2   8   0.4990   0.9488   0.6085  -0.1804  -0.5889  -0.1842   0.00    1.1
2173 299715.000    541527.4474  -5479443.6415   3208362.0460   2   8   0.4990   0.9487   0.6086  -0.1804  -0.5890  -0.1842   0.00    1.1
2173 299716.000    541527.3977  -5479443.6750   3208362.1737   2   8   0.4989   0.9487   0.6086  -0.1803  -0.5890  -0.1842   0.00    1.2
2173 299717.000    541527.4200  -5479443.8187   3208362.2647   2   8   0.4989   0.9486   0.6087  -0.1803  -0.5890  -0.1843   0.00    1.2
2173 299718.000    541527.4670  -5479443.7371   3208362.2275   2   8   0.4989   0.9486   0.6087  -0.1802  -0.5890  -0.1843   0.00    1.1
2173 299719.000    541527.3716  -5479443.7081   3208362.1843   2   8   0.4989   0.9485   0.6088  -0.1802  -0.5890  -0.1844   0.00    1.1
2173 299720.000    541527.3759  -5479443.7759   3208362.1233   2   8   0.4989   0.9485   0.6088  -0.1801  -0.5890  -0.1844   0.00    1.2
2173 299721.000    541527.3423  -5479443.8701   3208362.0711   2   8   0.4989   0.9484   0.6089  -0.1801  -0.5890  -0.1844   0.00    1.2
2173 299722.000    541527.3068  -5479443.9488   3208362.1131   2   8   0.4988   0.9484   0.6089  -0.1800  -0.5891  -0.1845   0.00    1.3
2173 299723.000    541527.2920  -5479444.1503   3208362.1745   2   8   0.4988   0.9483   0.6090  -0.1800  -0.5891  -0.1845   0.00    1.2
2173 299724.000    541527.2621  -5479444.0490   3208362.1075   2   8   0.4988   0.9483   0.6090  -0.1799  -0.5891  -0.1846   0.00    1.3
2173 299725.000    541527.2208  -5479444.0574   3208362.0604   2   8   0.4988   0.9482   0.6091  -0.1799  -0.5891  -0.1846   0.00    1.2
2173 299726.000    541527.2386  -5479444.0825   3208362.0087   2   8   0.4988   0.9482   0.6091  -0.1799  -0.5891  -0.1846   0.00    1.2
2173 299727.000    541527.3259  -5479443.9039   3208361.9615   2   8   0.4987   0.9481   0.6092  -0.1798  -0.5891  -0.1847   0.00    1.2
2173 299728.000    541527.3537  -5479443.8942   3208361.8117   2   8   0.4987   0.9481   0.6092  -0.1798  -0.5891  -0.1847   0.00    1.1
2173 299729.000    541527.3996  -5479443.9963   3208361.7974   2   8   0.4987   0.9481   0.6093  -0.1797  -0.5892  -0.1848   0.00    1.2
2173 299730.000    541527.4358  -5479443.9474   3208361.6489   2   8   0.4987   0.9480   0.6093  -0.1797  -0.5892  -0.1848   0.00    1.0
2173 299731.000    541527.5041  -5479444.1060   3208361.6110   2   8   0.4987   0.9480   0.6094  -0.1796  -0.5892  -0.1848   0.00    1.1
2173 299732.000    541527.5815  -5479444.1290   3208361.4955   2   8   0.4986   0.9479   0.6094  -0.1796  -0.5892  -0.1849   0.00    1.1
2173 299733.000    541527.5757  -5479444.2277   3208361.4961   2   8   0.4986   0.9479   0.6095  -0.1795  -0.5892  -0.1849   0.00    1.0
2173 299734.000    541527.5916  -5479444.3460   3208361.4989   2   8   0.4986   0.9478   0.6095  -0.1795  -0.5892  -0.1850   0.00    1.0
2173 299735.000    541527.5639  -5479444.5696   3208361.5194   2   8   0.4986   0.9478   0.6096  -0.1794  -0.5892  -0.1850   0.00    1.2
2173 299736.000    541527.5986  -5479444.6867   3208361.5980   2   8   0.4986   0.9477   0.6096  -0.1794  -0.5893  -0.1850   0.00    1.2
2173 299737.000    541527.5456  -5479445.0053   3208361.6911   2   8   0.4986   0.9477   0.6097  -0.1794  -0.5893  -0.1851   0.00    1.2
2173 299738.000    541527.5268  -5479445.0870   3208361.8552   2   8   0.4985   0.9476   0.6097  -0.1793  -0.5893  -0.1851   0.00    1.1
2173 299739.000    541527.5533  -5479444.9067   3208361.7438   2   8   0.4985   0.9476   0.6098  -0.1793  -0.5893  -0.1852   0.00    1.4
2173 299740.000    541527.6020  -5479444.7688   3208361.7094   2   8   0.4985   0.9475   0.6098  -0.1792  -0.5893  -0.1852   0.00    1.2
2173 299741.000    541527.6046  -5479444.4676   3208361.6060   2   8   0.4985   0.9475   0.6099  -0.1792  -0.5893  -0.1852   0.00    1.2
2173 299742.000    541527.6194  -5479444.3816   3208361.6928   2   8   0.4985   0.9474   0.6099  -0.1791  -0.5893  -0.1853   0.00    1.1
2173 299743.000    541527.7137  -5479444.1996   3208361.6029   2   8   0.4984   0.9474   0.6100  -0.1791  -0.5894  -0.1853   0.00    1.3
2173 299744.000    541527.6530  -5479444.0995   3208361.6298   2   8   0.4984   0.9473   0.6100  -0.1790  -0.5894  -0.1854   0.00    1.3
2173 299745.000    541527.6748  -5479443.9860   3208361.6064   2   8   0.4984   0.9473   0.6101  -0.1790  -0.5894  -0.1854   0.00    1.6
2173 299746.000    541527.7111  -5479444.0573   3208361.6484   2   8   0.4984   0.9473   0.6101  -0.1790  -0.5894  -0.1854   0.00    1.2
2173 299747.000    541527.6954  -5479444.2476   3208361.6388   2   8   0.4984   0.9472   0.6102  -0.1789  -0.5894  -0.1855   0.00    1.3
2173 299748.000    541527.6725  -5479444.2320   3208361.5433   2   8   0.4983   0.9472   0.6102  -0.1789  -0.5894  -0.1855   0.00    1.3
2173 299749.000    541527.7324  -5479444.1968   3208361.5456   2   8   0.4983   0.9471   0.6103  -0.1788  -0.5895  -0.1856   0.00    1.4
2173 299750.000    541527.6883  -5479444.3717   3208361.5888   2   8   0.4983   0.9471   0.6103  -0.1788  -0.5895  -0.1856   0.00    1.4
2173 299751.000    541527.6942  -5479444.4621   3208361.6192   2   8   0.4983   0.9470   0.6104  -0.1787  -0.5895  -0.1856   0.00    1.7
2173 299752.000    541527.7127  -5479444.2658   3208361.5550   2   8   0.4983   0.9470   0.6104  -0.1787  -0.5895  -0.1857   0.00    1.5
2173 299753.000    541527.7072  -5479444.2585   3208361.5461   2   8   0.4983   0.9469   0.6105  -0.1787  -0.5895  -0.1857   0.00    1.7
2173 299754.000    541527.6275  -5479444.4149   3208361.5871   2   8   0.4982   0.9469   0.6105  -0.1786  -0.5895  -0.1858   0.00    1.5
2173 299755.000    541527.5978  -5479444.2279   3208361.5197   2   8   0.4982   0.9468   0.6106  -0.1786  -0.5896  -0.1858   0.00    1.4
2173 299756.000    541527.4866  -5479444.2179   3208361.4552   2   8   0.4982   0.9468   0.6106  -0.1785  -0.5896  -0.1858   0.00    1.5
2173 299757.000    541527.4129  -5479443.9641   3208361.3457   2   8   0.4982   0.9467   0.6107  -0.1785  -0.5896  -0.1859   0.00    1.4
2173 299758.000    541527.3832  -5479443.7621   3208361.3430   2   8   0.4982   0.9467   0.6107  -0.1784  -0.5896  -0.1859   0.00    1.3
2173 299759.000    541527.3500  -5479443.5674   3208361.2753   2   8   0.4981   0.9467   0.6108  -0.1784  -0.5896  -0.1859   0.00    1.4
2173 299760.000    541527.2731  -5479443.7855   3208361.4187   2   8   0.4981   0.9466   0.6108  -0.1783  -0.5896  -0.1860   0.00    1.4
2173 299761.000    541527.2685  -5479444.0330   3208361.5657   2   8   0.4981   0.9466   0.6109  -0.1783  -0.5897  -0.1860   0.00    1.3
2173 299762.000    541527.2715  -5479444.0964   3208361.5070   2   8   0.4981   0.9465   0.6109  -0.1783  -0.5897  -0.1861   0.00    1.4
2173 299763.000    541527.2974  -5479444.1032   3208361.4754   2   8   0.4981   0.9465   0.6110  -0.1782  -0.5897  -0.1861   0.00    1.8
2173 299764.000    541527.5169  -5479444.0472   3208361.2896   2   8   0.4980   0.9464   0.6110  -0.1782  -0.5897  -0.1861   0.00    1.5
2173 299765.000    541527.5366  -5479443.7980   3208361.1033   2   8   0.4980   0.9464   0.6111  -0.1781  -0.5897  -0.1862   0.00    1.8
2173 299766.000    541527.4983  -5479443.9574   3208361.0696   2   8   0.4980   0.9463   0.6111  -0.1781  -0.5897  -0.1862   0.00    1.7
2173 299767.000    541527.4505  -5479443.9597   3208361.0674   2   8   0.4980   0.9463   0.6112  -0.1780  -0.5897  -0.1863   0.00    1.7
2173 299768.000    541527.5300  -5479444.3265   3208361.1563   2   8   0.4980   0.9462   0.6112  -0.1780  -0.5898  -0.1863   0.00    1.6
2173 299769.000    541527.5824  -5479444.4698   3208361.0098   2   8   0.4980   0.9462   0.6113  -0.1780  -0.5898  -0.1863   0.00    1.8
2173 299770.000    541527.5310  -5479444.4927   3208360.9926   2   8   0.4979   0.9462   0.6113  -0.1779  -0.5898  -0.1864   0.00    1.8
2173 299771.000    541527.5399  -5479444.3526   3208361.0392   2   8   0.4979   0.9461   0.6114  -0.1779  -0.5898  -0.1864   0.00    1.8
2173 299772.000    541527.5811  -5479444.3603   3208360.9894   2   8   0.4979   0.9461   0.6114  -0.1778  -0.5898  -0.1864   0.00    1.8
2173 299773.000    541527.5469  -5479444.2954   3208360.9304   2   8   0.4979   0.9460   0.6115  -0.1778  -0.5898  -0.1865   0.00    1.6
2173 299774.000    541527.5301  -5479444.3852   3208361.0845   2   8   0.4979   0.9460   0.6115  -0.1778  -0.5899  -0.1865   0.00    1.6
2173 299775.000    541527.4556  -5479444.5257   3208361.2255   2   8   0.4978   0.9459   0.6116  -0.1777  -0.5899  -0.1866   0.00    1.7
2173 299776.000    541527.3951  -5479444.2903   3208361.1760   2   8   0.4978   0.9459   0.6116  -0.1777  -0.5899  -0.1866   0.00    1.6
2173 299777.000    541527.3639  -5479444.1605   3208361.1523   2   8   0.4978   0.9458   0.6117  -0.1776  -0.5899  -0.1866   0.00    1.5
2173 299778.000    541527.3653  -5479444.1415   3208361.0503   2   8   0.4978   0.9458   0.6117  -0.1776  -0.5899  -0.1867   0.00    1.4
2173 299779.000    541527.4684  -5479444.0562   3208361.1058   2   8   0.4978   0.9458   0.6118  -0.1775  -0.5900  -0.1867   0.00    1.1
2173 299780.000    541527.4246  -5479443.8105   3208361.0933   2   8   0.4977   0.9457   0.6118  -0.1775  -0.5900  -0.1867   0.00    1.5
2173 299781.000    541527.3337  -5479443.7369   3208361.2302   2   8   0.4977   0.9457   0.6119  -0.1775  -0.5900  -0.1868   0.00    1.6
2173 299782.000    541527.3918  -5479443.5723   3208361.1446   2   8   0.4977   0.9456   0.6119  -0.1774  -0.5900  -0.1868   0.00    1.5
2173 299783.000    541527.4481  -5479443.3530   3208361.1574   2   8   0.4977   0.9456   0.6120  -0.1774  -0.5900  -0.1869   0.00    1.5
2173 299784.000    541527.3602  -5479443.4594   3208361.2295   2   8   0.4977   0.9455   0.6120  -0.1773  -0.5900  -0.1869   0.00    1.5
2173 299785.000    541527.4312  -5479443.1558   3208360.9848   2   8   0.4977   0.9455   0.6121  -0.1773  -0.5901  -0.1869   0.00    1.4
2173 299786.000    541527.3006  -5479443.1627   3208360.8293   2   8   0.4976   0.9455   0.6121  -0.1773  -0.5901  -0.1870   0.00    1.2
2173 299787.000    541527.1665  -5479442.9590   3208360.5463   2   8   0.4976   0.9454   0.6122  -0.1772  -0.5901  -0.1870   0.00    1.2
2173 299788.000    541527.1598  -5479443.0111   3208360.6139   2   8   0.4976   0.9454   0.6122  -0.1772  -0.5901  -0.1870   0.00    1.3
2173 299789.000    541527.1644  -5479443.1362   3208360.7271   2   8   0.4976   0.9453   0.6123  -0.1771  -0.5901  -0.1871   0.00    1.2
2173 299790.000    541527.1702  -5479443.3878   3208361.0205   2   8   0.4976   0.9453   0.6123  -0.1771  -0.5901  -0.1871   0.00    1.2
2173 299791.000    541527.1916  -5479443.5241   3208361.3107   2   8   0.4975   0.9452   0.6124  -0.1770  -0.5902  -0.1872   0.00    1.0
2173 299792.000    541527.2242  -5479443.4753   3208361.3903   2   8   0.4975   0.9452   0.6124  -0.1770  -0.5902  -0.1872   0.00    1.1
2173 299793.000    541527.2256  -5479443.6544   3208361.4177   2   8   0.4975   0.9451   0.6125  -0.1770  -0.5902  -0.1872   0.00    1.2
2173 299794.000    541527.2081  -5479443.5887   3208361.4129   2   8   0.4975   0.9451   0.6125  -0.1769  -0.5902  -0.1873   0.00    1.1
2173 299795.000    541527.1430  -5479443.7693   3208361.4872   2   8   0.4975   0.9451   0.6126  -0.1769  -0.5902  -0.1873   0.00    1.4
2173 299796.000    541527.1282  -5479443.6104   3208361.4451   2   8   0.4974   0.9450   0.6126  -0.1768  -0.5903  -0.1873   0.00    1.1
2173 299797.000    541527.0380  -5479443.5718   3208361.3546   2   8   0.4974   0.9450   0.6127  -0.1768  -0.5903  -0.1874   0.00    1.1
2173 299798.000    541527.1269  -5479443.4872   3208361.4354   2   8   0.4974   0.9449   0.6127  -0.1768  -0.5903  -0.1874   0.00    1.0
2173 299799.000    541527.0907  -5479443.7789   3208361.5410   2   8   0.4974   0.9449   0.6128  -0.1767  -0.5903  -0.1875   0.00    1.0
2173 299800.000    541527.1599  -5479443.6253   3208361.3048   2   8   0.4974   0.9449   0.6129  -0.1767  -0.5903  -0.1875   0.00    1.0
2173 299801.000    541527.1075  -5479444.0677   3208361.4962   2   8   0.4974   0.9448   0.6129  -0.1766  -0.5903  -0.1875   0.00    1.4
2173 299802.000    541527.1360  -5479444.0844   3208361.5178   2   8   0.4973   0.9448   0.6130  -0.1766  -0.5904  -0.1876   0.00    1.6
2173 299803.000    541527.1478  -5479444.2153   3208361.5321   2   8   0.4973   0.9447   0.6130  -0.1766  -0.5904  -0.1876   0.00    1.4
2173 299804.000    541527.2236  -5479444.1108   3208361.5312   2   8   0.4973   0.9447   0.6131  -0.1765  -0.5904  -0.1876   0.00    1.6
2173 299805.000    541527.1280  -5479444.1485   3208361.4378   2   8   0.4973   0.9446   0.6131  -0.1765  -0.5904  -0.1877   0.00    1.5
2173 299806.000    541527.0599  -5479443.7693   3208361.1426   2   8   0.4973   0.9446   0.6132  -0.1764  -0.5904  -0.1877   0.00    1.5
2173 299807.000    541526.9168  -5479443.7995   3208360.9942   2   8   0.4972   0.9446   0.6132  -0.1764  -0.5905  -0.1878   0.00    1.2
2173 299808.000    541526.8599  -5479443.6966   3208360.8199   2   8   0.4972   0.9445   0.6133  -0.1764  -0.5905  -0.1878   0.00    1.0
2173 299809.000    541526.7257  -5479443.5794   3208360.6821   2   8   0.4972   0.9445   0.6133  -0.1763  -0.5905  -0.1878   0.00    1.0
2173 299810.000    541526.5305  -5479443.7251   3208360.5940   2   8   0.4972   0.9444   0.6134  -0.1763  -0.5905  -0.1879   0.00    1.0
2173 299811.000    541526.2637  -5479443.8861   3208360.5634   2   8   0.4972   0.9444   0.6134  -0.1762  -0.5905  -0.1879   0.00    1.1
2173 299812.000    541526.0923  -5479443.7152   3208360.3186   2   8   0.4971   0.9443   0.6135  -0.1762  -0.5905  -0.1879   0.00    1.1
2173 299813.000    541526.1622  -5479443.5352   3208360.1602   2   8   0.4971   0.9443   0.6135  -0.1762  -0.5906  -0.1880   0.00    1.2
2173 299814.000    541526.2708  -5479443.4524   3208360.1922   2   8   0.4971   0.9443   0.6136  -0.1761  -0.5906  -0.1880   0.00    1.3
2173 299815.000    541526.3470  -5479443.2959   3208360.1362   2   8   0.4971   0.9442   0.6136  -0.1761  -0.5906  -0.1880   0.00    1.3
2173 299816.000    541526.3968  -5479443.5324   3208360.1901   2   8   0.4971   0.9442   0.6137  -0.1761  -0.5906  -0.1881   0.00    1.2
2173 299817.000    541526.4673  -5479443.5782   3208360.2353   2   8   0.4971   0.9441   0.6137  -0.1760  -0.5906  -0.1881   0.00    1.2
2173 299818.000    541526.3621  -5479443.6745   3208360.2694   2   8   0.4970   0.9441   0.6138  -0.1760  -0.5907  -0.1882   0.00    1.1
2173 299819.000    541526.3529  -5479443.8433   3208360.3184   2   8   0.4970   0.9441   0.6138  -0.1759  -0.5907  -0.1882   0.00    1.0
2173 299820.000    541526.2103  -5479443.8814   3208360.1908   2   8   0.4970   0.9440   0.6139  -0.1759  -0.5907  -0.1882   0.00    1.1
2173 299821.000    541526.2108  -5479443.8383   3208360.1218   2   8   0.4970   0.9440   0.6139  -0.1759  -0.5907  -0.1883   0.00    1.0
2173 299822.000    541526.4030  -5479443.4241   3208360.0643   2   8   0.4970   0.9439   0.6140  -0.1758  -0.5907  -0.1883   0.00    1.1
2173 299823.000    541526.4871  -5479443.0342   3208359.9104   2   8   0.4969   0.9439   0.6140  -0.1758  -0.5908  -0.1883   0.00    1.0
2173 299824.000    541526.3153  -5479443.3850   3208360.1594   2   8   0.4969   0.9439   0.6141  -0.1757  -0.5908  -0.1884   0.00    1.1
2173 299825.000    541526.2163  -5479443.6032   3208360.2869   2   8   0.4969   0.9438   0.6141  -0.1757  -0.5908  -0.1884   0.00    1.1
2173 299826.000    541526.2860  -5479443.6328   3208360.3884   2   8   0.4969   0.9438   0.6142  -0.1757  -0.5908  -0.1884   0.00    1.1
2173 299827.000    541526.4979  -5479443.6967   3208360.5457   2   8   0.4969   0.9437   0.6143  -0.1756  -0.5908  -0.1885   0.00    1.3
2173 299828.000    541526.7076  -5479443.8508   3208360.7692   2   8   0.4968   0.9437   0.6143  -0.1756  -0.5909  -0.1885   0.00    1.3
2173 299829.000    541527.3700  -5479444.8796   3208361.8857   2   7   0.5345   0.9997   0.7145  -0.3094  -0.6852   0.1907   0.00    1.9
2173 299830.000    541527.2681  -5479445.1647   3208361.8740   2   7   0.5345   0.9997   0.7146  -0.3095  -0.6852   0.1907   0.00    1.7
2173 299831.000    541527.2588  -5479444.9927   3208361.7639   2   7   0.5345   0.9997   0.7147  -0.3095  -0.6853   0.1908   0.00    1.9
2173 299832.000    541527.1531  -5479445.4902   3208361.9283   2   7   0.5345   0.9996   0.7148  -0.3095  -0.6853   0.1908   0.00    1.4
2173 299833.000    541527.9469  -5479446.8840   3208363.6254   2   8   0.4968   0.9435   0.6146  -0.1754  -0.5910  -0.1887   0.00    1.3
2173 299834.000    541527.9005  -5479446.7687   3208363.5407   2   8   0.4967   0.9435   0.6146  -0.1754  -0.5910  -0.1887   0.00    2.3
2173 299835.000    541527.8127  -5479446.5014   3208363.2351   2   8   0.4967   0.9434   0.6147  -0.1753  -0.5910  -0.1888   0.00    1.8
2173 299836.000    541527.5501  -5479446.5159   3208363.0341   2   8   0.4967   0.9434   0.6147  -0.1753  -0.5910  -0.1888   0.00    2.4
2173 299837.000    541527.3469  -5479446.5203   3208362.8166   2   8   0.4967   0.9433   0.6148  -0.1753  -0.5910  -0.1888   0.00    2.8
2173 299838.000    541527.1838  -5479446.4987   3208362.8090   2   8   0.4967   0.9433   0.6148  -0.1752  -0.5911  -0.1889   0.00    1.5
2173 299839.000    541527.0406  -5479446.5207   3208362.4713   2   8   0.4966   0.9433   0.6149  -0.1752  -0.5911  -0.1889   0.00    1.4
2173 299840.000    541527.0353  -5479446.1714   3208362.0924   2   8   0.4966   0.9432   0.6149  -0.1751  -0.5911  -0.1889   0.00    1.2
2173 299841.000    541527.1164  -5479445.8768   3208361.8968   2   8   0.4966   0.9432   0.6150  -0.1751  -0.5911  -0.1890   0.00    1.0
2173 299842.000    541526.9150  -5479445.9671   3208361.7861   2   8   0.4966   0.9431   0.6150  -0.1751  -0.5911  -0.1890   0.00    1.3
2173 299843.000    541526.9188  -5479445.7829   3208361.5430   2   8   0.4966   0.9431   0.6151  -0.1750  -0.5912  -0.1890   0.00    1.2
2173 299844.000    541526.9550  -5479445.6607   3208361.6489   2   8   0.4965   0.9431   0.6151  -0.1750  -0.5912  -0.1891   0.00    1.3
2173 299845.000    541526.9706  -5479445.6527   3208361.7342   2   8   0.4965   0.9430   0.6152  -0.1750  -0.5912  -0.1891   0.00    1.1
2173 299846.000    541526.9494  -5479445.6529   3208361.7995   2   8   0.4965   0.9430   0.6153  -0.1749  -0.5912  -0.1891   0.00    1.3
2173 299847.000    541527.0792  -5479445.4917   3208361.8611   2   8   0.4965   0.9429   0.6153  -0.1749  -0.5912  -0.1892   0.00    1.2
2173 299848.000    541527.1383  -5479445.4342   3208361.8778   2   8   0.4965   0.9429   0.6154  -0.1748  -0.5913  -0.1892   0.00    1.2
2173 299849.000    541527.2198  -5479445.2959   3208361.9913   2   8   0.4965   0.9429   0.6154  -0.1748  -0.5913  -0.1892   0.00    1.2
2173 299850.000    541527.2457  -5479445.2912   3208362.0673   2   8   0.4964   0.9428   0.6155  -0.1748  -0.5913  -0.1893   0.00    1.2
2173 299851.000    541527.4082  -5479445.0436   3208361.9786   2   8   0.4964   0.9428   0.6155  -0.1747  -0.5913  -0.1893   0.00    1.2
2173 299852.000    541527.3647  -5479444.9565   3208361.9321   2   8   0.4964   0.9427   0.6156  -0.1747  -0.5913  -0.1894   0.00    1.3
2173 299853.000    541527.3515  -5479444.7986   3208361.8110   2   8   0.4964   0.9427   0.6156  -0.1747  -0.5914  -0.1894   0.00    1.2
2173 299854.000    541527.3407  -5479444.6838   3208361.9693   2   8   0.4964   0.9427   0.6157  -0.1746  -0.5914  -0.1894   0.00    1.3
2173 299855.000    541527.3314  -5479444.6185   3208361.9575   2   8   0.4963   0.9426   0.6157  -0.1746  -0.5914  -0.1895   0.00    1.1
2173 299856.000    541527.1935  -5479444.9831   3208362.0746   2   8   0.4963   0.9426   0.6158  -0.1746  -0.5914  -0.1895   0.00    1.1
2173 299857.000    541527.1270  -5479445.1157   3208362.1282   2   8   0.4963   0.9426   0.6158  -0.1745  -0.5914  -0.1895   0.00    1.1
2173 299858.000    541527.0855  -5479445.1029   3208361.9873   2   8   0.4963   0.9425   0.6159  -0.1745  -0.5915  -0.1896   0.00    1.1
2173 299859.000    541527.1731  -5479444.7761   3208361.9102   2   8   0.4963   0.9425   0.6159  -0.1744  -0.5915  -0.1896   0.00    1.0
2173 299860.000    541527.1777  -5479444.7990   3208361.9764   2   8   0.4962   0.9424   0.6160  -0.1744  -0.5915  -0.1896   0.00    1.0
2173 299861.000    541527.2126  -5479444.6693   3208361.8622   2   8   0.4962   0.9424   0.6161  -0.1744  -0.5915  -0.1897   0.00    1.0
2173 299862.000    541527.2053  -5479444.5193   3208361.8750   2   8   0.4962   0.9424   0.6161  -0.1743  -0.5915  -0.1897   0.00    1.3
2173 299863.000    541527.2558  -5479444.4343   3208361.8451   2   8   0.4962   0.9423   0.6162  -0.1743  -0.5916  -0.1897   0.00    1.0
2173 299864.000    541527.3387  -5479444.0952   3208361.8051   2   8   0.4962   0.9423   0.6162  -0.1743  -0.5916  -0.1898   0.00    1.2
2173 299865.000    541527.2144  -5479443.9153   3208361.8017   2   8   0.4962   0.9423   0.6163  -0.1742  -0.5916  -0.1898   0.00    1.0
2173 299866.000    541527.0618  -5479444.2704   3208361.8545   2   8   0.4961   0.9422   0.6163  -0.1742  -0.5916  -0.1898   0.00    1.0
2173 299867.000    541527.0387  -5479444.2505   3208361.7867   2   8   0.4961   0.9422   0.6164  -0.1742  -0.5917  -0.1899   0.00    1.0
2173 299868.000    541526.9581  -5479444.3610   3208361.8029   2   8   0.4961   0.9421   0.6164  -0.1741  -0.5917  -0.1899   0.00    1.1
2173 299869.000    541526.9436  -5479444.4967   3208361.7633   2   8   0.4961   0.9421   0.6165  -0.1741  -0.5917  -0.1899   0.00    1.0
2173 299870.000    541527.0658  -5479444.1074   3208361.5746   2   8   0.4961   0.9421   0.6165  -0.1741  -0.5917  -0.1900   0.00    1.0
2173 299871.000    541527.0299  -5479444.3704   3208361.5245   2   8   0.4960   0.9420   0.6166  -0.1740  -0.5917  -0.1900   0.00    1.0
2173 299872.000    541527.1207  -5479444.1705   3208361.6114   2   8   0.4960   0.9420   0.6166  -0.1740  -0.5918  -0.1900   0.00    1.0
2173 299873.000    541527.2938  -5479443.7802   3208361.5754   2   8   0.4960   0.9420   0.6167  -0.1740  -0.5918  -0.1901   0.00    1.2
2173 299874.000    541527.3211  -5479443.8646   3208361.5898   2   8   0.4960   0.9419   0.6168  -0.1739  -0.5918  -0.1901   0.00    1.1
2173 299875.000    541527.2560  -5479444.0846   3208361.6528   2   8   0.4960   0.9419   0.6168  -0.1739  -0.5918  -0.1901   0.00    1.1
2173 299876.000    541527.2176  -5479444.2278   3208361.7107   2   8   0.4960   0.9418   0.6169  -0.1738  -0.5918  -0.1902   0.00    1.0
2173 299877.000    541527.0485  -5479444.7265   3208361.8216   2   8   0.4959   0.9418   0.6169  -0.1738  -0.5919  -0.1902   0.00    1.0
2173 299878.000    541527.0861  -5479444.7078   3208361.8463   2   8   0.4959   0.9418   0.6170  -0.1738  -0.5919  -0.1902   0.00    1.0
2173 299879.000    541527.1304  -5479444.7147   3208361.7954   2   8   0.4959   0.9417   0.6170  -0.1737  -0.5919  -0.1903   0.00    1.1
2173 299880.000    541527.0223  -5479445.0316   3208361.8606   2   8   0.4959   0.9417   0.6171  -0.1737  -0.5919  -0.1903   0.00    1.0
2173 299881.000    541527.0919  -5479445.0067   3208361.8452   2   8   0.4959   0.9417   0.6171  -0.1737  -0.5920  -0.1903   0.00    1.1
2173 299882.000    541527.0583  -5479445.0975   3208361.8565   2   8   0.4958   0.9416   0.6172  -0.1736  -0.5920  -0.1904   0.00    1.1
2173 299883.000    541527.0433  -5479445.1762   3208361.7039   2   8   0.4958   0.9416   0.6172  -0.1736  -0.5920  -0.1904   0.00    1.1
2173 299884.000    541527.0237  -5479445.2085   3208361.6834   2   8   0.4958   0.9416   0.6173  -0.1736  -0.5920  -0.1904   0.00    1.0
2173 299885.000    541526.9689  -5479445.3550   3208361.7777   2   8   0.4958   0.9415   0.6173  -0.1735  -0.5920  -0.1905   0.00    1.0
2173 299886.000    541526.9328  -5479445.3461   3208361.8531   2   8   0.4958   0.9415   0.6174  -0.1735  -0.5921  -0.1905   0.00    1.1
2173 299887.000    541526.9536  -5479445.0040   3208361.8233   2   8   0.4957   0.9414   0.6175  -0.1735  -0.5921  -0.1905   0.00    1.1
2173 299888.000    541526.9669  -5479445.0050   3208361.9104   2   8   0.4957   0.9414   0.6175  -0.1734  -0.5921  -0.1906   0.00    1.0
2173 299889.000    541527.0769  -5479444.8227   3208361.8046   2   8   0.4957   0.9414   0.6176  -0.1734  -0.5921  -0.1906   0.00    1.1
2173 299890.000    541527.0666  -5479444.8859   3208361.8923   2   8   0.4957   0.9413   0.6176  -0.1734  -0.5922  -0.1906   0.00    1.0
2173 299891.000    541527.1732  -5479444.6823   3208361.8585   2   8   0.4957   0.9413   0.6177  -0.1733  -0.5922  -0.1907   0.00    1.0
2173 299892.000    541527.2042  -5479444.6469   3208361.8515   2   8   0.4957   0.9413   0.6177  -0.1733  -0.5922  -0.1907   0.00    1.0
2173 299893.000    541527.3358  -5479444.4985   3208361.8061   2   8   0.4956   0.9412   0.6178  -0.1733  -0.5922  -0.1907   0.00    1.0
2173 299894.000    541527.4408  -5479444.1985   3208361.7907   2   8   0.4956   0.9412   0.6178  -0.1732  -0.5922  -0.1908   0.00    1.0
2173 299895.000    541527.4213  -5479444.3320   3208361.8008   2   8   0.4956   0.9412   0.6179  -0.1732  -0.5923  -0.1908   0.00    1.0
2173 299896.000    541527.3920  -5479444.4094   3208361.8111   2   8   0.4956   0.9411   0.6179  -0.1732  -0.5923  -0.1908   0.00    1.0
2173 299897.000    541527.2959  -5479444.5669   3208361.8125   2   8   0.4956   0.9411   0.6180  -0.1731  -0.5923  -0.1909   0.00    1.1
2173 299898.000    541527.3105  -5479444.6915   3208361.8677   2   8   0.4955   0.9411   0.6181  -0.1731  -0.5923  -0.1909   0.00    1.0
2173 299899.000    541527.3293  -5479444.6818   3208361.8694   2   8   0.4955   0.9410   0.6181  -0.1731  -0.5924  -0.1909   0.00    1.1
2173 299900.000    541527.3617  -5479444.4612   3208361.6261   2   8   0.4955   0.9410   0.6182  -0.1730  -0.5924  -0.1910   0.00    1.0
2173 299901.000    541527.3690  -5479444.5545   3208361.6574   2   8   0.4955   0.9410   0.6182  -0.1730  -0.5924  -0.1910   0.00    1.0
2173 299902.000    541527.3782  -5479444.6527   3208361.7240   2   8   0.4955   0.9409   0.6183  -0.1730  -0.5924  -0.1910   0.00    1.0
2173 299903.000    541527.4052  -5479444.7761   3208361.6947   2   8   0.4954   0.9409   0.6183  -0.1729  -0.5925  -0.1911   0.00    1.0
2173 299904.000    541527.3960  -5479444.8767   3208361.7961   2   8   0.4954   0.9408   0.6184  -0.1729  -0.5925  -0.1911   0.00    1.0
2173 299905.000    541527.4160  -5479444.8026   3208361.7161   2   8   0.4954   0.9408   0.6184  -0.1729  -0.5925  -0.1911   0.00    1.0
2173 299906.000    541527.4061  -5479445.0393   3208361.7358   2   8   0.4954   0.9408   0.6185  -0.1728  -0.5925  -0.1912   0.00    1.0
2173 299907.000    541527.4230  -5479445.1518   3208361.7824   2   8   0.4954   0.9407   0.6185  -0.1728  -0.5925  -0.1912   0.00    1.0
2173 299908.000    541527.5127  -5479445.0201   3208361.7346   2   8   0.4954   0.9407   0.6186  -0.1728  -0.5926  -0.1912   0.00    1.1
2173 299909.000    541527.5119  -5479444.8218   3208361.6854   2   8   0.4953   0.9407   0.6187  -0.1727  -0.5926  -0.1913   0.00    1.0
2173 299910.000    541527.4349  -5479444.7913   3208361.6039   2   8   0.4953   0.9406   0.6187  -0.1727  -0.5926  -0.1913   0.00    1.0
2173 299911.000    541527.3981  -5479444.9543   3208361.6454   2   8   0.4953   0.9406   0.6188  -0.1727  -0.5926  -0.1913   0.00    1.0
2173 299912.000    541527.4276  -5479444.9598   3208361.6768   2   8   0.4953   0.9406   0.6188  -0.1726  -0.5927  -0.1914   0.00    1.0
2173 299913.000    541527.4207  -5479444.8107   3208361.6246   2   8   0.4953   0.9405   0.6189  -0.1726  -0.5927  -0.1914   0.00    1.1
2173 299914.000    541527.3189  -5479445.0527   3208361.5754   2   8   0.4952   0.9405   0.6189  -0.1726  -0.5927  -0.1914   0.00    1.0
2173 299915.000    541527.4743  -5479444.7498   3208361.4555   2   8   0.4952   0.9405   0.6190  -0.1726  -0.5927  -0.1914   0.00    1.1
2173 299916.000    541527.4452  -5479444.8503   3208361.4023   2   8   0.4952   0.9404   0.6190  -0.1725  -0.5928  -0.1915   0.00    1.1
2173 299917.000    541527.5102  -5479444.6981   3208361.4357   2   8   0.4952   0.9404   0.6191  -0.1725  -0.5928  -0.1915   0.00    1.2
2173 299918.000    541527.6527  -5479444.2608   3208361.3314   2   8   0.4952   0.9404   0.6191  -0.1725  -0.5928  -0.1915   0.00    1.1
2173 299919.000    541527.6169  -5479444.4956   3208361.4353   2   8   0.4952   0.9403   0.6192  -0.1724  -0.5928  -0.1916   0.00    1.1
2173 299920.000    541527.6953  -5479444.4949   3208361.3685   2   8   0.4951   0.9403   0.6193  -0.1724  -0.5929  -0.1916   0.00    1.1
2173 299921.000    541527.5685  -5479444.7993   3208361.4717   2   8   0.4951   0.9403   0.6193  -0.1724  -0.5929  -0.1916   0.00    1.2
2173 299922.000    541527.6839  -5479444.8737   3208361.6002   2   8   0.4951   0.9402   0.6194  -0.1723  -0.5929  -0.1917   0.00    1.2
2173 299923.000    541527.6054  -5479445.0106   3208361.6319   2   8   0.4951   0.9402   0.6194  -0.1723  -0.5929  -0.1917   0.00    1.1
2173 299924.000    541527.5779  -5479445.0197   3208361.6201   2   8   0.4951   0.9402   0.6195  -0.1723  -0.5930  -0.1917   0.00    1.1
2173 299925.000    541527.4616  -5479445.0870   3208361.5365   2   8   0.4950   0.9401   0.6195  -0.1722  -0.5930  -0.1918   0.00    1.2
2173 299926.000    541527.4486  -5479445.2018   3208361.5025   2   8   0.4950   0.9401   0.6196  -0.1722  -0.5930  -0.1918   0.00    1.1
2173 299927.000    541527.4509  -5479445.1659   3208361.5496   2   8   0.4950   0.9401   0.6196  -0.1722  -0.5930  -0.1918   0.00    1.1
2173 299928.000    541527.4674  -5479445.2143   3208361.6607   2   8   0.4950   0.9400   0.6197  -0.1721  -0.5930  -0.1919   0.00    1.2
2173 299929.000    541527.4584  -5479445.1468   3208361.6747   2   8   0.4950   0.9400   0.6198  -0.1721  -0.5931  -0.1919   0.00    1.1
2173 299930.000    541527.4553  -5479445.2475   3208361.7293   2   8   0.4949   0.9400   0.6198  -0.1721  -0.5931  -0.1919   0.00    1.2
2173 299931.000    541527.4937  -5479445.4152   3208361.6909   2   8   0.4949   0.9399   0.6199  -0.1721  -0.5931  -0.1920   0.00    1.1
2173 299932.000    541527.4952  -5479445.3381   3208361.7198   2   8   0.4949   0.9399   0.6199  -0.1720  -0.5931  -0.1920   0.00    1.2
2173 299933.000    541527.5007  -5479445.2429   3208361.7905   2   8   0.4949   0.9399   0.6200  -0.1720  -0.5932  -0.1920   0.00    1.1
2173 299934.000    541527.5010  -5479445.1450   3208361.8516   2   8   0.4949   0.9398   0.6200  -0.1720  -0.5932  -0.1921   0.00    1.3
2173 299935.000    541527.5456  -5479444.9618   3208361.7285   2   8   0.4949   0.9398   0.6201  -0.1719  -0.5932  -0.1921   0.00    1.2
2173 299936.000    541527.5513  -5479444.5745   3208361.5951   2   8   0.4948   0.9398   0.6201  -0.1719  -0.5932  -0.1921   0.00    1.4
2173 299937.000    541527.4824  -5479444.6569   3208361.6388   2   8   0.4948   0.9397   0.6202  -0.1719  -0.5933  -0.1921   0.00    1.3
2173 299938.000    541527.4984  -5479444.5242   3208361.6313   2   8   0.4948   0.9397   0.6203  -0.1718  -0.5933  -0.1922   0.00    1.5
2173 299939.000    541527.4576  -5479444.3643   3208361.6212   2   8   0.4948   0.9397   0.6203  -0.1718  -0.5933  -0.1922   0.00    1.6
2173 299940.000    541527.5227  -5479444.2330   3208361.5972   2   8   0.4948   0.9396   0.6204  -0.1718  -0.5933  -0.1922   0.00    1.5
2173 299941.000    541527.5251  -5479444.3077   3208361.5785   2   8   0.4947   0.9396   0.6204  -0.1718  -0.5934  -0.1923   0.00    1.6
2173 299942.000    541527.5488  -5479444.2924   3208361.5380   2   8   0.4947   0.9396   0.6205  -0.1717  -0.5934  -0.1923   0.00    1.5
2173 299943.000    541527.5841  -5479444.4889   3208361.5613   2   8   0.4947   0.9396   0.6205  -0.1717  -0.5934  -0.1923   0.00    1.6
2173 299944.000    541527.5771  -5479444.4751   3208361.6207   2   8   0.4947   0.9395   0.6206  -0.1717  -0.5934  -0.1924   0.00    1.5
2173 299945.000    541527.6408  -5479444.5928   3208361.6626   2   8   0.4947   0.9395   0.6207  -0.1716  -0.5935  -0.1924   0.00    1.7
2173 299946.000    541527.7129  -5479444.7267   3208361.7422   2   8   0.4947   0.9395   0.6207  -0.1716  -0.5935  -0.1924   0.00    1.5
2173 299947.000    541527.7203  -5479444.7003   3208361.8277   2   8   0.4946   0.9394   0.6208  -0.1716  -0.5935  -0.1925   0.00    1.6
2173 299948.000    541527.7824  -5479444.6202   3208361.8148   2   8   0.4946   0.9394   0.6208  -0.1715  -0.5935  -0.1925   0.00    1.6
2173 299949.000    541527.7009  -5479444.8112   3208361.8809   2   8   0.4946   0.9394   0.6209  -0.1715  -0.5936  -0.1925   0.00    1.6
2173 299950.000    541527.7161  -5479444.8181   3208361.9672   2   8   0.4946   0.9393   0.6209  -0.1715  -0.5936  -0.1925   0.00    1.7
2173 299951.000    541527.6631  -5479444.8018   3208361.9066   2   8   0.4946   0.9393   0.6210  -0.1715  -0.5936  -0.1926   0.00    1.7
2173 299952.000    541527.6940  -5479444.7018   3208361.8430   2   8   0.4945   0.9393   0.6210  -0.1714  -0.5936  -0.1926   0.00    1.7
2173 299953.000    541527.7663  -5479444.3641   3208361.6755   2   8   0.4945   0.9392   0.6211  -0.1714  -0.5937  -0.1926   0.00    1.7
2173 299954.000    541527.8318  -5479444.1620   3208361.5548   2   8   0.4945   0.9392   0.6212  -0.1714  -0.5937  -0.1927   0.00    1.7
2173 299955.000    541527.9525  -5479444.1054   3208361.5207   2   8   0.4945   0.9392   0.6212  -0.1713  -0.5937  -0.1927   0.00    1.7
2173 299956.000    541528.0484  -5479443.8229   3208361.4011   2   8   0.4945   0.9391   0.6213  -0.1713  -0.5937  -0.1927   0.00    1.7
2173 299957.000    541528.1369  -5479443.7349   3208361.3715   2   8   0.4944   0.9391   0.6213  -0.1713  -0.5938  -0.1928   0.00    1.8
2173 299958.000    541528.1843  -5479443.7613   3208361.3656   2   8   0.4944   0.9391   0.6214  -0.1713  -0.5938  -0.1928   0.00    1.7
2173 299959.000    541528.1748  -5479443.7838   3208361.4216   2   8   0.4944   0.9391   0.6214  -0.1712  -0.5938  -0.1928   0.00    1.8
2173 299960.000    541528.1809  -5479443.6021   3208361.4370   2   8   0.4944   0.9390   0.6215  -0.1712  -0.5939  -0.1928   0.00    1.7
2173 299961.000    541528.1485  -5479443.5251   3208361.4924   2   8   0.4944   0.9390   0.6215  -0.1712  -0.5939  -0.1929   0.00    1.7
2173 299962.000    541528.0513  -5479443.7504   3208361.6186   2   8   0.4944   0.9390   0.6216  -0.1711  -0.5939  -0.1929   0.00    1.9
2173 299963.000    541527.9254  -5479444.0347   3208361.6419   2   8   0.4943   0.9389   0.6217  -0.1711  -0.5939  -0.1929   0.00    1.7
2173 299964.000    541527.8329  -5479444.0448   3208361.5357   2   8   0.4943   0.9389   0.6217  -0.1711  -0.5940  -0.1930   0.00    1.7
2173 299965.000    541527.8573  -5479444.1029   3208361.5509   2   8   0.4943   0.9389   0.6218  -0.1711  -0.5940  -0.1930   0.00    1.8
2173 299966.000    541527.8373  -5479444.0558   3208361.4983   2   8   0.4943   0.9388   0.6218  -0.1710  -0.5940  -0.1930   0.00    1.9
2173 299967.000    541527.9684  -5479444.2176   3208361.6103   2   8   0.4943   0.9388   0.6219  -0.1710  -0.5940  -0.1931   0.00    1.9
2173 299968.000    541527.9478  -5479444.3672   3208361.5627   2   8   0.4942   0.9388   0.6219  -0.1710  -0.5941  -0.1931   0.00    1.8
2173 299969.000    541527.9320  -5479444.5210   3208361.5748   2   8   0.4942   0.9388   0.6220  -0.1709  -0.5941  -0.1931   0.00    1.7
2173 299970.000    541527.9562  -5479444.3904   3208361.6494   2   8   0.4942   0.9387   0.6221  -0.1709  -0.5941  -0.1931   0.00    1.9
2173 299971.000    541527.9861  -5479444.2386   3208361.5127   2   8   0.4942   0.9387   0.6221  -0.1709  -0.5941  -0.1932   0.00    1.7
2173 299972.000    541527.9482  -5479444.4585   3208361.5796   2   8   0.4942   0.9387   0.6222  -0.1709  -0.5942  -0.1932   0.00    1.8
2173 299973.000    541528.0610  -5479444.3245   3208361.6273   2   8   0.4941   0.9386   0.6222  -0.1708  -0.5942  -0.1932   0.00    1.8
2173 299974.000    541528.0154  -5479444.4943   3208361.7504   2   8   0.4941   0.9386   0.6223  -0.1708  -0.5942  -0.1933   0.00    1.8
2173 299975.000    541527.8677  -5479444.7635   3208361.7904   2   8   0.4941   0.9386   0.6223  -0.1708  -0.5942  -0.1933   0.00    1.7
2173 299976.000    541527.8695  -5479444.5894   3208361.6860   2   8   0.4941   0.9385   0.6224  -0.1708  -0.5943  -0.1933   0.00    1.6
2173 299977.000    541527.9949  -5479444.0993   3208361.5590   2   8   0.4941   0.9385   0.6225  -0.1707  -0.5943  -0.1934   0.00    1.7
2173 299978.000    541528.0067  -5479444.3729   3208361.5765   2   8   0.4941   0.9385   0.6225  -0.1707  -0.5943  -0.1934   0.00    1.7
2173 299979.000    541528.0462  -5479444.2762   3208361.5414   2   8   0.4940   0.9385   0.6226  -0.1707  -0.5943  -0.1934   0.00    1.6
