     2.11           OBSERVATION DATA    M (MIXED)           RINEX VERSION / TYPE
CONVBIN 2.4.3                           20210902 201913 UTC PGM / RUN BY / DATE 
log: logs/21_09_01_11_12_51_talh_SW.rtcm                    COMMENT             
format: RTCM 3, station ID: 462                             COMMENT             
0462                                                        MARKER NAME         
                                                            MARKER NUMBER       
                                                            OBSERVER / AGENCY   
                    SWFT                                    REC # / TYPE / VERS 
                    NULL                                    ANT # / TYPE        
   546420.2590 -5528946.1897  3122095.9476                  APPROX POSITION XYZ 
        0.0000        0.0000        0.0000                  ANTENNA: DELTA H/E/N
     1     1                                                WAVELENGTH FACT L1/2
     5    C1    L1    P2    L2    C2                        # / TYPES OF OBSERV 
  2021     9     1    11    12   56.0000000     GPS         TIME OF FIRST OBS   
  2021     9     1    11    42   54.0000000     GPS         TIME OF LAST OBS    
                                                            END OF HEADER       
 21  9  1 11 12 56.0000000  0 12G 1G 2G 6G14G17G19G22G24G30E13E26E27
  24322682.784   127816509.906    24322686.286    99597266.731                  
  23664915.060   124359988.086    23664913.077    96903892.125                  
  20950225.287   110094139.805    20950228.093    85787631.508                  
  20550458.219   107993398.359    20550458.397    84150705.016                  
  21380468.975   112355137.472    21380468.314    87549460.878                  
  20957510.113   110132482.817    20957507.718    85817525.508                  
  24683678.021   129713620.399    24683675.984   101075553.309                  
  24048363.100   126374969.074    24048365.477    98473993.864                  
  23572641.713   123875022.121    23572644.268    96525979.680                  
  23895805.048   125573265.194                                                  
  23532146.987   123662237.317                                                  
  25454254.334   133762990.070                                                  
 21  9  1 11 12 57.0000000  0 12G 1G 2G 6G14G17G19G22G24G30E13E26E27
  24323386.895   127820210.043    24323390.397    99600149.953                  
  23664383.528   124357194.878    23664381.545    96901715.602                  
  20949884.686   110092349.988    20949887.527    85786236.843                  
  20550620.791   107994252.750    20550620.988    84151370.773                  
  21380592.968   112355789.043    21380592.307    87549968.598                  
  20957417.140   110131994.161    20957414.746    85817144.735                  
  24684049.947   129715574.856    24684047.892   101077076.258                  
  24048084.397   126373504.511    24048086.792    98472852.648                  
  23573291.949   123878439.093    23573294.486    96528642.255                  
  23896100.995   125574820.499                                                  
  23531960.559   123661257.634                                                  
  25454668.538   133765166.747                                                  
 21  9  1 11 12 58.0000000  0 12G 1G 2G 6G14G17G19G22G24G30E13E26E27
  24324091.024   127823910.227    24324094.526    99603033.215                  
  23663852.068   124354401.976    23663850.084    96899539.316                  
  20949544.191   110090560.685    20949547.015    85784842.581                  
  20550783.489   107995107.622    20550783.667    84152036.907                  
  21380716.979   112356440.687    21380716.318    87550476.370                  
  20957324.185   110131505.692    20957321.773    85816764.110                  
  24684421.962   129717529.786    24684419.907   101078599.582                  
  24047805.819   126372040.474    24047808.196    98471711.835                  
  23573942.185   123881856.129    23573944.722    96531304.878                  
  23896396.995   125576376.021                                                  
  23531774.203   123660278.288                                                  
  25455082.796   133767343.702                                                  
 21  9  1 11 12 59.0000000  0 12G 1G 2G 6G14G17G19G22G24G30E13E26E27
  24324795.135   127827610.437    24324798.655    99605916.492                  
  23663320.643   124351609.387    23663318.660    96897363.274                  
  20949203.804   110088771.889    20949206.628    85783448.719                  
  20550946.240   107995962.976    20550946.418    84152703.421                  
  21380840.972   112357092.381    21380840.329    87550984.188                  
  20957231.284   110131017.406    20957228.854    85816383.629                  
  24684794.067   129719485.188    24684791.994   101080123.274                  
  24047527.313   126370576.977    24047529.707    98470571.450                  
  23574592.438   123885273.218    23574594.976    96533967.547                  
  23896693.067   125577931.742                                                  
  23531587.883   123659299.271                                                  
  25455497.125   133769520.922                                                  
 21  9  1 11 13  0.0000000  0 12G 1G 2G 6G14G17G19G22G24G30E13E26E27
  24325499.281   127831310.695    24325502.784    99608799.809                  
  23662789.272   124348817.110    23662787.306    96895187.473                  
  20948863.507   110086983.613    20948866.312    85782055.254                  
  20551109.098   107996818.840    20551109.294    84153370.324                  
  21380965.019   112357744.146    21380964.358    87551492.050                  
  20957138.401   110130529.313    20957135.989    85816003.297                  
  24685166.243   129721441.044    24685164.206   101081647.314                  
  24047248.913   126369114.004    24047251.308    98469431.472                  
  23575242.692   123888690.374    23575245.247    96536630.266                  
  23896989.139   125579487.669                                                  
  23531401.652   123658320.579                                                  
  25455911.472   133771698.409                                                  
 21  9  1 11 13  1.0000000  0 16G 1G 2G 6G14G17G19G22G24G30C23C27C28
                                C33E13E26E27
  24326203.428   127835010.981    24326206.912    99611683.149                  
  23662258.008   124346025.141    23662256.025    96893011.910                  
  20948523.298   110085195.865    20948526.122    85780662.199                  
  20551272.063   107997675.170    20551272.242    84154037.597                  
  21381089.066   112358395.969    21381088.387    87551999.969                  
  20957045.536   110130041.411    20957043.141    85815623.114                  
  24685538.526   129723397.368    24685536.471   101083171.724                  
  24046970.639   126367651.569    24046973.015    98468291.914                  
  23575892.982   123892107.595    23575895.519    96539293.031                  
                 122814082.423                   122814082.423    23585145.240  
                 122469522.559                   122469522.559    23518983.467  
                 115184222.605                   115184222.605    22119917.182  
                 134022431.127                   134022431.127    25737633.076  
  23897285.264   125581043.804                                                  
  23531215.474   123657342.214                                                  
  25456325.908   133773876.169                                                  
 21  9  1 11 13  2.0000000  0 16G 1G 2G 6G14G17G19G22G24G30C23C27C28
                                C33E13E26E27
  24326907.575   127838711.303    24326911.077    99614566.515                  
  23661726.762   124343233.497    23661724.778    96890836.601                  
  20948183.197   110083408.621    20948186.021    85779269.547                  
  20551435.118   107998531.991    20551435.297    84154705.249                  
  21381213.095   112359047.848    21381212.433    87552507.926                  
  20956952.742   110129553.700    20956950.348    85815243.077                  
  24685910.899   129725354.155    24685908.844   101084696.493                  
  24046692.436   126366189.671    24046694.813    98467152.773                  
  23576543.253   123895524.866    23576545.808    96541955.844                  
                 122816813.675                   122816813.675    23585669.732  
                 122468095.674                   122468095.674    23518709.463  
                 115184902.808                   115184902.808    22120047.822  
                 134020437.696                   134020437.696    25737250.268  
  23897581.426   125582600.147                                                  
  23531029.369   123656364.192                                                  
  25456740.362   133776054.199                                                  
 21  9  1 11 13  3.0000000  0 16G 1G 2G 6G14G17G19G22G24G30C23C27C28
                                C33E13E26E27
  24327611.721   127842411.669    24327615.242    99617449.914                  
  23661195.587   124340442.153    23661193.604    96888661.530                  
  20947843.203   110081621.897    20947846.027    85777877.296                  
  20551598.262   107999389.308    20551598.441    84155373.288                  
  21381337.159   112359699.789    21381336.498    87553015.934                  
  20956859.966   110129066.171    20956857.554    85814863.186                  
  24686283.343   129727311.414    24686281.288   101086221.628                  
  24046414.358   126364728.310    24046416.735    98466014.047                  
  23577193.561   123898942.207    23577196.098    96544618.703                  
                 122819545.224                   122819545.224    23586194.295  
                 122466668.997                   122466668.997    23518435.478  
                 115185583.177                   115185583.177    22120178.480  
                 134018444.421                   134018444.421    25736867.478  
  23897877.623   125584156.699                                                  
  23530843.316   123655386.480                                                  
  25457154.888   133778232.504                                                  
 21  9  1 11 13  4.0000000  0 16G 1G 2G 6G14G17G19G22G24G30C23C27C28
                                C33E13E26E27
  24328315.904   127846112.070    24328319.406    99620333.344                  
  23660664.466   124337651.102    23660662.483    96886486.688                  
  20947503.299   110079835.696    20947506.122    85776485.449                  
  20551761.478   108000247.103    20551761.657    84156041.695                  
  21381461.242   112360351.788    21381460.563    87553523.983                  
  20956767.226   110128578.832    20956764.813    85814483.442                  
  24686655.876   129729269.140    24686653.839   101087747.124                  
  24046136.352   126363267.468    24046138.747    98464875.731                  
  23577843.886   123902359.610    23577846.405    96547281.614                  
                 122822277.055                   122822277.055    23586718.911  
                 122465242.522                   122465242.522    23518161.546  
                 115186263.712                   115186263.712    22120309.156  
                 134016451.301                   134016451.301    25736484.723  
  23898173.855   125585713.456                                                  
  23530657.318   123654409.101                                                  
  25457569.449   133780411.077                                                  
 21  9  1 11 13  5.0000000  0 16G 1G 2G 6G14G17G19G22G24G30C23C27C28
                                C33E13E26E27
  24329020.068   127849812.512    24329023.589    99623216.805                  
  23660133.417   124334860.374    23660131.416    96884312.095                  
  20947163.484   110078050.007    20947166.325    85775094.003                  
  20551924.819   108001105.388    20551924.998    84156710.491                  
  21381585.324   112361003.854    21381584.663    87554032.085                  
  20956674.521   110128091.688    20956672.127    85814103.849                  
  24687028.517   129731227.336    24687026.462   101089272.993                  
  24045858.489   126361807.163    24045860.865    98463737.832                  
  23578494.193   123905777.063    23578496.713    96549944.562                  
                 122825009.180                   122825009.180    23587243.599  
                 122463816.258                   122463816.258    23517887.631  
                 115186944.415                   115186944.415    22120439.886  
                 134014458.340                   134014458.340    25736101.987  
  23898470.141   125587270.422                                                  
  23530471.408   123653432.067                                                  
  25457984.082   133782589.925                                                  
 21  9  1 11 13  6.0000000  0 16G 1G 2G 6G14G17G19G22G24G30C23C27C28
                                C33E13E26E27
  24329724.233   127853512.981    24329727.735    99626100.285                  
  23659602.421   124332069.966    23659600.420    96882137.751                  
  20946823.776   110076264.821    20946826.599    85773702.949                  
  20552088.249   108001964.151    20552088.428    84157379.660                  
  21381709.407   112361655.965    21381708.745    87554540.225                  
  20956581.853   110127604.707    20956579.458    85813724.383                  
  24687401.247   129733185.992    24687399.174   101090799.219                  
  24045580.697   126360347.387    24045583.074    98462600.343                  
  23579144.536   123909194.610    23579147.056    96552607.590                  
                 122827741.592                   122827741.592    23587768.341  
                 122462390.199                   122462390.199    23517613.789  
                 115187625.285                   115187625.285    22120570.634  
                 134012465.531                   134012465.531    25735719.304  
  23898766.463   125588827.587                                                  
  23530285.535   123652455.351                                                  
  25458398.732   133784769.032                                                  
 21  9  1 11 13  7.0000000  0 16G 1G 2G 6G14G17G19G22G24G30C23C27C28
                                C33E13E26E27
  24330428.415   127857213.482    24330431.918    99628983.790                  
  23659071.479   124329279.852    23659069.477    96879963.638                  
  20946484.157   110074480.169    20946486.998    85772312.309                  
  20552251.733   108002823.414    20552251.911    84158049.215                  
  21381833.525   112362308.138    21381832.864    87555048.414                  
  20956489.220   110127117.917    20956486.825    85813345.067                  
  24687774.066   129735145.121    24687771.993   101092325.813                  
  24045302.994   126358888.147    24045305.389    98461463.274                  
  23579794.879   123912612.206    23579797.417    96555270.652                  
                 122830474.296                   122830474.296    23588293.119  
                 122460964.347                   122460964.347    23517339.964  
                 115188306.320                   115188306.320    22120701.417  
                 134010472.888                   134010472.888    25735336.621  
  23899062.821   125590384.969                                                  
  23530099.733   123651478.957                                                  
  25458813.455   133786948.409                                                  
 21  9  1 11 13  8.0000000  0 16G 1G 2G 6G14G17G19G22G24G30C23C27C28
                                C33E13E26E27
  24331132.616   127860914.027    24331136.118    99631867.331                  
  23658540.608   124326490.054    23658538.607    96877789.769                  
  20946144.663   110072696.039    20946147.487    85770922.077                  
  20552415.341   108003683.169    20552415.538    84158719.151                  
  21381957.625   112362960.369    21381956.964    87555556.644                  
  20956396.640   110126631.350    20956394.228    85812965.926                  
  24688146.939   129737104.696    24688144.902   101093852.754                  
  24045025.417   126357429.453    24045027.794    98460326.629                  
  23580445.222   123916029.820    23580447.760    96557933.726                  
                 122833207.293                   122833207.293    23588817.968  
                 122459538.699                   122459538.699    23517066.175  
                 115188987.526                   115188987.526    22120832.236  
                 134008480.395                   134008480.395    25734953.973  
  23899359.215   125591942.551                                                  
  23529914.002   123650502.910                                                  
  25459228.248   133789128.082                                                  
 21  9  1 11 13  9.0000000  0 16G 1G 2G 6G14G17G19G22G24G30C23C27C28
                                C33E13E26E27
  24331836.798   127864614.598    24331840.318    99634750.895                  
  23658009.755   124323700.567    23658007.772    96875616.141                  
  20945805.241   110070912.422    20945808.083    85769532.246                  
  20552579.039   108004543.402    20552579.218    84159389.466                  
  21382081.761   112363612.650    21382081.100    87556064.915                  
  20956304.079   110126144.948    20956301.666    85812586.911                  
  24688519.937   129739064.746    24688517.882   101095380.066                  
  24044747.947   126355971.285    24044750.323    98459190.394                  
  23581095.601   123919447.522    23581098.121    96560596.871                  
                 122835940.575                   122835940.575    23589342.852  
                 122458113.257                   122458113.257    23516792.439  
                 115189668.899                   115189668.899    22120963.091  
                 134006488.063                   134006488.063    25734571.380  
  23899655.662   125593500.352                                                  
  23529728.325   123649527.197                                                  
  25459643.060   133791308.010                                                  
 21  9  1 11 13 10.0000000  0 17G 1G 2G 3G 6G14G17G19G22G24G30C23C27
                                C28C33E13E26E27
  24332541.016   127868315.210    24332544.519    99637634.487                  
  23657478.991   124320911.398    23657477.026    96873442.762                  
  23292759.689   122404247.847    23292762.315    95379925.110                  
  20945465.944   110069129.314    20945468.768    85768142.813                  
  20552742.845   108005404.132    20552743.024    84160060.159                  
  21382205.880   112364264.989    21382205.218    87556573.231                  
  20956211.553   110125658.745    20956209.140    85812208.052                  
  24688893.006   129741025.266    24688890.951   101096907.741                  
  24044470.566   126354513.647    24044472.943    98458054.575                  
  23581745.980   123922865.301    23581748.517    96563260.075                  
                 122838674.148                   122838674.148    23589867.826  
                 122456688.018                   122456688.018    23516518.721  
                 115190350.437                   115190350.437    22121093.982  
                 134004495.887                   134004495.887    25734188.804  
  23899952.145   125595058.351                                                  
  23529542.719   123648551.804                                                  
  25460057.943   133793488.212                                                  
 21  9  1 11 13 11.0000000  0 17G 1G 2G 3G 6G14G17G19G22G24G30C23C27
                                C28C33E13E26E27
  24333245.217   127872015.864    24333248.737    99640518.113                  
  23656948.299   124318122.530    23656946.316    96871269.621                  
  23292859.702   122404773.495    23292862.346    95380334.708                  
  20945126.719   110067346.721    20945129.542    85766753.780                  
  20552906.722   108006265.343    20552906.900    84160731.235                  
  21382330.034   112364917.393    21382329.372    87557081.598                  
  20956119.063   110125172.721    20956116.668    85811829.332                  
  24689266.183   129742986.258    24689264.128   101098435.785                  
  24044193.292   126353056.556    24044195.687    98456919.176                  
  23582396.359   123926283.115    23582398.896    96565923.302                  
                 122841408.011                   122841408.011    23590392.818  
                 122455262.989                   122455262.989    23516245.057  
                 115191032.143                   115191032.143    22121224.872  
                 134002503.866                   134002503.866    25733806.264  
  23900248.663   125596616.558                                                  
  23529357.168   123647576.742                                                  
  25460472.879   133795668.689                                                  
 21  9  1 11 13 12.0000000  0 17G 1G 2G 3G 6G14G17G19G22G24G30C23C27
                                C28C33E13E26E27
  24333949.435   127875716.550    24333952.955    99643401.767                  
  23656417.661   124315333.977    23656415.677    96869096.722                  
  23292959.840   122405299.753    23292962.484    95380744.777                  
  20944787.600   110065564.648    20944790.442    85765365.157                  
  20553070.706   108007127.035    20553070.884    84161402.683                  
  21382454.205   112365569.868    21382453.544    87557590.020                  
  20956026.626   110124686.888    20956024.196    85811450.758                  
  24689639.413   129744947.699    24689637.358   101099964.183                  
  24043916.126   126351599.990    24043918.503    98455784.192                  
  23583046.756   123929700.996    23583049.293    96568586.586                  
                 122844142.160                   122844142.160    23590917.899  
                 122453838.164                   122453838.164    23515971.447  
                 115191714.019                   115191714.019    22121355.835  
                 134000512.008                   134000512.008    25733423.742  
  23900545.217   125598174.961                                                  
  23529171.687   123646602.006                                                  
  25460887.852   133797849.427                                                  
 21  9  1 11 13 13.0000000  0 17G 1G 2G 3G 6G14G17G19G22G24G30C23C27
                                C28C33E13E26E27
  24334653.653   127879417.262    24334657.173    99646285.434                  
  23655887.076   124312545.734    23655885.075    96866924.066                  
  23293060.103   122405826.625    23293062.747    95381155.329                  
  20944448.572   110063783.095    20944451.413    85763976.931                  
  20553234.761   108007989.223    20553234.940    84162074.520                  
  21382578.377   112366222.401    21382577.716    87558098.485                  
  20955934.208   110124201.234    20955931.795    85811072.329                  
  24690012.769   129746909.609    24690010.696   101101492.946                  
  24043639.049   126350143.957    24043641.426    98454649.621                  
  23583697.188   123933118.927    23583699.725    96571249.911                  
                 122846876.602                   122846876.602    23591443.016  
                 122452413.547                   122452413.547    23515697.854  
                 115192396.060                   115192396.060    22121486.814  
                 133998520.303                   133998520.303    25733041.255  
  23900841.808   125599733.584                                                  
  23528986.260   123645627.605                                                  
  25461302.895   133800030.429                                                  
 21  9  1 11 13 14.0000000  0 17G 1G 2G 3G 6G14G17G19G22G24G30C23C27
                                C28C33E13E26E27
  24335357.907   127883118.027    24335361.392    99649169.149                  
  23655356.545   124309757.809    23655354.561    96864751.656                  
  23293160.473   122406354.118    23293163.118    95381566.360                  
  20944109.668   110062002.055    20944112.509    85762589.110                  
  20553398.924   108008851.898    20553399.103    84162746.735                  
  21382702.567   112366874.996    21382701.906    87558607.003                  
  20955841.825   110123715.773    20955839.412    85810694.048                  
  24690386.178   129748871.984    24690384.141   101103022.067                  
  24043362.061   126348688.462    24043364.456    98453515.469                  
  23584347.603   123936536.923    23584350.140    96573913.282                  
                 122849611.332                   122849611.332    23591968.205  
                 122450989.132                   122450989.132    23515424.315  
                 115193078.267                   115193078.267    22121617.812  
                 133996528.762                   133996528.762    25732658.805  
  23901138.433   125601292.408                                                  
  23528800.905   123644653.527                                                  
  25461717.975   133802211.722                                                  
 21  9  1 11 13 15.0000000  0 17G 1G 2G 3G 6G14G17G19G22G24G30C23C27
                                C28C33E13E26E27
  24336062.143   127886818.812    24336065.645    99652052.876                  
  23654826.085   124306970.191    23654824.101    96862579.489                  
  23293260.986   122406882.219    23293263.613    95381977.867                  
  20943770.835   110060221.531    20943773.659    85761201.684                  
  20553563.176   108009715.060    20553563.355    84163419.324                  
  21382826.757   112367527.656    21382826.095    87559115.566                  
  20955749.478   110123230.501    20955747.065    85810315.911                  
  24690759.694   129750834.822    24690757.657   101104551.546                  
  24043085.199   126347233.507    24043087.575    98452381.738                  
  23584998.035   123939954.974    23585000.572    96576576.698                  
                 122852346.350                   122852346.350    23592493.411  
                 122449564.926                   122449564.926    23515150.812  
                 115193760.639                   115193760.639    22121748.864  
                 133994537.374                   133994537.374    25732276.372  
  23901435.113   125602851.442                                                  
  23528615.603   123643679.780                                                  
  25462133.126   133804393.270                                                  
 21  9  1 11 13 16.0000000  0 17G 1G 2G 3G 6G14G17G19G22G24G30C23C27
                                C28C33E13E26E27
  24336766.379   127890519.630    24336769.882    99654936.630                  
  23654295.679   124304182.882    23654293.677    96860407.560                  
  23293361.607   122407410.933    23293364.216    95382389.852                  
  20943432.128   110058441.527    20943434.933    85759814.673                  
  20553727.517   108010578.703    20553727.696    84164092.297                  
  21382950.964   112368180.374    21382950.303    87559624.180                  
  20955657.166   110122745.410    20955654.754    85809937.923                  
  24691133.299   129752798.126    24691131.262   101106081.394                  
  24042808.425   126345779.062    24042810.820    98451248.407                  
  23585648.485   123943373.087    23585651.023    96579240.163                  
                 122855081.659                   122855081.659    23593018.725  
                 122448140.923                   122448140.923    23514877.344  
                 115194443.183                   115194443.183    22121879.933  
                 133992546.144                   133992546.144    25731893.975  
  23901731.828   125604410.679                                                  
  23528430.355   123642706.368                                                  
  25462548.295   133806575.086                                                  
 21  9  1 11 13 17.0000000  0 17G 1G 2G 3G 6G14G17G19G22G24G30C23C27
                                C28C33E13E26E27
  24337470.633   127894220.480    24337474.135    99657820.396                  
  23653765.326   124301395.907    23653763.343    96858235.891                  
  23293462.316   122407940.273    23293464.961    95382802.329                  
  20943093.492   110056662.040    20943096.315    85758428.050                  
  20553891.966   108011442.848    20553892.145    84164765.653                  
  21383075.172   112368833.180    21383074.529    87560132.872                  
  20955564.873   110122260.539    20955562.478    85809560.108                  
  24691506.994   129754761.882    24691504.957   101107611.582                  
  24042531.759   126344325.087    24042534.136    98450115.396                  
  23586298.936   123946791.253    23586301.473    96581903.664                  
                 122857817.259                   122857817.259    23593544.056  
                 122446717.130                   122446717.130    23514603.913  
                 115195125.890                   115195125.890    22122011.038  
                 133990555.074                   133990555.074    25731511.613  
  23902028.579   125605970.042                                                  
  23528245.196   123641733.372                                                  
  25462963.535   133808757.183                                                  
 21  9  1 11 13 18.0000000  0 17G 1G 2G 3G 6G14G17G19G22G24G30C23C27
                                C28C33E13E26E27
  24338174.887   127897921.380    24338178.407    99660704.211                  
  23653235.045   124298609.234    23653233.061    96856064.458                  
  23293563.151   122408470.234    23293565.796    95383215.286                  
  20942754.963   110054883.077    20942757.805    85757041.847                  
  20554056.504   108012307.481    20554056.683    84165439.390                  
  21383199.415   112369486.030    21383198.754    87560641.586                  
  20955472.669   110121775.833    20955470.238    85809182.415                  
  24691880.778   129756726.117    24691878.741   101109142.157                  
  24042255.200   126342871.725    24042257.577    98448982.906                  
  23586949.404   123950209.483    23586951.941    96584567.218                  
                 122860553.143                   122860553.143    23594069.459  
                 122445293.540                   122445293.540    23514330.534  
                 115195808.766                   115195808.766    22122142.179  
                 133988564.163                   133988564.163    25731129.288  
  23902325.383   125607529.707                                                  
  23528060.073   123640760.626                                                  
  25463378.811   133810939.555                                                  
 21  9  1 11 13 19.0000000  0 17G 1G 2G 3G 6G14G17G19G22G24G30C23C27
                                C28C33E13E26E27
  24338879.159   127901622.309    24338882.661    99663588.055                  
  23652704.817   124295822.867    23652702.816    96853893.269                  
  23293664.111   122409000.797    23293666.756    95383628.712                  
  20942416.542   110053104.625    20942419.365    85755656.048                  
  20554221.113   108013172.582    20554221.292    84166113.504                  
  21383323.658   112370138.933    21383322.997    87561150.344                  
  20955380.447   110121291.312    20955378.034    85808804.871                  
  24692254.652   129758690.821    24692252.597   101110673.098                  
  24041978.713   126341418.894    24041981.125    98447850.837                  
  23587599.872   123953627.772    23587602.427    96587230.825                  
                 122863289.321                   122863289.321    23594594.898  
                 122443870.151                   122443870.151    23514057.192  
                 115196491.807                   115196491.807    22122273.355  
                 133986573.410                   133986573.410    25730746.980  
  23902622.205   125609089.563                                                  
  23527875.039   123639788.208                                                  
  25463794.159   133813122.186                                                  
 21  9  1 11 13 20.0000000  0 17G 1G 2G 3G 6G14G17G19G22G24G30C23C27
                                C28C33E13E26E27
  24339583.413   127905323.277    24339586.933    99666471.925                  
  23652174.643   124293036.802    23652172.660    96851722.309                  
  23293765.196   122409531.976    23293767.841    95384042.620                  
  20942078.192   110051326.696    20942081.033    85754270.644                  
  20554385.848   108014038.192    20554386.027    84166788.003                  
  21383447.920   112370791.898    21383447.258    87561659.148                  
  20955288.278   110120806.981    20955285.884    85808427.468                  
  24692628.615   129760655.992    24692626.560   101112204.400                  
  24041702.368   126339966.595    24041704.745    98446719.175                  
  23588250.376   123957046.117    23588252.895    96589894.468                  
                 122866025.785                   122866025.785    23595120.426  
                 122442446.971                   122442446.971    23513783.885  
                 115197175.020                   115197175.020    22122404.567  
                 133984582.816                   133984582.816    25730364.708  
  23902919.081   125610649.624                                                  
  23527690.059   123638816.114                                                  
  25464209.560   133815305.099                                                  
 21  9  1 11 13 21.0000000  0 17G 1G 2G 3G 6G14G17G19G22G24G30C23C27
                                C28C33E13E26E27
  24340287.703   127909024.282    24340291.223    99669355.824                  
  23651644.541   124290251.051    23651642.540    96849551.594                  
  23293866.407   122410063.766    23293869.033    95384456.999                  
  20941739.985   110049549.277    20941742.808    85752885.644                  
  20554550.654   108014904.283    20554550.833    84167462.879                  
  21383572.181   112371444.921    21383571.520    87562167.997                  
  20955196.163   110120322.829    20955193.733    85808050.211                  
  24693002.667   129762621.629    24693000.612   101113736.063                  
  24041426.096   126338514.832    24041428.472    98445587.933                  
  23588900.880   123960464.512    23588903.399    96592558.152                  
                 122868762.539                   122868762.539    23595645.971  
                 122441024.001                   122441024.001    23513510.614  
                 115197858.393                   115197858.393    22122535.798  
                 133982592.380                   133982592.380    25729982.454  
  23903215.975   125612209.900                                                  
  23527505.133   123637844.351                                                  
  25464624.997   133817488.276                                                  
 21  9  1 11 13 22.0000000  0 17G 1G 2G 3G 6G14G17G19G22G24G30C23C27
                                C28C33E13E26E27
  24340991.974   127912725.308    24340995.495    99672239.738                  
  23651114.474   124287465.625    23651112.509    96847381.133                  
  23293967.724   122410596.174    23293970.369    95384871.868                  
  20941401.832   110047772.377    20941404.673    85751501.047                  
  20554715.567   108015770.852    20554715.746    84168138.130                  
  21383696.460   112372098.003    21383695.799    87562676.890                  
  20955104.066   110119838.868    20955101.654    85807673.099                  
  24693376.809   129764587.719    24693374.736   101115268.083                  
  24041149.948   126337063.607    24041152.324    98444457.106                  
  23589551.384   123963882.977    23589553.921    96595221.891                  
                 122871499.577                   122871499.577    23596171.607  
                 122439601.234                   122439601.234    23513237.397  
                 115198541.938                   115198541.938    22122667.063  
                 133980602.103                   133980602.103    25729600.235  
  23903512.941   125613770.378                                                  
  23527320.278   123636872.919                                                  
  25465040.505   133819671.720                                                  
 21  9  1 11 13 23.0000000  0 17G 1G 2G 3G 6G14G17G19G22G24G30C23C27
                                C28C33E13E26E27
  24341696.282   127916426.378    24341699.784    99675123.691                  
  23650584.497   124284680.499    23650582.496    96845210.907                  
  23294069.166   122411129.196    23294071.775    95385287.207                  
  20941063.803   110045995.986    20941066.644    85750116.848                  
  20554880.552   108016637.914    20554880.748    84168813.762                  
  21383820.739   112372751.144    21383820.078    87563185.833                  
  20955012.005   110119355.098    20955009.593    85807296.133                  
  24693751.022   129766554.277    24693748.985   101116800.464                  
  24040873.871   126335612.909    24040876.266    98443326.695                  
  23590201.906   123967301.492    23590204.443    96597885.671                  
                 122874236.910                   122874236.910    23596697.277  
                 122438178.671                   122438178.671    23512964.197  
                 115199225.645                   115199225.645    22122798.365  
                 133978611.980                   133978611.980    25729218.053  
  23903809.924   125615331.055                                                  
  23527135.476   123635901.807                                                  
  25465456.031   133821855.434                                                  
 21  9  1 11 13 24.0000000  0 17G 1G 2G 3G 6G14G17G19G22G24G30C23C27
                                C28C33E13E26E27
  24342400.572   127920127.478    24342404.074    99678007.664                  
  23650054.555   124281895.684    23650052.572    96843040.919                  
  23294170.698   122411662.829    23294173.343    95385703.022                  
  20940725.882   110044220.122    20940728.706    85748733.054                  
  20555045.644   108017505.466    20555045.822    84169489.777                  
  21383945.036   112373404.352    21383944.375    87563694.829                  
  20954919.980   110118871.513    20954917.585    85806919.313                  
  24694125.342   129768521.297    24694123.287   101118333.206                  
  24040597.938   126334162.749    24040600.314    98442196.700                  
  23590852.445   123970720.072    23590854.983    96600549.497                  
                 122876974.528                   122876974.528    23597223.002  
                 122436756.317                   122436756.317    23512691.051  
                 115199909.521                   115199909.521    22122929.702  
                 133976622.021                   133976622.021    25728835.924  
  23904106.943   125616891.938                                                  
  23526950.746   123634931.036                                                  
  25465871.647   133824039.417                                                  
 21  9  1 11 13 25.0000000  0 17G 1G 2G 3G 6G14G17G19G22G24G30C23C27
                                C28C33E13E26E27
  24343104.879   127923828.607    24343108.381    99680891.661                  
  23649524.685   124279111.180    23649522.702    96840871.176                  
  23294272.355   122412197.086    23294275.000    95386119.329                  
  20940388.033   110042444.778    20940390.856    85747349.671                  
  20555210.825   108018373.499    20555211.004    84170166.169                  
  21384069.369   112374057.622    21384068.707    87564203.868                  
  20954827.972   110118388.118    20954825.578    85806542.642                  
  24694499.734   129770488.789    24694497.679   101119866.317                  
  24040322.076   126332713.125    24040324.452    98441067.121                  
  23591502.985   123974138.698    23591505.522    96603213.364                  
                 122879712.433                   122879712.433    23597748.798  
                 122435334.163                   122435334.163    23512417.941  
                 115200593.562                   115200593.562    22123061.058  
                 133974632.218                   133974632.218    25728453.795  
  23904404.015   125618453.033                                                  
  23526766.088   123633960.585                                                  
  25466287.298   133826223.671                                                  
 21  9  1 11 13 26.0000000  0 17G 1G 2G 3G 6G14G17G19G22G24G30C23C27
                                C28C33E13E26E27
  24343809.187   127927529.785    24343812.707    99683775.696                  
  23648994.887   124276326.996    23648992.885    96838701.684                  
  23294374.137   122412731.957    23294376.782    95386536.109                  
  20940050.308   110040669.944    20940053.113    85745966.688                  
  20555376.096   108019242.031    20555376.274    84170842.943                  
  21384193.683   112374710.962    21384193.022    87564712.962                  
  20954736.036   110117904.914    20954733.642    85806166.122                  
  24694874.215   129772456.738    24694872.178   101121399.784                  
  24040046.321   126331264.039    24040048.698    98439937.965                  
  23592153.542   123977557.401    23592156.080    96605877.286                  
                 122882450.629                   122882450.629    23598274.648  
                 122433912.220                   122433912.220    23512144.885  
                 115201277.770                   115201277.770    22123192.466  
                 133972642.578                   133972642.578    25728071.701  
  23904701.123   125620014.332                                                  
  23526581.465   123632990.476                                                  
  25466703.003   133828408.204                                                  
 21  9  1 11 13 27.0000000  0 17G 1G 2G 3G 6G14G17G19G22G24G30C23C27
                                C28C33E13E26E27
  24344513.494   127931230.988    24344517.014    99686659.745                  
  23648465.124   124273543.117    23648463.140    96836532.425                  
  23294476.044   122413267.418    23294478.689    95386953.356                  
  20939712.655   110038895.633    20939715.478    85744584.106                  
  20555541.455   108020111.042    20555541.652    84171520.094                  
  21384318.016   112375364.353    21384317.355    87565222.097                  
  20954644.118   110117421.889    20954641.723    85805789.739                  
  24695248.803   129774425.152    24695246.766   101122933.613                  
  24039770.673   126329815.478    24039773.068    98438809.216                  
  23592804.118   123980976.145    23592806.637    96608541.243                  
                 122885189.113                   122885189.113    23598800.533  
                 122432490.479                   122432490.479    23511871.846  
                 115201962.146                   115201962.146    22123323.875  
                 133970653.093                   133970653.093    25727689.644  
  23904998.267   125621575.829                                                  
  23526396.914   123632020.676                                                  
  25467118.762   133830592.988                                                  
 21  9  1 11 13 28.0000000  0 17G 1G 2G 3G 6G14G17G19G22G24G30C23C27
                                C28C33E13E26E27
  24345217.820   127934932.228    24345221.340    99689543.829                  
  23647935.414   124270759.555    23647933.449    96834363.418                  
  23294578.058   122413803.509    23294580.703    95387371.087                  
  20939375.127   110037121.835    20939377.932    85743201.925                  
  20555706.923   108020980.548    20555707.119    84172197.633                  
  21384442.366   112376017.804    21384441.705    87565731.280                  
  20954552.235   110116939.058    20954549.841    85805413.509                  
  24695623.463   129776394.032    24695621.426   101124467.800                  
  24039495.115   126328367.454    24039497.492    98437680.883                  
  23593454.675   123984394.953    23593457.213    96611205.249                  
                 122887927.888                   122887927.888    23599326.472  
                 122431068.945                   122431068.945    23511598.861  
                 115202646.688                   115202646.688    22123455.338  
                 133968663.770                   133968663.770    25727307.622  
  23905295.447   125623137.536                                                  
  23526212.434   123631051.220                                                  
  25467534.556   133832778.058                                                  
 21  9  1 11 13 29.0000000  0 17G 1G 2G 3G 6G14G17G19G22G24G30C23C27
                                C28C33E13E26E27
  24345922.163   127938633.501    24345925.665    99692427.937                  
  23647405.776   124267976.304    23647403.793    96832194.651                  
  23294680.180   122414340.223    23294682.824    95387789.305                  
  20939037.653   110035348.554    20939040.494    85741820.148                  
  20555872.479   108021850.539    20555872.658    84172875.546                  
  21384566.735   112376671.329    21384566.056    87566240.518                  
  20954460.406   110116456.406    20954457.994    85805037.414                  
  24695998.212   129778363.366    24695996.157   101126002.351                  
  24039219.682   126326919.958    24039222.059    98436552.964                  
  23594105.286   123987813.823    23594107.824    96613869.302                  
                 122890666.945                   122890666.945    23599852.500  
                 122429647.618                   122429647.618    23511325.894  
                 115203331.395                   115203331.395    22123586.818  
                 133966674.607                   133966674.607    25726925.618  
  23905592.663   125624699.449                                                  
  23526028.026   123630082.095                                                  
  25467950.422   133834963.395                                                  
 21  9  1 11 13 30.0000000  0 17G 1G 2G 3G 6G14G17G19G22G24G30C23C27
                                C28C33E13E26E27
  24346626.506   127942334.808    24346630.008    99695312.073                  
  23646876.228   124265193.364    23646874.227    96830026.124                  
  23294782.444   122414877.544    23294785.089    95388207.997                  
  20938700.321   110033575.798    20938703.145    85740438.777                  
  20556038.125   108022721.010    20556038.322    84173553.836                  
  21384691.103   112377324.899    21384690.442    87566749.798                  
  20954368.577   110115973.939    20954366.183    85804661.465                  
  24696373.069   129780333.171    24696371.014   101127537.266                  
  24038944.321   126325473.005    24038946.697    98435425.468                  
  23594755.880   123991232.755    23594758.417    96616533.402                  
                 122893406.293                   122893406.293    23600378.564  
                 122428226.491                   122428226.491    23511052.980  
                 115204016.268                   115204016.268    22123718.352  
                 133964685.601                   133964685.601    25726543.632  
  23905889.914   125626261.568                                                  
  23525843.653   123629113.290                                                  
  25468366.324   133837149.001                                                  
 21  9  1 11 13 31.0000000  0 17G 1G 2G 3G 6G14G17G19G22G24G30C23C27
                                C28C33E13E26E27
  24347330.832   127946036.151    24347334.334    99698196.234                  
  23646346.697   124262410.741    23646344.696    96827857.851                  
  23294884.798   122415415.484    23294887.443    95388627.171                  
  20938363.079   110031803.552    20938365.902    85739057.809                  
  20556203.860   108023591.975    20556204.057    84174232.512                  
  21384815.472   112377978.547    21384814.828    87567259.132                  
  20954276.820   110115491.665    20954274.408    85804285.663                  
  24696747.996   129782303.444    24696745.942   101129072.540                  
  24038669.084   126324026.589    24038671.461    98434298.395                  
  23595406.473   123994651.731    23595409.028    96619197.539                  
                 122896145.931                   122896145.931    23600904.682  
                 122426805.573                   122426805.573    23510780.120  
                 115204701.307                   115204701.307    22123849.903  
                 133962696.755                   133962696.755    25726161.717  
  23906187.219   125627823.894                                                  
  23525659.388   123628144.819                                                  
  25468782.279   133839334.878                                                  
 21  9  1 11 13 32.0000000  0 17G 1G 2G 3G 6G14G17G19G22G24G30C23C27
                                C28C33E13E26E27
  24348035.175   127949737.536    24348038.695    99701080.430                  
  23645817.238   124259628.427    23645815.255    96825689.811                  
  23294987.277   122415954.040    23294989.921    95389046.823                  
  20938025.926   110030031.820    20938028.768    85737677.243                  
  20556369.703   108024463.430    20556369.881    84174911.563                  
  21384939.876   112378632.257    21384939.215    87567768.519                  
  20954185.080   110115009.573    20954182.668    85803910.012                  
  24697123.014   129784274.179    24697120.959   101130608.175                  
  24038393.937   126322580.704    24038396.313    98433171.727                  
  23596057.102   123998070.762    23596059.639    96621861.719                  
                 122898885.855                   122898885.855    23601430.853  
                 122425384.862                   122425384.862    23510507.278  
                 115205386.515                   115205386.515    22123981.509  
                 133960708.066                   133960708.066    25725779.803  
  23906484.559   125629386.426                                                  
  23525475.140   123627176.683                                                  
  25469198.287   133841521.024                                                  
 21  9  1 11 13 33.0000000  0 17G 1G 2G 3G 6G14G17G19G22G24G30C23C27
                                C28C33E13E26E27
  24348739.536   127953438.949    24348743.056    99703964.643                  
  23645287.833   124256846.426    23645285.867    96823522.019                  
  23295089.881   122416493.198    23295092.525    95389466.949                  
  20937688.881   110028260.611    20937691.704    85736297.075                  
  20556535.616   108025335.372    20556535.795    84175591.001                  
  21385064.298   112379286.020    21385063.619    87568277.946                  
  20954093.377   110114527.672    20954090.964    85803534.504                  
  24697498.120   129786245.380    24697496.065   101132144.175                  
  24038118.897   126321135.347    24038121.273    98432045.478                  
  23596707.749   124001489.853    23596710.286    96624525.945                  
                 122901626.066                   122901626.066    23601957.078  
                 122423964.355                   122423964.355    23510234.508  
                 115206071.885                   115206071.885    22124113.114  
                 133958719.543                   133958719.543    25725397.924  
  23906781.935   125630949.173                                                  
  23525290.964   123626208.863                                                  
  25469614.332   133843707.438                                                  
 21  9  1 11 13 34.0000000  0 17G 1G 2G 3G 6G14G17G19G22G24G30C23C27
                                C28C33E13E26E27
  24349443.897   127957140.392    24349447.417    99706848.887                  
  23644758.499   124254064.727    23644756.515    96821354.461                  
  23295192.592   122417032.981    23295195.236    95389887.559                  
  20937351.925   110026489.909    20937354.766    85734917.312                  
  20556701.638   108026207.801    20556701.816    84176270.815                  
  21385188.720   112379939.850    21385188.041    87568787.422                  
  20954001.709   110114045.944    20953999.296    85803159.132                  
  24697873.316   129788217.042    24697871.261   101133680.540                  
  24037843.964   126319690.530    24037846.341    98430919.649                  
  23597358.378   124004909.007    23597360.915    96627190.222                  
                 122904366.565                   122904366.565    23602483.356  
                 122422544.054                   122422544.054    23509961.737  
                 115206757.425                   115206757.425    22124244.755  
                 133956731.176                   133956731.176    25725016.081  
  23907079.365   125632512.104                                                  
  23525106.860   123625241.382                                                  
  25470030.466   133845894.133                                                  
 21  9  1 11 13 35.0000000  0 17G 1G 2G 3G 6G14G17G19G22G24G30C23C27
                                C28C33E13E26E27
  24350148.258   127960841.858    24350151.778    99709733.144                  
  23644229.218   124251283.360    23644227.235    96819187.160                  
  23295295.446   122417573.383    23295298.073    95390308.649                  
  20937015.076   110024719.741    20937017.899    85733537.956                  
  20556867.766   108027080.718    20556867.945    84176951.012                  
  21385313.142   112380593.742    21385312.481    87569296.946                  
  20953910.076   110113564.425    20953907.664    85802783.922                  
  24698248.601   129790189.173    24698246.546   101135217.259                  
  24037569.121   126318246.254    24037571.497    98429794.238                  
  23598009.042   124008328.206    23598011.580    96629854.530                  
                 122907107.355                   122907107.355    23603009.706  
                 122421123.956                   122421123.956    23509689.020  
                 115207443.132                   115207443.132    22124376.432  
                 133954742.970                   133954742.970    25724634.255  
  23907376.813   125634075.250                                                  
  23524922.827   123624274.234                                                  
  25470446.617   133848081.083                                                  
 21  9  1 11 13 36.0000000  0 17G 1G 2G 3G 6G14G17G19G22G24G30C23C27
                                C28C33E13E26E27
  24350852.637   127964543.371    24350856.157    99712617.442                  
  23643699.991   124248502.289    23643698.026    96817020.094                  
  23295398.407   122418114.396    23295401.016    95390730.220                  
  20936678.316   110022950.081    20936681.140    85732159.005                  
  20557033.966   108027954.124    20557034.144    84177631.586                  
  21385437.582   112381247.693    21385436.921    87569806.520                  
  20953818.480   110113083.070    20953816.067    85802408.840                  
  24698623.976   129792161.765    24698621.921   101136754.343                  
  24037294.384   126316802.508    24037296.761    98428669.239                  
  23598659.707   124011747.472    23598662.245    96632518.894                  
                 122909848.430                   122909848.430    23603536.092  
                 122419704.065                   122419704.065    23509416.339  
                 115208129.003                   115208129.003    22124508.162  
                 133952754.921                   133952754.921    25724252.484  
  23907674.314   125635638.606                                                  
  23524738.847   123623307.407                                                  
  25470862.840   133850268.315                                                  
 21  9  1 11 13 37.0000000  0 17G 1G 2G 3G 6G14G17G19G22G24G30C23C27
                                C28C33E13E26E27
  24351557.016   127968244.914    24351560.536    99715501.757                  
  23643170.836   124245721.533    23643168.852    96814853.268                  
  23295501.458   122418656.013    23295504.103    95391152.254                  
  20936341.664   110021180.949    20936344.487    85730780.458                  
