% program   : rnx2rtkp ver.2.4.3 b31
% inp file  : ngs/21_09_01_09_42_27_mami.obs
% inp file  : ngs/21_09_01_09_42_27_mami_SW.obs
% inp file  : ngs/21_09_01_09_42_27_brdc.nav
% obs start : 2021/09/01 09:00:00.0 GPST (week2173 291600.0s)
% obs end   : 2021/09/01 09:59:59.0 GPST (week2173 295199.0s)
% ref pos   :  1556688.1357  -4533459.6534   4193678.3792
%
% (x/y/z-ecef=WGS84,Q=1:fix,2:float,3:sbas,4:dgps,5:single,6:ppp,ns=# of satellites)
%  GPST              x-ecef(m)      y-ecef(m)      z-ecef(m)   Q  ns   sdx(m)   sdy(m)   sdz(m)  sdxy(m)  sdyz(m)  sdzx(m) age(s)  ratio
2173 294122.000   1535068.4380  -4470499.3362   4268000.6596   2   8   0.6393   1.2402   0.7010  -0.7628  -0.7526   0.4252 -30.00    1.9
2173 294123.000   1535068.4350  -4470499.3325   4268000.6613   2   8   0.4549   0.8820   0.4991  -0.5425  -0.5354   0.3022 -29.00    1.9
2173 294124.000   1535068.4364  -4470499.3350   4268000.6645   2   8   0.3725   0.7221   0.4087  -0.4442  -0.4383   0.2473 -28.00    1.8
2173 294125.000   1535068.4425  -4470499.3355   4268000.6598   2   8   0.3232   0.6264   0.3545  -0.3854  -0.3802   0.2146 -27.00    1.9
2173 294126.000   1535068.4403  -4470499.3332   4268000.6661   2   8   0.2894   0.5610   0.3175  -0.3452  -0.3405   0.1922 -26.00    1.9
2173 294127.000   1535068.4426  -4470499.3360   4268000.6654   2   8   0.2645   0.5126   0.2901  -0.3154  -0.3112   0.1756 -25.00    1.8
2173 294128.000   1535068.4409  -4470499.3333   4268000.6686   2   8   0.2451   0.4749   0.2687  -0.2922  -0.2883   0.1627 -24.00    1.8
2173 294129.000   1535068.4400  -4470499.3270   4268000.6633   2   8   0.2294   0.4445   0.2515  -0.2735  -0.2698   0.1523 -23.00    1.8
2173 294130.000   1535068.4399  -4470499.3274   4268000.6674   2   8   0.2164   0.4192   0.2372  -0.2580  -0.2545   0.1437 -22.00    1.7
2173 294131.000   1535068.4405  -4470499.3280   4268000.6668   2   8   0.2053   0.3978   0.2251  -0.2448  -0.2414   0.1363 -21.00    1.8
2173 294132.000   1535068.4422  -4470499.3296   4268000.6686   2   8   0.1958   0.3793   0.2146  -0.2335  -0.2302   0.1300 -20.00    1.8
2173 294133.000   1535068.4422  -4470499.3302   4268000.6649   2   8   0.1875   0.3632   0.2055  -0.2236  -0.2204   0.1245 -19.00    1.8
2173 294134.000   1535068.4410  -4470499.3292   4268000.6660   2   8   0.1802   0.3489   0.1974  -0.2148  -0.2117   0.1196 -18.00    1.8
2173 294135.000   1535068.4406  -4470499.3247   4268000.6637   2   8   0.1736   0.3361   0.1902  -0.2069  -0.2040   0.1152 -17.00    1.8
2173 294136.000   1535068.4388  -4470499.3240   4268000.6678   2   8   0.1677   0.3246   0.1837  -0.1999  -0.1970   0.1112 -16.00    1.8
2173 294137.000   1535068.4423  -4470499.3285   4268000.6685   2   8   0.1623   0.3142   0.1778  -0.1934  -0.1907   0.1077 -15.00    1.8
2173 294138.000   1535068.4420  -4470499.3269   4268000.6674   2   8   0.1574   0.3046   0.1724  -0.1876  -0.1849   0.1044 -14.00    1.8
2173 294139.000   1535068.4430  -4470499.3274   4268000.6663   2   8   0.1529   0.2959   0.1675  -0.1822  -0.1795   0.1014 -13.00    1.8
2173 294140.000   1535068.4429  -4470499.3301   4268000.6684   2   8   0.1488   0.2878   0.1630  -0.1772  -0.1746   0.0986 -12.00    1.8
2173 294141.000   1535068.4444  -4470499.3328   4268000.6691   2   8   0.1450   0.2803   0.1587  -0.1726  -0.1701   0.0960 -11.00    1.7
2173 294142.000   1535068.4454  -4470499.3327   4268000.6703   2   8   0.1414   0.2733   0.1548  -0.1684  -0.1659   0.0936 -10.00    1.7
2173 294143.000   1535068.4457  -4470499.3366   4268000.6733   2   8   0.1381   0.2668   0.1512  -0.1644  -0.1619   0.0914  -9.00    1.7
2173 294144.000   1535068.4456  -4470499.3364   4268000.6702   2   8   0.1350   0.2607   0.1477  -0.1606  -0.1582   0.0893  -8.00    1.6
2173 294145.000   1535068.4435  -4470499.3322   4268000.6684   2   8   0.1320   0.2550   0.1445  -0.1571  -0.1547   0.0873  -7.00    1.5
2173 294146.000   1535068.4436  -4470499.3329   4268000.6731   2   8   0.1293   0.2496   0.1415  -0.1538  -0.1514   0.0854  -6.00    1.4
2173 294147.000   1535068.4459  -4470499.3342   4268000.6693   2   8   0.1267   0.2445   0.1386  -0.1507  -0.1483   0.0837  -5.00    1.4
2173 294148.000   1535068.4477  -4470499.3375   4268000.6698   2   8   0.1243   0.2397   0.1359  -0.1477  -0.1454   0.0820  -4.00    1.3
2173 294149.000   1535068.4483  -4470499.3398   4268000.6720   2   8   0.1219   0.2351   0.1334  -0.1449  -0.1426   0.0804  -3.00    1.3
2173 294150.000   1535068.4492  -4470499.3422   4268000.6729   2   8   0.1197   0.2307   0.1310  -0.1422  -0.1399   0.0789  -2.00    1.2
2173 294151.000   1535068.4522  -4470499.3475   4268000.6748   2   8   0.1177   0.2266   0.1286  -0.1397  -0.1374   0.0774  -1.00    1.1
2173 294152.000   1535068.4518  -4470499.3499   4268000.6747   2   8   0.1157   0.2227   0.1265  -0.1373  -0.1350   0.0761   0.00    1.1
2173 294153.000   1535068.4522  -4470499.3554   4268000.6790   2   8   0.1138   0.2191   0.1244  -0.1350  -0.1328   0.0748   0.00    1.0
2173 294154.000   1535068.4486  -4470499.3525   4268000.6795   2   8   0.1120   0.2155   0.1224  -0.1328  -0.1306   0.0736   0.00    1.0
2173 294155.000   1535068.4527  -4470499.3598   4268000.6811   2   8   0.1103   0.2121   0.1205  -0.1307  -0.1285   0.0724   0.00    1.0
2173 294156.000   1535068.4532  -4470499.3644   4268000.6849   2   8   0.1087   0.2089   0.1187  -0.1287  -0.1265   0.0713   0.00    1.1
2173 294157.000   1535068.4541  -4470499.3665   4268000.6844   2   8   0.1071   0.2057   0.1170  -0.1268  -0.1246   0.0702   0.00    1.1
2173 294158.000   1535068.4542  -4470499.3685   4268000.6877   2   8   0.1056   0.2027   0.1153  -0.1249  -0.1228   0.0691   0.00    1.1
2173 294159.000   1535068.4549  -4470499.3733   4268000.6887   2   8   0.1041   0.1998   0.1137  -0.1231  -0.1210   0.0681   0.00    1.1
2173 294160.000   1535068.4536  -4470499.3694   4268000.6893   2   8   0.1027   0.1970   0.1121  -0.1214  -0.1193   0.0671   0.00    1.1
2173 294161.000   1535068.4529  -4470499.3697   4268000.6936   2   8   0.1013   0.1943   0.1106  -0.1197  -0.1176   0.0661   0.00    1.1
2173 294162.000   1535068.4551  -4470499.3670   4268000.6927   2   8   0.1000   0.1916   0.1091  -0.1180  -0.1160   0.0652   0.00    1.1
2173 294163.000   1535068.4493  -4470499.3540   4268000.6876   2   8   0.0987   0.1891   0.1077  -0.1164  -0.1144   0.0643   0.00    1.0
2173 294164.000   1535068.4461  -4470499.3520   4268000.6878   2   9   0.0974   0.1864   0.1061  -0.1150  -0.1126   0.0635   0.00    1.0
2173 294165.000   1535068.4457  -4470499.3470   4268000.6859   2   9   0.0962   0.1838   0.1046  -0.1136  -0.1109   0.0628   0.00    1.0
2173 294166.000   1535068.4437  -4470499.3461   4268000.6832   2   9   0.0950   0.1813   0.1031  -0.1122  -0.1092   0.0621   0.00    1.1
2173 294167.000   1535068.4444  -4470499.3506   4268000.6840   2   9   0.0938   0.1789   0.1017  -0.1108  -0.1077   0.0614   0.00    1.1
2173 294168.000   1535068.4462  -4470499.3554   4268000.6831   2   9   0.0926   0.1765   0.1003  -0.1095  -0.1061   0.0607   0.00    1.1
2173 294169.000   1535068.4492  -4470499.3597   4268000.6847   2   9   0.0915   0.1742   0.0990  -0.1082  -0.1046   0.0600   0.00    1.1
2173 294170.000   1535068.4524  -4470499.3657   4268000.6827   2   9   0.0904   0.1720   0.0977  -0.1069  -0.1032   0.0594   0.00    1.1
2173 294171.000   1535068.4537  -4470499.3651   4268000.6864   2   9   0.0894   0.1698   0.0964  -0.1056  -0.1018   0.0587   0.00    1.1
2173 294172.000   1535068.4544  -4470499.3692   4268000.6860   2   9   0.0884   0.1677   0.0952  -0.1044  -0.1004   0.0580   0.00    1.1
2173 294173.000   1535068.4578  -4470499.3706   4268000.6844   2   9   0.0874   0.1656   0.0941  -0.1031  -0.0990   0.0573   0.00    1.1
2173 294174.000   1535068.4594  -4470499.3764   4268000.6888   2   9   0.0863   0.1636   0.0929  -0.1019  -0.0977   0.0567   0.00    1.1
2173 294175.000   1535068.4600  -4470499.3701   4268000.6834   2   9   0.0854   0.1616   0.0918  -0.1007  -0.0964   0.0560   0.00    1.1
2173 294176.000   1535068.4624  -4470499.3788   4268000.6830   2   9   0.0844   0.1596   0.0907  -0.0996  -0.0952   0.0554   0.00    1.1
2173 294177.000   1535068.4596  -4470499.3727   4268000.6791   2   9   0.0835   0.1577   0.0896  -0.0984  -0.0939   0.0548   0.00    1.1
2173 294178.000   1535068.4596  -4470499.3697   4268000.6755   2   9   0.0826   0.1558   0.0886  -0.0973  -0.0928   0.0541   0.00    1.1
2173 294179.000   1535068.4609  -4470499.3739   4268000.6749   2   9   0.0817   0.1540   0.0876  -0.0962  -0.0916   0.0535   0.00    1.1
2173 294180.000   1535068.4619  -4470499.3750   4268000.6756   2   9   0.0808   0.1522   0.0866  -0.0951  -0.0904   0.0529   0.00    1.1
2173 294181.000   1535068.4677  -4470499.3820   4268000.6753   2   9   0.0800   0.1504   0.0856  -0.0940  -0.0893   0.0523   0.00    1.0
2173 294182.000   1535068.4671  -4470499.3878   4268000.6780   2   9   0.0792   0.1486   0.0847  -0.0929  -0.0882   0.0517   0.00    1.0
2173 294183.000   1535068.4707  -4470499.3911   4268000.6800   2   9   0.0784   0.1469   0.0837  -0.0919  -0.0871   0.0512   0.00    1.0
2173 294184.000   1535068.4729  -4470499.3930   4268000.6814   2   9   0.0775   0.1452   0.0829  -0.0908  -0.0860   0.0506   0.00    1.0
2173 294185.000   1535068.4723  -4470499.3925   4268000.6794   2   9   0.0767   0.1435   0.0820  -0.0898  -0.0850   0.0500   0.00    1.0
2173 294186.000   1535068.4749  -4470499.3960   4268000.6768   2   9   0.0759   0.1419   0.0811  -0.0888  -0.0839   0.0494   0.00    1.0
2173 294187.000   1535068.4717  -4470499.3861   4268000.6695   2   9   0.0752   0.1403   0.0803  -0.0878  -0.0829   0.0488   0.00    1.0
2173 294188.000   1535068.4743  -4470499.3909   4268000.6727   2   9   0.0744   0.1387   0.0794  -0.0868  -0.0819   0.0483   0.00    1.0
2173 294189.000   1535068.4748  -4470499.3894   4268000.6682   2   9   0.0737   0.1371   0.0786  -0.0858  -0.0809   0.0477   0.00    1.0
2173 294190.000   1535068.4711  -4470499.3806   4268000.6578   2   9   0.0729   0.1356   0.0778  -0.0848  -0.0799   0.0472   0.00    1.0
2173 294191.000   1535068.4697  -4470499.3746   4268000.6519   2   9   0.0722   0.1341   0.0770  -0.0839  -0.0790   0.0467   0.00    1.0
2173 294192.000   1535068.4684  -4470499.3717   4268000.6461   2   9   0.0715   0.1326   0.0762  -0.0829  -0.0781   0.0461   0.00    1.0
2173 294193.000   1535068.4660  -4470499.3654   4268000.6399   2   9   0.0707   0.1311   0.0754  -0.0820  -0.0771   0.0455   0.00    1.0
2173 294194.000   1535068.4599  -4470499.3551   4268000.6330   2   9   0.0701   0.1296   0.0747  -0.0811  -0.0762   0.0450   0.00    1.0
2173 294195.000   1535068.4598  -4470499.3553   4268000.6335   2   9   0.0694   0.1282   0.0739  -0.0802  -0.0753   0.0445   0.00    1.0
2173 294196.000   1535068.4581  -4470499.3529   4268000.6316   2   9   0.0687   0.1268   0.0732  -0.0793  -0.0744   0.0440   0.00    1.0
2173 294197.000   1535068.4559  -4470499.3525   4268000.6350   2   9   0.0680   0.1254   0.0725  -0.0784  -0.0735   0.0435   0.00    1.0
2173 294198.000   1535068.4544  -4470499.3533   4268000.6337   2   9   0.0674   0.1240   0.0718  -0.0775  -0.0727   0.0430   0.00    1.0
2173 294199.000   1535068.4437  -4470499.3315   4268000.6311   2   9   0.0668   0.1226   0.0711  -0.0766  -0.0718   0.0425   0.00    1.0
2173 294200.000   1535068.4402  -4470499.3251   4268000.6319   2   9   0.0661   0.1213   0.0704  -0.0758  -0.0710   0.0420   0.00    1.0
2173 294201.000   1535068.4367  -4470499.3212   4268000.6329   2   9   0.0655   0.1200   0.0698  -0.0749  -0.0702   0.0415   0.00    1.0
2173 294202.000   1535068.4317  -4470499.3121   4268000.6300   2   9   0.0650   0.1187   0.0691  -0.0741  -0.0693   0.0410   0.00    1.0
2173 294203.000   1535068.4272  -4470499.3030   4268000.6267   2   9   0.0643   0.1174   0.0685  -0.0732  -0.0685   0.0405   0.00    1.0
2173 294204.000   1535068.4212  -4470499.2925   4268000.6254   2   9   0.0637   0.1161   0.0678  -0.0724  -0.0678   0.0400   0.00    1.1
2173 294205.000   1535068.4218  -4470499.2919   4268000.6245   2   9   0.0631   0.1149   0.0672  -0.0716  -0.0670   0.0396   0.00    1.1
2173 294206.000   1535068.4204  -4470499.2875   4268000.6217   2   9   0.0625   0.1136   0.0665  -0.0708  -0.0662   0.0392   0.00    1.1
2173 294207.000   1535068.4211  -4470499.2901   4268000.6240   2   9   0.0619   0.1124   0.0659  -0.0700  -0.0654   0.0387   0.00    1.1
2173 294208.000   1535068.4221  -4470499.2975   4268000.6202   2   9   0.0614   0.1112   0.0653  -0.0692  -0.0647   0.0382   0.00    1.1
2173 294209.000   1535068.4208  -4470499.2951   4268000.6167   2   9   0.0608   0.1100   0.0647  -0.0685  -0.0639   0.0377   0.00    1.1
2173 294210.000   1535068.4230  -4470499.2963   4268000.6125   2   9   0.0603   0.1089   0.0641  -0.0677  -0.0632   0.0373   0.00    1.1
2173 294211.000   1535068.4184  -4470499.2877   4268000.6088   2   9   0.0597   0.1077   0.0636  -0.0669  -0.0625   0.0369   0.00    1.1
2173 294212.000   1535068.4190  -4470499.2952   4268000.6087   2   9   0.0592   0.1066   0.0630  -0.0662  -0.0618   0.0364   0.00    1.1
2173 294213.000   1535068.4158  -4470499.2873   4268000.6027   2   9   0.0587   0.1054   0.0625  -0.0655  -0.0611   0.0360   0.00    1.1
2173 294214.000   1535068.4162  -4470499.2896   4268000.5996   2   9   0.0581   0.1043   0.0619  -0.0647  -0.0604   0.0356   0.00    1.1
2173 294215.000   1535068.4123  -4470499.2852   4268000.5931   2   9   0.0577   0.1032   0.0613  -0.0640  -0.0597   0.0351   0.00    1.1
2173 294216.000   1535068.4099  -4470499.2743   4268000.5862   2   9   0.0572   0.1021   0.0608  -0.0633  -0.0590   0.0348   0.00    1.1
2173 294217.000   1535068.4042  -4470499.2611   4268000.5728   2   9   0.0566   0.1011   0.0602  -0.0626  -0.0584   0.0343   0.00    1.1
2173 294218.000   1535068.4000  -4470499.2519   4268000.5635   2   9   0.0562   0.1000   0.0598  -0.0619  -0.0577   0.0339   0.00    1.2
2173 294219.000   1535068.3947  -4470499.2397   4268000.5495   2   9   0.0557   0.0990   0.0593  -0.0612  -0.0571   0.0335   0.00    1.2
2173 294220.000   1535068.3953  -4470499.2413   4268000.5477   2   9   0.0552   0.0980   0.0587  -0.0605  -0.0564   0.0331   0.00    1.2
2173 294221.000   1535068.3919  -4470499.2368   4268000.5407   2   9   0.0547   0.0970   0.0582  -0.0599  -0.0558   0.0327   0.00    1.2
2173 294222.000   1535068.3912  -4470499.2328   4268000.5346   2   9   0.0543   0.0960   0.0577  -0.0592  -0.0552   0.0323   0.00    1.2
2173 294223.000   1535068.3899  -4470499.2332   4268000.5305   2   9   0.0538   0.0950   0.0572  -0.0585  -0.0546   0.0320   0.00    1.1
2173 294224.000   1535068.3883  -4470499.2350   4268000.5304   2   9   0.0533   0.0940   0.0567  -0.0579  -0.0540   0.0316   0.00    1.1
2173 294225.000   1535068.3900  -4470499.2398   4268000.5336   2   9   0.0529   0.0931   0.0563  -0.0573  -0.0534   0.0312   0.00    1.1
2173 294226.000   1535068.3909  -4470499.2448   4268000.5346   2   9   0.0524   0.0921   0.0558  -0.0566  -0.0528   0.0309   0.00    1.1
2173 294227.000   1535068.3908  -4470499.2484   4268000.5347   2   9   0.0520   0.0912   0.0553  -0.0560  -0.0522   0.0305   0.00    1.1
2173 294228.000   1535068.3941  -4470499.2561   4268000.5331   2   9   0.0516   0.0903   0.0549  -0.0554  -0.0517   0.0301   0.00    1.1
2173 294229.000   1535068.3939  -4470499.2579   4268000.5303   2   9   0.0513   0.0894   0.0544  -0.0548  -0.0511   0.0298   0.00    1.1
2173 294230.000   1535068.3932  -4470499.2570   4268000.5245   2   9   0.0508   0.0885   0.0540  -0.0542  -0.0506   0.0295   0.00    1.1
2173 294231.000   1535068.3980  -4470499.2665   4268000.5256   2   9   0.0504   0.0876   0.0535  -0.0536  -0.0500   0.0291   0.00    1.1
2173 294232.000   1535068.3998  -4470499.2681   4268000.5256   2   9   0.0500   0.0867   0.0531  -0.0530  -0.0495   0.0287   0.00    1.1
2173 294233.000   1535068.3982  -4470499.2667   4268000.5214   2   9   0.0496   0.0859   0.0527  -0.0524  -0.0489   0.0284   0.00    1.1
2173 294234.000   1535068.4006  -4470499.2734   4268000.5175   2   9   0.0492   0.0850   0.0522  -0.0519  -0.0484   0.0281   0.00    1.1
2173 294235.000   1535068.3998  -4470499.2741   4268000.5121   2   9   0.0487   0.0842   0.0518  -0.0513  -0.0479   0.0278   0.00    1.1
2173 294236.000   1535068.4041  -4470499.2808   4268000.5105   2   9   0.0484   0.0834   0.0514  -0.0508  -0.0474   0.0275   0.00    1.1
2173 294237.000   1535068.4099  -4470499.2942   4268000.5129   2   9   0.0481   0.0826   0.0510  -0.0502  -0.0469   0.0271   0.00    1.1
2173 294238.000   1535068.4081  -4470499.2946   4268000.5116   2   9   0.0478   0.0818   0.0506  -0.0497  -0.0464   0.0268   0.00    1.1
2173 294239.000   1535068.4107  -4470499.3019   4268000.5188   2   9   0.0473   0.0810   0.0502  -0.0491  -0.0459   0.0264   0.00    1.0
2173 294240.000   1535068.4066  -4470499.3019   4268000.5184   2   9   0.0470   0.0802   0.0498  -0.0486  -0.0454   0.0262   0.00    1.0
2173 294241.000   1535068.4067  -4470499.3028   4268000.5231   2   9   0.0466   0.0795   0.0494  -0.0481  -0.0450   0.0259   0.00    1.0
2173 294242.000   1535068.4039  -4470499.2979   4268000.5232   2   9   0.0463   0.0787   0.0490  -0.0476  -0.0445   0.0256   0.00    1.0
2173 294243.000   1535068.4059  -4470499.3058   4268000.5314   2   9   0.0459   0.0780   0.0486  -0.0471  -0.0441   0.0253   0.00    1.0
2173 294244.000   1535068.4017  -4470499.3005   4268000.5307   2   9   0.0456   0.0772   0.0483  -0.0466  -0.0436   0.0250   0.00    1.0
2173 294245.000   1535068.4086  -4470499.3129   4268000.5382   2   9   0.0453   0.0765   0.0479  -0.0461  -0.0431   0.0247   0.00    1.0
2173 294246.000   1535068.4115  -4470499.3208   4268000.5390   2   9   0.0449   0.0758   0.0475  -0.0456  -0.0427   0.0244   0.00    1.0
2173 294247.000   1535068.4140  -4470499.3266   4268000.5410   2   9   0.0446   0.0751   0.0472  -0.0451  -0.0423   0.0242   0.00    1.0
2173 294248.000   1535068.4186  -4470499.3351   4268000.5500   2   9   0.0443   0.0744   0.0468  -0.0447  -0.0419   0.0239   0.00    1.0
2173 294249.000   1535068.4170  -4470499.3376   4268000.5551   2   9   0.0440   0.0737   0.0465  -0.0442  -0.0414   0.0236   0.00    1.0
2173 294250.000   1535068.4207  -4470499.3468   4268000.5635   2   9   0.0436   0.0730   0.0461  -0.0437  -0.0410   0.0234   0.00    1.0
2173 294251.000   1535068.4180  -4470499.3436   4268000.5607   2   9   0.0433   0.0723   0.0458  -0.0433  -0.0406   0.0231   0.00    1.0
2173 294252.000   1535068.4193  -4470499.3506   4268000.5685   2   9   0.0430   0.0717   0.0454  -0.0428  -0.0402   0.0228   0.00    1.0
2173 294253.000   1535068.4221  -4470499.3551   4268000.5683   2   9   0.0427   0.0710   0.0451  -0.0424  -0.0398   0.0226   0.00    1.0
2173 294254.000   1535068.4196  -4470499.3447   4268000.5617   2   9   0.0425   0.0704   0.0448  -0.0419  -0.0394   0.0223   0.00    1.0
2173 294255.000   1535068.4211  -4470499.3512   4268000.5571   2   9   0.0421   0.0698   0.0444  -0.0415  -0.0390   0.0221   0.00    1.0
2173 294256.000   1535068.4335  -4470499.3736   4268000.5648   2   9   0.0419   0.0692   0.0441  -0.0411  -0.0386   0.0218   0.00    1.1
2173 294257.000   1535068.4363  -4470499.3799   4268000.5583   2   9   0.0415   0.0685   0.0438  -0.0407  -0.0383   0.0216   0.00    1.1
2173 294258.000   1535068.4410  -4470499.3905   4268000.5580   2   9   0.0413   0.0679   0.0435  -0.0402  -0.0379   0.0213   0.00    1.1
2173 294259.000   1535068.4452  -4470499.3973   4268000.5562   2   9   0.0409   0.0673   0.0432  -0.0398  -0.0375   0.0212   0.00    1.1
2173 294260.000   1535068.4455  -4470499.4015   4268000.5525   2   9   0.0408   0.0668   0.0428  -0.0394  -0.0371   0.0209   0.00    1.1
2173 294261.000   1535068.4491  -4470499.4097   4268000.5514   2   9   0.0405   0.0662   0.0425  -0.0390  -0.0368   0.0207   0.00    1.1
2173 294262.000   1535068.4514  -4470499.4139   4268000.5477   2   9   0.0402   0.0656   0.0422  -0.0386  -0.0365   0.0204   0.00    1.1
2173 294263.000   1535068.4580  -4470499.4255   4268000.5500   2   9   0.0399   0.0650   0.0419  -0.0382  -0.0361   0.0202   0.00    1.1
2173 294264.000   1535068.4425  -4470499.4668   4268000.5888   2   9   0.0397   0.0645   0.0416  -0.0379  -0.0358   0.0200   0.00    1.1
2173 294265.000   1535068.4438  -4470499.4713   4268000.6025   2   9   0.0394   0.0639   0.0413  -0.0375  -0.0354   0.0198   0.00    1.1
2173 294266.000   1535068.4468  -4470499.4837   4268000.6165   2   9   0.0392   0.0634   0.0410  -0.0371  -0.0351   0.0195   0.00    1.1
2173 294267.000   1535068.4489  -4470499.4905   4268000.6308   2   9   0.0390   0.0629   0.0408  -0.0367  -0.0348   0.0194   0.00    1.1
2173 294268.000   1535068.4481  -4470499.4967   4268000.6418   2   9   0.0387   0.0623   0.0405  -0.0363  -0.0345   0.0191   0.00    1.1
2173 294269.000   1535068.4423  -4470499.4927   4268000.6461   2   9   0.0384   0.0618   0.0402  -0.0360  -0.0341   0.0189   0.00    1.1
2173 294270.000   1535068.4467  -4470499.5035   4268000.6555   2   9   0.0383   0.0613   0.0399  -0.0356  -0.0338   0.0187   0.00    1.1
2173 294271.000   1535068.4456  -4470499.5041   4268000.6678   2   9   0.0379   0.0608   0.0396  -0.0353  -0.0335   0.0185   0.00    1.1
2173 294272.000   1535068.4464  -4470499.5111   4268000.6737   2   9   0.0377   0.0603   0.0394  -0.0350  -0.0332   0.0183   0.00    1.1
2173 294273.000   1535068.4446  -4470499.5147   4268000.6824   2   9   0.0376   0.0598   0.0391  -0.0346  -0.0329   0.0181   0.00    1.1
2173 294274.000   1535068.4436  -4470499.5132   4268000.6945   2   9   0.0373   0.0593   0.0389  -0.0343  -0.0326   0.0180   0.00    1.1
2173 294275.000   1535068.4433  -4470499.5185   4268000.7017   2   9   0.0371   0.0588   0.0386  -0.0339  -0.0323   0.0179   0.00    1.1
2173 294276.000   1535068.4449  -4470499.5263   4268000.7064   2   9   0.0368   0.0583   0.0383  -0.0336  -0.0320   0.0176   0.00    1.1
2173 294277.000   1535068.4440  -4470499.5309   4268000.7148   2   9   0.0367   0.0579   0.0380  -0.0333  -0.0318   0.0175   0.00    1.1
2173 294278.000   1535068.4475  -4470499.5385   4268000.7213   2   9   0.0365   0.0574   0.0377  -0.0329  -0.0315   0.0173   0.00    1.1
2173 294279.000   1535068.4507  -4470499.5501   4268000.7306   2   9   0.0362   0.0570   0.0376  -0.0326  -0.0312   0.0171   0.00    1.1
2173 294280.000   1535068.4501  -4470499.5527   4268000.7387   2   9   0.0361   0.0565   0.0373  -0.0323  -0.0309   0.0168   0.00    1.1
2173 294281.000   1535068.4506  -4470499.5549   4268000.7446   2   9   0.0358   0.0561   0.0370  -0.0320  -0.0307   0.0167   0.00    1.1
2173 294282.000   1535068.4513  -4470499.5641   4268000.7524   2   9   0.0356   0.0556   0.0368  -0.0317  -0.0304   0.0165   0.00    1.1
2173 294283.000   1535068.4495  -4470499.5618   4268000.7568   2   9   0.0354   0.0552   0.0366  -0.0314  -0.0301   0.0164   0.00    1.1
2173 294284.000   1535068.4457  -4470499.5587   4268000.7612   2   9   0.0352   0.0548   0.0363  -0.0311  -0.0299   0.0162   0.00    1.1
2173 294285.000   1535068.4442  -4470499.5561   4268000.7622   2   9   0.0351   0.0544   0.0361  -0.0308  -0.0296   0.0160   0.00    1.1
2173 294286.000   1535068.4425  -4470499.5575   4268000.7692   2   9   0.0349   0.0540   0.0359  -0.0305  -0.0294   0.0158   0.00    1.0
2173 294287.000   1535068.4340  -4470499.5507   4268000.7738   2   9   0.0346   0.0536   0.0356  -0.0302  -0.0291   0.0158   0.00    1.0
2173 294288.000   1535068.4336  -4470499.5530   4268000.7819   2   9   0.0344   0.0531   0.0354  -0.0299  -0.0289   0.0156   0.00    1.0
2173 294289.000   1535068.4264  -4470499.5404   4268000.7840   2   9   0.0343   0.0528   0.0352  -0.0296  -0.0286   0.0154   0.00    1.0
2173 294290.000   1535068.4222  -4470499.5390   4268000.7906   2   9   0.0341   0.0524   0.0350  -0.0293  -0.0284   0.0151   0.00    1.0
2173 294291.000   1535068.4220  -4470499.5386   4268000.7944   2   9   0.0339   0.0520   0.0347  -0.0291  -0.0282   0.0150   0.00    1.0
2173 294292.000   1535068.4224  -4470499.5389   4268000.8015   2   9   0.0337   0.0516   0.0346  -0.0288  -0.0279   0.0149   0.00    1.0
2173 294293.000   1535068.4199  -4470499.5384   4268000.8087   2   9   0.0335   0.0512   0.0343  -0.0285  -0.0277   0.0148   0.00    1.0
2173 294294.000   1535068.4210  -4470499.5381   4268000.8185   2   9   0.0334   0.0508   0.0341  -0.0283  -0.0275   0.0147   0.00    1.0
2173 294295.000   1535068.4179  -4470499.5354   4268000.8194   2   9   0.0332   0.0505   0.0339  -0.0280  -0.0273   0.0145   0.00    1.0
2173 294296.000   1535068.4107  -4470499.5214   4268000.8216   2   9   0.0330   0.0501   0.0337  -0.0278  -0.0270   0.0143   0.00    1.0
2173 294297.000   1535068.4102  -4470499.5240   4268000.8304   2   9   0.0329   0.0498   0.0334  -0.0275  -0.0268   0.0143   0.00    1.0
2173 294298.000   1535068.4065  -4470499.5199   4268000.8336   2   9   0.0327   0.0494   0.0333  -0.0273  -0.0266   0.0140   0.00    1.0
2173 294299.000   1535068.4068  -4470499.5212   4268000.8411   2   9   0.0326   0.0491   0.0331  -0.0270  -0.0264   0.0139   0.00    1.0
2173 294300.000   1535068.4084  -4470499.5241   4268000.8444   2   9   0.0323   0.0487   0.0328  -0.0267  -0.0262   0.0140   0.00    1.0
2173 294301.000   1535068.4083  -4470499.5283   4268000.8473   2   9   0.0322   0.0484   0.0326  -0.0265  -0.0260   0.0137   0.00    1.0
2173 294302.000   1535068.4081  -4470499.5268   4268000.8494   2   9   0.0321   0.0480   0.0325  -0.0263  -0.0258   0.0136   0.00    1.0
2173 294303.000   1535068.4080  -4470499.5305   4268000.8550   2   9   0.0320   0.0477   0.0322  -0.0260  -0.0256   0.0135   0.00    1.0
2173 294304.000   1535068.4069  -4470499.5316   4268000.8573   2   9   0.0318   0.0474   0.0320  -0.0258  -0.0254   0.0133   0.00    1.0
2173 294305.000   1535068.4037  -4470499.5287   4268000.8599   2   9   0.0316   0.0470   0.0318  -0.0256  -0.0252   0.0131   0.00    1.0
2173 294306.000   1535068.4065  -4470499.5337   4268000.8594   2   9   0.0315   0.0467   0.0317  -0.0253  -0.0250   0.0131   0.00    1.0
2173 294307.000   1535068.4048  -4470499.5360   4268000.8625   2   9   0.0313   0.0464   0.0314  -0.0251  -0.0248   0.0128   0.00    1.0
2173 294308.000   1535068.4040  -4470499.5331   4268000.8655   2   9   0.0312   0.0461   0.0313  -0.0249  -0.0246   0.0128   0.00    1.0
2173 294309.000   1535068.4050  -4470499.5397   4268000.8740   2   9   0.0311   0.0458   0.0311  -0.0246  -0.0245   0.0128   0.00    1.0
2173 294310.000   1535068.4068  -4470499.5388   4268000.8748   2   9   0.0309   0.0455   0.0310  -0.0244  -0.0243   0.0125   0.00    1.0
2173 294311.000   1535068.4065  -4470499.5405   4268000.8776   2   9   0.0307   0.0452   0.0308  -0.0242  -0.0241   0.0124   0.00    1.0
2173 294312.000   1535068.4042  -4470499.5376   4268000.8759   2   9   0.0306   0.0449   0.0307  -0.0240  -0.0239   0.0123   0.00    1.0
2173 294313.000   1535068.4063  -4470499.5392   4268000.8731   2   9   0.0304   0.0446   0.0304  -0.0238  -0.0237   0.0123   0.00    1.0
2173 294314.000   1535068.4064  -4470499.5383   4268000.8747   2   9   0.0303   0.0443   0.0302  -0.0236  -0.0236   0.0121   0.00    1.0
2173 294315.000   1535068.4084  -4470499.5413   4268000.8700   2   9   0.0302   0.0440   0.0301  -0.0234  -0.0234   0.0121   0.00    1.0
2173 294316.000   1535068.4064  -4470499.5364   4268000.8663   2   9   0.0301   0.0437   0.0300  -0.0231  -0.0232   0.0117   0.00    1.0
2173 294317.000   1535068.4055  -4470499.5412   4268000.8627   2   9   0.0300   0.0435   0.0297  -0.0229  -0.0231   0.0117   0.00    1.0
2173 294318.000   1535068.4054  -4470499.5440   4268000.8626   2   9   0.0298   0.0432   0.0296  -0.0228  -0.0229   0.0117   0.00    1.0
2173 294319.000   1535068.4046  -4470499.5410   4268000.8626   2   9   0.0297   0.0429   0.0294  -0.0225  -0.0228   0.0114   0.00    1.0
2173 294320.000   1535068.4103  -4470499.5551   4268000.8611   2   9   0.0295   0.0426   0.0292  -0.0224  -0.0226   0.0114   0.00    1.0
2173 294321.000   1535068.4086  -4470499.5569   4268000.8621   2   9   0.0293   0.0424   0.0290  -0.0222  -0.0224   0.0113   0.00    1.0
2173 294322.000   1535068.4042  -4470499.5482   4268000.8552   2   9   0.0292   0.0421   0.0288  -0.0220  -0.0222   0.0113   0.00    1.0
2173 294323.000   1535068.4070  -4470499.5532   4268000.8561   2   9   0.0292   0.0418   0.0287  -0.0218  -0.0221   0.0111   0.00    1.0
2173 294324.000   1535068.4084  -4470499.5568   4268000.8559   2   9   0.0291   0.0416   0.0286  -0.0216  -0.0219   0.0111   0.00    1.0
2173 294325.000   1535068.4069  -4470499.5514   4268000.8489   2   9   0.0289   0.0413   0.0285  -0.0214  -0.0218   0.0110   0.00    1.0
2173 294326.000   1535068.4066  -4470499.5458   4268000.8416   2   9   0.0288   0.0411   0.0282  -0.0212  -0.0217   0.0110   0.00    1.0
2173 294327.000   1535068.4066  -4470499.5447   4268000.8397   2   9   0.0287   0.0408   0.0281  -0.0211  -0.0215   0.0108   0.00    1.0
2173 294328.000   1535068.4024  -4470499.5403   4268000.8331   2   9   0.0285   0.0406   0.0280  -0.0208  -0.0214   0.0107   0.00    1.0
2173 294329.000   1535068.4005  -4470499.5387   4268000.8286   2   9   0.0284   0.0404   0.0278  -0.0207  -0.0212   0.0106   0.00    1.0
2173 294330.000   1535068.4032  -4470499.5420   4268000.8271   2   9   0.0283   0.0401   0.0276  -0.0205  -0.0211   0.0105   0.00    1.0
2173 294331.000   1535068.3989  -4470499.5398   4268000.8205   2   9   0.0282   0.0399   0.0275  -0.0203  -0.0209   0.0104   0.00    1.0
2173 294332.000   1535068.4020  -4470499.5431   4268000.8211   2   9   0.0281   0.0396   0.0273  -0.0202  -0.0208   0.0105   0.00    1.0
2173 294333.000   1535068.4016  -4470499.5462   4268000.8200   2   9   0.0280   0.0394   0.0272  -0.0200  -0.0207   0.0102   0.00    1.0
2173 294334.000   1535068.4011  -4470499.5459   4268000.8167   2   9   0.0279   0.0392   0.0270  -0.0199  -0.0205   0.0102   0.00    1.0
2173 294335.000   1535068.4006  -4470499.5510   4268000.8184   2   9   0.0277   0.0389   0.0269  -0.0197  -0.0205   0.0101   0.00    1.0
2173 294336.000   1535068.4059  -4470499.5589   4268000.8205   2   9   0.0277   0.0387   0.0267  -0.0195  -0.0203   0.0100   0.00    1.0
2173 294337.000   1535068.4030  -4470499.5594   4268000.8181   2   9   0.0275   0.0385   0.0266  -0.0194  -0.0202   0.0099   0.00    1.0
2173 294338.000   1535068.4046  -4470499.5619   4268000.8200   2   9   0.0274   0.0383   0.0265  -0.0192  -0.0201   0.0100   0.00    1.0
2173 294339.000   1535068.4010  -4470499.5552   4268000.8145   2   9   0.0274   0.0381   0.0264  -0.0190  -0.0199   0.0099   0.00    1.0
2173 294340.000   1535068.4045  -4470499.5621   4268000.8171   2   9   0.0273   0.0379   0.0262  -0.0188  -0.0198   0.0096   0.00    1.0
2173 294341.000   1535068.4024  -4470499.5583   4268000.8133   2   9   0.0272   0.0376   0.0261  -0.0187  -0.0197   0.0094   0.00    1.0
2173 294342.000   1535068.3990  -4470499.5541   4268000.8104   2   9   0.0270   0.0375   0.0259  -0.0186  -0.0195   0.0095   0.00    1.0
2173 294343.000   1535068.3995  -4470499.5570   4268000.8091   2   9   0.0269   0.0373   0.0258  -0.0184  -0.0194   0.0094   0.00    1.0
2173 294344.000   1535068.3997  -4470499.5567   4268000.8057   2   9   0.0269   0.0370   0.0257  -0.0183  -0.0193   0.0094   0.00    1.0
2173 294345.000   1535068.3995  -4470499.5594   4268000.8045   2   9   0.0268   0.0369   0.0256  -0.0181  -0.0192   0.0092   0.00    1.0
2173 294346.000   1535068.4012  -4470499.5625   4268000.8045   2   9   0.0267   0.0366   0.0254  -0.0180  -0.0190   0.0093   0.00    1.0
2173 294347.000   1535068.3969  -4470499.5553   4268000.8028   2   9   0.0265   0.0364   0.0252  -0.0178  -0.0189   0.0092   0.00    1.0
2173 294348.000   1535068.4006  -4470499.5618   4268000.8005   2   9   0.0265   0.0363   0.0251  -0.0176  -0.0189   0.0091   0.00    1.0
2173 294349.000   1535068.3979  -4470499.5606   4268000.8002   2   9   0.0264   0.0360   0.0250  -0.0176  -0.0187   0.0091   0.00    1.0
2173 294350.000   1535068.3986  -4470499.5615   4268000.7986   2   9   0.0263   0.0359   0.0249  -0.0174  -0.0186   0.0089   0.00    1.0
2173 294351.000   1535068.3967  -4470499.5601   4268000.7960   2   9   0.0261   0.0357   0.0249  -0.0172  -0.0185   0.0089   0.00    1.0
2173 294352.000   1535068.3966  -4470499.5599   4268000.7932   2   9   0.0261   0.0355   0.0247  -0.0171  -0.0184   0.0087   0.00    1.0
2173 294353.000   1535068.3939  -4470499.5569   4268000.7918   2   9   0.0260   0.0353   0.0245  -0.0170  -0.0183   0.0088   0.00    1.0
2173 294354.000   1535068.3900  -4470499.5529   4268000.7856   2   9   0.0259   0.0351   0.0245  -0.0169  -0.0182   0.0085   0.00    1.0
2173 294355.000   1535068.3918  -4470499.5522   4268000.7873   2   9   0.0259   0.0350   0.0243  -0.0167  -0.0181   0.0086   0.00    1.0
2173 294356.000   1535068.3911  -4470499.5541   4268000.7852   2   9   0.0257   0.0348   0.0241  -0.0166  -0.0180   0.0085   0.00    1.0
2173 294357.000   1535068.3905  -4470499.5559   4268000.7824   2   9   0.0256   0.0346   0.0240  -0.0164  -0.0179   0.0085   0.00    1.0
2173 294358.000   1535068.3894  -4470499.5562   4268000.7851   2   9   0.0257   0.0344   0.0239  -0.0163  -0.0178   0.0084   0.00    1.0
2173 294359.000   1535068.3898  -4470499.5574   4268000.7862   2   9   0.0254   0.0343   0.0239  -0.0161  -0.0177   0.0084   0.00    1.0
2173 294360.000   1535068.3889  -4470499.5585   4268000.7866   2   9   0.0254   0.0341   0.0238  -0.0160  -0.0176   0.0082   0.00    1.0
2173 294361.000   1535068.3842  -4470499.5519   4268000.7851   2   9   0.0254   0.0339   0.0236  -0.0159  -0.0175   0.0081   0.00    1.0
2173 294362.000   1535068.3861  -4470499.5557   4268000.7850   2   9   0.0253   0.0338   0.0234  -0.0157  -0.0174   0.0084   0.00    1.0
2173 294363.000   1535068.3835  -4470499.5507   4268000.7834   2   9   0.0251   0.0336   0.0234  -0.0157  -0.0173   0.0081   0.00    1.0
2173 294364.000   1535068.3871  -4470499.5577   4268000.7869   2   9   0.0251   0.0334   0.0233  -0.0155  -0.0172   0.0080   0.00    1.0
2173 294365.000   1535068.3814  -4470499.5512   4268000.7833   2   9   0.0250   0.0333   0.0232  -0.0154  -0.0171   0.0082   0.00    1.0
2173 294366.000   1535068.3850  -4470499.5592   4268000.7846   2   9   0.0249   0.0331   0.0231  -0.0153  -0.0170   0.0080   0.00    1.0
2173 294367.000   1535068.3812  -4470499.5531   4268000.7806   2   9   0.0248   0.0329   0.0230  -0.0152  -0.0170   0.0079   0.00    1.0
2173 294368.000   1535068.3827  -4470499.5587   4268000.7824   2   9   0.0247   0.0328   0.0228  -0.0151  -0.0168   0.0080   0.00    1.0
2173 294369.000   1535068.3776  -4470499.5469   4268000.7786   2   9   0.0247   0.0326   0.0227  -0.0149  -0.0168   0.0080   0.00    1.0
2173 294370.000   1535068.3786  -4470499.5509   4268000.7763   2   9   0.0245   0.0325   0.0226  -0.0148  -0.0166   0.0078   0.00    1.0
2173 294371.000   1535068.3760  -4470499.5413   4268000.7730   2   9   0.0246   0.0323   0.0225  -0.0147  -0.0166   0.0078   0.00    1.0
2173 294372.000   1535068.3751  -4470499.5426   4268000.7752   2   9   0.0244   0.0322   0.0224  -0.0146  -0.0164   0.0078   0.00    1.0
2173 294373.000   1535068.3746  -4470499.5394   4268000.7736   2   9   0.0244   0.0320   0.0223  -0.0145  -0.0165   0.0076   0.00    1.0
2173 294374.000   1535068.3722  -4470499.5369   4268000.7728   2   9   0.0243   0.0319   0.0222  -0.0144  -0.0163   0.0076   0.00    1.0
2173 294375.000   1535068.3832  -4470499.5458   4268000.7857   2   9   0.0243   0.0318   0.0221  -0.0142  -0.0162   0.0074   0.00    1.0
2173 294376.000   1535068.3842  -4470499.5525   4268000.7851   2   9   0.0241   0.0316   0.0220  -0.0142  -0.0162   0.0076   0.00    1.0
2173 294377.000   1535068.3793  -4470499.5496   4268000.7859   2   9   0.0241   0.0314   0.0220  -0.0141  -0.0161   0.0074   0.00    1.0
2173 294378.000   1535068.3813  -4470499.5555   4268000.7927   2   9   0.0239   0.0313   0.0218  -0.0140  -0.0160   0.0073   0.00    1.0
2173 294379.000   1535068.3749  -4470499.5486   4268000.7907   2   9   0.0239   0.0312   0.0217  -0.0139  -0.0159   0.0073   0.00    1.0
2173 294380.000   1535068.3766  -4470499.5517   4268000.7969   2   9   0.0237   0.0310   0.0216  -0.0138  -0.0158   0.0072   0.00    1.0
2173 294381.000   1535068.3724  -4470499.5455   4268000.7958   2   9   0.0238   0.0309   0.0215  -0.0136  -0.0158   0.0073   0.00    1.0
2173 294382.000   1535068.3750  -4470499.5518   4268000.8004   2   9   0.0237   0.0307   0.0214  -0.0136  -0.0157   0.0073   0.00    1.0
2173 294383.000   1535068.3725  -4470499.5400   4268000.8023   2   9   0.0236   0.0306   0.0213  -0.0134  -0.0157   0.0072   0.00    1.0
2173 294384.000   1535068.3744  -4470499.5492   4268000.8049   2   9   0.0236   0.0305   0.0213  -0.0133  -0.0155   0.0071   0.00    1.0
2173 294385.000   1535068.3714  -4470499.5454   4268000.8054   2   9   0.0236   0.0304   0.0212  -0.0131  -0.0155   0.0068   0.00    1.0
2173 294386.000   1535068.3711  -4470499.5454   4268000.8106   2   9   0.0235   0.0302   0.0211  -0.0131  -0.0154   0.0069   0.00    1.0
2173 294387.000   1535068.3694  -4470499.5442   4268000.8115   2   9   0.0234   0.0301   0.0210  -0.0130  -0.0153   0.0069   0.00    1.0
2173 294388.000   1535068.3657  -4470499.5402   4268000.8137   2   9   0.0232   0.0300   0.0208  -0.0130  -0.0152   0.0071   0.00    1.0
2173 294389.000   1535068.3661  -4470499.5394   4268000.8165   2   9   0.0232   0.0299   0.0209  -0.0128  -0.0152   0.0068   0.00    1.0
2173 294390.000   1535068.3667  -4470499.5401   4268000.8190   2   9   0.0231   0.0297   0.0208  -0.0128  -0.0151   0.0068   0.00    1.0
2173 294391.000   1535068.3673  -4470499.5384   4268000.8211   2   9   0.0232   0.0296   0.0205  -0.0127  -0.0150   0.0068   0.00    1.0
2173 294392.000   1535068.3662  -4470499.5331   4268000.8186   2   9   0.0230   0.0295   0.0205  -0.0126  -0.0150   0.0071   0.00    1.0
2173 294393.000   1535068.3682  -4470499.5313   4268000.8225   2   9   0.0229   0.0294   0.0203  -0.0124  -0.0149   0.0069   0.00    1.0
2173 294394.000   1535068.3679  -4470499.5295   4268000.8200   2   9   0.0230   0.0293   0.0203  -0.0123  -0.0148   0.0067   0.00    1.1
2173 294395.000   1535068.3637  -4470499.5221   4268000.8183   2   9   0.0229   0.0291   0.0203  -0.0123  -0.0148   0.0068   0.00    1.1
2173 294396.000   1535068.3657  -4470499.5253   4268000.8175   2   9   0.0229   0.0290   0.0202  -0.0121  -0.0147   0.0064   0.00    1.1
2173 294397.000   1535068.3674  -4470499.5255   4268000.8191   2   9   0.0228   0.0289   0.0201  -0.0121  -0.0147   0.0064   0.00    1.1
2173 294398.000   1535068.3649  -4470499.5208   4268000.8152   2   9   0.0227   0.0288   0.0200  -0.0120  -0.0146   0.0067   0.00    1.1
2173 294399.000   1535068.3665  -4470499.5202   4268000.8176   2   9   0.0225   0.0286   0.0200  -0.0120  -0.0145   0.0063   0.00    1.1
2173 294400.000   1535068.3689  -4470499.5199   4268000.8157   2   9   0.0226   0.0286   0.0198  -0.0118  -0.0145   0.0063   0.00    1.1
2173 294401.000   1535068.3703  -4470499.5228   4268000.8179   2   9   0.0224   0.0285   0.0198  -0.0117  -0.0144   0.0062   0.00    1.1
2173 294402.000   1535068.3658  -4470499.5137   4268000.8140   2   9   0.0224   0.0283   0.0196  -0.0116  -0.0143   0.0063   0.00    1.1
2173 294403.000   1535068.3677  -4470499.5145   4268000.8138   2   9   0.0224   0.0282   0.0197  -0.0116  -0.0143   0.0061   0.00    1.1
2173 294404.000   1535068.3673  -4470499.5144   4268000.8136   2   9   0.0222   0.0281   0.0195  -0.0115  -0.0142   0.0064   0.00    1.1
2173 294405.000   1535068.3652  -4470499.5095   4268000.8153   2   9   0.0223   0.0280   0.0194  -0.0114  -0.0141   0.0063   0.00    1.1
2173 294406.000   1535068.3680  -4470499.5147   4268000.8140   2   9   0.0222   0.0279   0.0193  -0.0113  -0.0141   0.0065   0.00    1.1
2173 294407.000   1535068.3707  -4470499.5214   4268000.8151   2   9   0.0221   0.0278   0.0193  -0.0113  -0.0141   0.0061   0.00    1.1
2173 294408.000   1535068.3693  -4470499.5172   4268000.8154   2   9   0.0221   0.0277   0.0192  -0.0112  -0.0140   0.0063   0.00    1.1
2173 294409.000   1535068.3676  -4470499.5112   4268000.8087   2   9   0.0220   0.0276   0.0191  -0.0112  -0.0139   0.0063   0.00    1.1
2173 294410.000   1535068.3689  -4470499.5145   4268000.8065   2   9   0.0220   0.0275   0.0190  -0.0110  -0.0139   0.0062   0.00    1.1
2173 294411.000   1535068.3687  -4470499.5093   4268000.8049   2   9   0.0219   0.0274   0.0189  -0.0109  -0.0138   0.0062   0.00    1.1
2173 294412.000   1535068.3723  -4470499.5153   4268000.8022   2   9   0.0219   0.0273   0.0188  -0.0109  -0.0137   0.0062   0.00    1.1
2173 294413.000   1535068.3709  -4470499.5160   4268000.8014   2   9   0.0218   0.0272   0.0188  -0.0108  -0.0137   0.0061   0.00    1.1
2173 294414.000   1535068.3756  -4470499.5191   4268000.7977   2   9   0.0218   0.0271   0.0187  -0.0107  -0.0136   0.0062   0.00    1.1
2173 294415.000   1535068.3754  -4470499.5176   4268000.7963   2   9   0.0218   0.0270   0.0187  -0.0106  -0.0135   0.0060   0.00    1.1
2173 294416.000   1535068.3767  -4470499.5213   4268000.7947   2   9   0.0216   0.0269   0.0186  -0.0105  -0.0135   0.0059   0.00    1.1
2173 294417.000   1535068.3766  -4470499.5194   4268000.7908   2   9   0.0216   0.0268   0.0185  -0.0104  -0.0136   0.0060   0.00    1.1
2173 294418.000   1535068.3804  -4470499.5228   4268000.7898   2   9   0.0217   0.0267   0.0185  -0.0103  -0.0135   0.0057   0.00    1.1
2173 294419.000   1535068.3783  -4470499.5208   4268000.7878   2   9   0.0216   0.0266   0.0184  -0.0103  -0.0134   0.0055   0.00    1.1
2173 294420.000   1535068.3834  -4470499.5329   4268000.7906   2   9   0.0216   0.0265   0.0183  -0.0102  -0.0133   0.0056   0.00    1.1
2173 294421.000   1535068.3827  -4470499.5299   4268000.7881   2   9   0.0215   0.0264   0.0183  -0.0101  -0.0133   0.0058   0.00    1.1
2173 294422.000   1535068.3835  -4470499.5335   4268000.7874   2   9   0.0215   0.0264   0.0183  -0.0100  -0.0133   0.0056   0.00    1.1
2173 294423.000   1535068.3829  -4470499.5337   4268000.7857   2   9   0.0213   0.0262   0.0181  -0.0101  -0.0132   0.0058   0.00    1.2
2173 294424.000   1535068.3850  -4470499.5351   4268000.7853   2   9   0.0212   0.0261   0.0180  -0.0100  -0.0131   0.0057   0.00    1.2
2173 294425.000   1535068.3843  -4470499.5371   4268000.7851   2   9   0.0211   0.0261   0.0180  -0.0099  -0.0131   0.0055   0.00    1.2
2173 294426.000   1535068.3875  -4470499.5419   4268000.7817   2   9   0.0212   0.0260   0.0180  -0.0099  -0.0131   0.0056   0.00    1.2
2173 294427.000   1535068.3825  -4470499.5362   4268000.7748   2   9   0.0211   0.0259   0.0179  -0.0098  -0.0130   0.0055   0.00    1.2
2173 294428.000   1535068.3895  -4470499.5413   4268000.7804   2   9   0.0210   0.0258   0.0178  -0.0098  -0.0129   0.0055   0.00    1.2
2173 294429.000   1535068.3904  -4470499.5449   4268000.7789   2   9   0.0209   0.0257   0.0177  -0.0097  -0.0130   0.0058   0.00    1.2
2173 294430.000   1535068.3898  -4470499.5416   4268000.7740   2   9   0.0210   0.0256   0.0177  -0.0096  -0.0129   0.0056   0.00    1.2
2173 294431.000   1535068.3908  -4470499.5451   4268000.7720   2   9   0.0210   0.0256   0.0176  -0.0094  -0.0128   0.0055   0.00    1.2
2173 294432.000   1535068.3348  -4470499.5037   4268000.7809   2   9   0.0210   0.0255   0.0175  -0.0093  -0.0128   0.0054   0.00    1.2
2173 294433.000   1535068.3303  -4470499.4948   4268000.7838   2   9   0.0209   0.0253   0.0175  -0.0094  -0.0128   0.0056   0.00    1.2
2173 294434.000   1535068.3261  -4470499.4888   4268000.7840   2   9   0.0208   0.0253   0.0175  -0.0093  -0.0128   0.0053   0.00    1.2
2173 294435.000   1535068.3212  -4470499.4838   4268000.7912   2   9   0.0207   0.0252   0.0174  -0.0092  -0.0127   0.0057   0.00    1.2
2173 294436.000   1535068.3084  -4470499.4718   4268000.7991   2   9   0.0206   0.0251   0.0174  -0.0092  -0.0126   0.0055   0.00    1.2
2173 294437.000   1535068.2992  -4470499.4541   4268000.8027   2   9   0.0207   0.0250   0.0172  -0.0091  -0.0126   0.0053   0.00    1.1
2173 294438.000   1535068.2898  -4470499.4397   4268000.8072   2   9   0.0207   0.0250   0.0172  -0.0090  -0.0125   0.0052   0.00    1.1
2173 294439.000   1535068.2829  -4470499.4279   4268000.8128   2   9   0.0205   0.0249   0.0170  -0.0091  -0.0125   0.0055   0.00    1.1
2173 294440.000   1535068.2729  -4470499.4113   4268000.8183   2   9   0.0204   0.0248   0.0171  -0.0089  -0.0124   0.0054   0.00    1.1
2173 294441.000   1535068.2680  -4470499.3997   4268000.8200   2   9   0.0206   0.0247   0.0170  -0.0089  -0.0124   0.0053   0.00    1.1
2173 294442.000   1535068.2632  -4470499.3911   4268000.8276   2   9   0.0205   0.0247   0.0170  -0.0087  -0.0124   0.0051   0.00    1.1
2173 294443.000   1535068.2590  -4470499.3873   4268000.8322   2   9   0.0204   0.0246   0.0169  -0.0087  -0.0124   0.0052   0.00    1.1
2173 294444.000   1535068.2570  -4470499.3825   4268000.8396   2   9   0.0204   0.0245   0.0168  -0.0087  -0.0122   0.0053   0.00    1.1
2173 294445.000   1535068.2483  -4470499.3711   4268000.8456   2   9   0.0203   0.0244   0.0167  -0.0086  -0.0122   0.0052   0.00    1.1
2173 294446.000   1535068.2427  -4470499.3630   4268000.8503   2   9   0.0202   0.0244   0.0167  -0.0086  -0.0122   0.0053   0.00    1.0
2173 294447.000   1535068.2390  -4470499.3578   4268000.8571   2   9   0.0203   0.0243   0.0166  -0.0085  -0.0122   0.0053   0.00    1.0
2173 294448.000   1535068.2332  -4470499.3458   4268000.8619   2   9   0.0203   0.0242   0.0166  -0.0084  -0.0121   0.0052   0.00    1.0
2173 294449.000   1535068.2301  -4470499.3435   4268000.8704   2   9   0.0201   0.0242   0.0166  -0.0084  -0.0121   0.0051   0.00    1.0
2173 294450.000   1535068.2240  -4470499.3319   4268000.8749   2   9   0.0202   0.0241   0.0163  -0.0083  -0.0120   0.0052   0.00    1.0
2173 294451.000   1535068.2186  -4470499.3235   4268000.8779   2   9   0.0200   0.0240   0.0164  -0.0083  -0.0120   0.0050   0.00    1.0
2173 294452.000   1535068.2121  -4470499.3114   4268000.8827   2   9   0.0200   0.0240   0.0164  -0.0082  -0.0120   0.0048   0.00    1.0
2173 294453.000   1535068.2078  -4470499.3036   4268000.8842   2   9   0.0200   0.0239   0.0163  -0.0081  -0.0120   0.0050   0.00    1.0
2173 294454.000   1535068.2002  -4470499.2922   4268000.8875   2   9   0.0200   0.0238   0.0163  -0.0081  -0.0120   0.0050   0.00    1.0
2173 294455.000   1535068.1980  -4470499.2852   4268000.8941   2   9   0.0200   0.0237   0.0162  -0.0082  -0.0118   0.0050   0.00    1.0
2173 294456.000   1535068.1926  -4470499.2799   4268000.8969   2   9   0.0200   0.0237   0.0162  -0.0080  -0.0119   0.0051   0.00    1.0
2173 294457.000   1535068.1862  -4470499.2666   4268000.9004   2   9   0.0199   0.0236   0.0160  -0.0079  -0.0118   0.0050   0.00    1.1
2173 294458.000   1535068.1820  -4470499.2589   4268000.9059   2   9   0.0198   0.0236   0.0160  -0.0078  -0.0118   0.0050   0.00    1.1
2173 294459.000   1535068.1763  -4470499.2508   4268000.9086   2   9   0.0197   0.0235   0.0159  -0.0079  -0.0117   0.0050   0.00    1.1
2173 294460.000   1535068.1701  -4470499.2453   4268000.9113   2   9   0.0198   0.0234   0.0160  -0.0078  -0.0118   0.0048   0.00    1.1
2173 294461.000   1535068.1678  -4470499.2379   4268000.9158   2   9   0.0196   0.0233   0.0157  -0.0079  -0.0117   0.0052   0.00    1.1
2173 294462.000   1535068.1643  -4470499.2331   4268000.9182   2   9   0.0196   0.0233   0.0158  -0.0077  -0.0116   0.0047   0.00    1.1
2173 294463.000   1535068.1614  -4470499.2310   4268000.9224   2   9   0.0195   0.0232   0.0157  -0.0077  -0.0116   0.0050   0.00    1.1
2173 294464.000   1535068.1581  -4470499.2292   4268000.9254   2   9   0.0195   0.0231   0.0157  -0.0077  -0.0115   0.0047   0.00    1.1
2173 294465.000   1535068.1534  -4470499.2187   4268000.9267   2   9   0.0194   0.0231   0.0158  -0.0076  -0.0115   0.0050   0.00    1.1
2173 294466.000   1535068.1489  -4470499.2136   4268000.9312   2   9   0.0195   0.0230   0.0156  -0.0075  -0.0115   0.0049   0.00    1.1
2173 294467.000   1535068.1471  -4470499.2125   4268000.9372   2   9   0.0195   0.0230   0.0157  -0.0075  -0.0115   0.0046   0.00    1.2
2173 294468.000   1535068.1430  -4470499.2033   4268000.9358   2   9   0.0194   0.0229   0.0156  -0.0074  -0.0114   0.0047   0.00    1.2
2173 294469.000   1535068.1370  -4470499.1933   4268000.9381   2   9   0.0194   0.0228   0.0155  -0.0074  -0.0114   0.0049   0.00    1.2
2173 294470.000   1535068.1324  -4470499.1858   4268000.9395   2   9   0.0193   0.0228   0.0154  -0.0073  -0.0114   0.0050   0.00    1.2
2173 294471.000   1535068.1328  -4470499.1874   4268000.9436   2   9   0.0193   0.0227   0.0155  -0.0073  -0.0113   0.0049   0.00    1.2
2173 294472.000   1535068.1250  -4470499.1735   4268000.9436   2   9   0.0192   0.0227   0.0153  -0.0073  -0.0112   0.0046   0.00    1.2
2173 294473.000   1535068.1225  -4470499.1708   4268000.9482   2   9   0.0192   0.0226   0.0154  -0.0073  -0.0112   0.0046   0.00    1.2
2173 294474.000   1535068.1179  -4470499.1655   4268000.9498   2   9   0.0192   0.0225   0.0154  -0.0072  -0.0113   0.0045   0.00    1.2
2173 294475.000   1535068.1138  -4470499.1609   4268000.9510   2   9   0.0191   0.0225   0.0152  -0.0072  -0.0112   0.0047   0.00    1.2
2173 294476.000   1535068.1118  -4470499.1578   4268000.9548   2   9   0.0190   0.0224   0.0150  -0.0072  -0.0112   0.0051   0.00    1.2
2173 294477.000   1535068.1082  -4470499.1503   4268000.9562   2   9   0.0191   0.0224   0.0150  -0.0070  -0.0111   0.0047   0.00    1.2
2173 294478.000   1535068.1060  -4470499.1463   4268000.9575   2   9   0.0189   0.0223   0.0152  -0.0070  -0.0111   0.0045   0.00    1.3
2173 294479.000   1535068.0997  -4470499.1367   4268000.9575   2   9   0.0188   0.0222   0.0149  -0.0071  -0.0110   0.0049   0.00    1.3
2173 294480.000   1535068.0943  -4470499.1333   4268000.9604   2   9   0.0190   0.0222   0.0149  -0.0069  -0.0110   0.0044   0.00    1.3
2173 294481.000   1535068.0936  -4470499.1357   4268000.9631   2   9   0.0191   0.0222   0.0150  -0.0068  -0.0111   0.0043   0.00    1.3
2173 294482.000   1535068.0870  -4470499.1244   4268000.9624   2   9   0.0189   0.0221   0.0149  -0.0069  -0.0110   0.0045   0.00    1.3
2173 294483.000   1535068.0846  -4470499.1239   4268000.9643   2   9   0.0189   0.0220   0.0148  -0.0068  -0.0110   0.0047   0.00    1.3
2173 294484.000   1535068.0822  -4470499.1196   4268000.9645   2   9   0.0188   0.0220   0.0147  -0.0068  -0.0110   0.0046   0.00    1.3
2173 294485.000   1535068.0782  -4470499.1111   4268000.9649   2   9   0.0187   0.0219   0.0147  -0.0068  -0.0109   0.0044   0.00    1.3
2173 294486.000   1535068.0730  -4470499.1055   4268000.9656   2   9   0.0188   0.0219   0.0147  -0.0067  -0.0110   0.0043   0.00    1.3
2173 294487.000   1535068.0720  -4470499.1038   4268000.9640   2   9   0.0188   0.0219   0.0146  -0.0066  -0.0109   0.0045   0.00    1.3
2173 294488.000   1535068.0705  -4470499.1051   4268000.9676   2   9   0.0186   0.0218   0.0146  -0.0066  -0.0108   0.0047   0.00    1.3
2173 294489.000   1535068.0647  -4470499.0982   4268000.9679   2   9   0.0187   0.0217   0.0147  -0.0065  -0.0109   0.0045   0.00    1.3
2173 294490.000   1535068.0647  -4470499.1034   4268000.9716   2   9   0.0186   0.0217   0.0144  -0.0065  -0.0107   0.0045   0.00    1.3
2173 294491.000   1535068.0602  -4470499.0953   4268000.9696   2   9   0.0186   0.0216   0.0145  -0.0064  -0.0107   0.0044   0.00    1.3
2173 294492.000   1535068.0566  -4470499.0904   4268000.9704   2   9   0.0186   0.0216   0.0144  -0.0064  -0.0107   0.0040   0.00    1.4
2173 294493.000   1535068.0536  -4470499.0855   4268000.9748   2   9   0.0185   0.0215   0.0144  -0.0065  -0.0107   0.0044   0.00    1.4
2173 294494.000   1535068.0491  -4470499.0766   4268000.9741   2   9   0.0185   0.0215   0.0144  -0.0063  -0.0107   0.0045   0.00    1.4
2173 294495.000   1535068.0398  -4470499.0569   4268000.9579   2   9   0.0184   0.0214   0.0143  -0.0065  -0.0107   0.0046   0.00    1.4
2173 294496.000   1535068.0382  -4470499.0547   4268000.9607   2   9   0.0184   0.0214   0.0143  -0.0064  -0.0107   0.0046   0.00    1.4
2173 294497.000   1535068.0344  -4470499.0492   4268000.9581   2   9   0.0185   0.0213   0.0142  -0.0062  -0.0106   0.0044   0.00    1.4
2173 294498.000   1535068.0320  -4470499.0483   4268000.9566   2   9   0.0184   0.0213   0.0142  -0.0063  -0.0105   0.0045   0.00    1.4
2173 294499.000   1535068.0297  -4470499.0457   4268000.9556   2   9   0.0183   0.0212   0.0143  -0.0063  -0.0105   0.0045   0.00    1.4
2173 294500.000   1535068.0246  -4470499.0377   4268000.9533   2   9   0.0184   0.0212   0.0142  -0.0062  -0.0106   0.0041   0.00    1.4
2173 294501.000   1535068.0207  -4470499.0311   4268000.9547   2   9   0.0183   0.0212   0.0141  -0.0062  -0.0104   0.0044   0.00    1.4
2173 294502.000   1535068.0156  -4470499.0217   4268000.9504   2   9   0.0182   0.0211   0.0140  -0.0062  -0.0105   0.0046   0.00    1.4
2173 294503.000   1535068.0128  -4470499.0223   4268000.9544   2   9   0.0183   0.0210   0.0140  -0.0061  -0.0105   0.0046   0.00    1.4
2173 294504.000   1535068.0080  -4470499.0160   4268000.9536   2   9   0.0182   0.0210   0.0139  -0.0060  -0.0105   0.0044   0.00    1.4
2173 294505.000   1535068.0038  -4470499.0094   4268000.9567   2   9   0.0183   0.0210   0.0140  -0.0059  -0.0104   0.0043   0.00    1.4
2173 294506.000   1535068.0023  -4470499.0075   4268000.9539   2   9   0.0182   0.0209   0.0139  -0.0059  -0.0104   0.0040   0.00    1.4
2173 294507.000   1535068.0016  -4470499.0092   4268000.9547   2   9   0.0181   0.0209   0.0138  -0.0060  -0.0103   0.0044   0.00    1.4
2173 294508.000   1535067.9984  -4470499.0050   4268000.9539   2   9   0.0182   0.0208   0.0139  -0.0059  -0.0104   0.0040   0.00    1.4
2173 294509.000   1535067.9955  -4470498.9979   4268000.9536   2   9   0.0181   0.0208   0.0139  -0.0059  -0.0104   0.0044   0.00    1.5
2173 294510.000   1535067.9933  -4470498.9984   4268000.9547   2   9   0.0178   0.0207   0.0139  -0.0060  -0.0103   0.0042   0.00    1.5
2173 294511.000   1535067.9934  -4470498.9962   4268000.9554   2   9   0.0179   0.0206   0.0137  -0.0060  -0.0103   0.0042   0.00    1.5
2173 294512.000   1535067.9859  -4470498.9878   4268000.9503   2   9   0.0180   0.0206   0.0137  -0.0059  -0.0103   0.0042   0.00    1.5
2173 294513.000   1535067.9832  -4470498.9837   4268000.9520   2   9   0.0179   0.0206   0.0135  -0.0057  -0.0103   0.0043   0.00    1.5
2173 294514.000   1535067.9790  -4470498.9802   4268000.9533   2   9   0.0179   0.0206   0.0136  -0.0058  -0.0102   0.0044   0.00    1.5
2173 294515.000   1535067.9796  -4470498.9776   4268000.9533   2   9   0.0177   0.0205   0.0135  -0.0058  -0.0102   0.0045   0.00    1.5
2173 294516.000   1535067.9766  -4470498.9774   4268000.9553   2   9   0.0179   0.0205   0.0135  -0.0057  -0.0102   0.0043   0.00    1.5
2173 294517.000   1535067.9731  -4470498.9726   4268000.9590   2   9   0.0179   0.0204   0.0134  -0.0056  -0.0102   0.0039   0.00    1.5
2173 294518.000   1535067.9693  -4470498.9660   4268000.9558   2   9   0.0178   0.0204   0.0134  -0.0057  -0.0102   0.0041   0.00    1.5
2173 294519.000   1535067.9708  -4470498.9668   4268000.9623   2   9   0.0178   0.0204   0.0135  -0.0056  -0.0101   0.0041   0.00    1.5
2173 294520.000   1535067.9691  -4470498.9701   4268000.9600   2   9   0.0177   0.0203   0.0133  -0.0055  -0.0101   0.0045   0.00    1.5
2173 294521.000   1535067.9659  -4470498.9643   4268000.9622   2   9   0.0178   0.0203   0.0134  -0.0055  -0.0101   0.0042   0.00    1.5
2173 294522.000   1535067.9613  -4470498.9581   4268000.9637   2   9   0.0178   0.0203   0.0134  -0.0055  -0.0100   0.0039   0.00    1.5
2173 294523.000   1535067.9570  -4470498.9539   4268000.9637   2   9   0.0176   0.0201   0.0133  -0.0057  -0.0101   0.0041   0.00    1.5
2173 294524.000   1535067.9523  -4470498.9465   4268000.9651   2   9   0.0177   0.0202   0.0133  -0.0053  -0.0101   0.0042   0.00    1.6
2173 294525.000   1535067.9493  -4470498.9437   4268000.9661   2   9   0.0175   0.0201   0.0132  -0.0054  -0.0101   0.0041   0.00    1.6
2173 294526.000   1535067.9463  -4470498.9347   4268000.9600   2   9   0.0175   0.0201   0.0133  -0.0054  -0.0100   0.0042   0.00    1.6
2173 294527.000   1535067.9490  -4470498.9340   4268000.9604   2   9   0.0176   0.0200   0.0132  -0.0052  -0.0100   0.0037   0.00    1.6
2173 294528.000   1535067.9504  -4470498.9371   4268000.9646   2   9   0.0175   0.0200   0.0132  -0.0052  -0.0099   0.0045   0.00    1.6
2173 294529.000   1535067.9474  -4470498.9317   4268000.9615   2   9   0.0175   0.0200   0.0131  -0.0053  -0.0100   0.0043   0.00    1.6
2173 294530.000   1535067.9520  -4470498.9338   4268000.9627   2   9   0.0174   0.0199   0.0132  -0.0055  -0.0099   0.0040   0.00    1.6
2173 294531.000   1535067.9522  -4470498.9323   4268000.9633   2   9   0.0174   0.0199   0.0130  -0.0054  -0.0099   0.0043   0.00    1.6
2173 294532.000   1535067.9514  -4470498.9284   4268000.9632   2   9   0.0174   0.0198   0.0130  -0.0054  -0.0099   0.0041   0.00    1.6
2173 294533.000   1535067.9460  -4470498.9204   4268000.9611   2   9   0.0174   0.0198   0.0129  -0.0052  -0.0099   0.0042   0.00    1.6
2173 294534.000   1535067.9476  -4470498.9241   4268000.9625   2   9   0.0175   0.0198   0.0130  -0.0052  -0.0098   0.0044   0.00    1.6
2173 294535.000   1535067.9428  -4470498.9141   4268000.9624   2   9   0.0173   0.0197   0.0129  -0.0051  -0.0098   0.0039   0.00    1.6
2173 294536.000   1535067.9428  -4470498.9135   4268000.9603   2   9   0.0173   0.0197   0.0130  -0.0051  -0.0098   0.0037   0.00    1.6
2173 294537.000   1535067.9396  -4470498.9139   4268000.9642   2   9   0.0174   0.0197   0.0129  -0.0051  -0.0097   0.0040   0.00    1.6
2173 294538.000   1535067.9385  -4470498.9067   4268000.9657   2   9   0.0172   0.0196   0.0129  -0.0052  -0.0098   0.0043   0.00    1.6
2173 294539.000   1535067.9383  -4470498.9067   4268000.9635   2   9   0.0173   0.0196   0.0129  -0.0051  -0.0096   0.0038   0.00    1.6
2173 294540.000   1535067.9398  -4470498.9080   4268000.9689   2   9   0.0172   0.0196   0.0126  -0.0051  -0.0097   0.0045   0.00    1.7
2173 294541.000   1535067.9414  -4470498.9046   4268000.9683   2   9   0.0172   0.0195   0.0128  -0.0053  -0.0097   0.0040   0.00    1.7
2173 294542.000   1535067.9432  -4470498.9069   4268000.9710   2   9   0.0172   0.0195   0.0128  -0.0051  -0.0097   0.0039   0.00    1.7
2173 294543.000   1535067.9447  -4470498.9091   4268000.9699   2   9   0.0172   0.0194   0.0126  -0.0051  -0.0098   0.0044   0.00    1.7
2173 294544.000   1535067.9212  -4470498.9054   4268000.9505   2   9   0.0171   0.0194   0.0126  -0.0049  -0.0096   0.0043   0.00    1.7
2173 294545.000   1535067.9192  -4470498.8948   4268000.9469   2   9   0.0170   0.0194   0.0125  -0.0051  -0.0097   0.0042   0.00    1.7
2173 294546.000   1535067.9202  -4470498.8948   4268000.9448   2   9   0.0171   0.0194   0.0126  -0.0050  -0.0096   0.0040   0.00    1.7
2173 294547.000   1535067.9191  -4470498.8870   4268000.9415   2   9   0.0169   0.0193   0.0126  -0.0051  -0.0096   0.0044   0.00    1.7
2173 294548.000   1535067.9169  -4470498.8902   4268000.9431   2   9   0.0170   0.0193   0.0126  -0.0049  -0.0097   0.0041   0.00    1.7
2173 294549.000   1535067.9218  -4470498.8905   4268000.9398   2   9   0.0168   0.0193   0.0125  -0.0049  -0.0095   0.0043   0.00    1.7
2173 294550.000   1535067.9267  -4470498.8919   4268000.9390   2   9   0.0169   0.0192   0.0124  -0.0049  -0.0096   0.0043   0.00    1.7
2173 294551.000   1535067.9261  -4470498.8914   4268000.9398   2   9   0.0168   0.0192   0.0125  -0.0049  -0.0095   0.0042   0.00    1.7
2173 294552.000   1535067.9297  -4470498.8939   4268000.9384   2   9   0.0169   0.0191   0.0123  -0.0048  -0.0096   0.0040   0.00    1.7
2173 294553.000   1535067.9307  -4470498.8922   4268000.9367   2   9   0.0170   0.0191   0.0123  -0.0047  -0.0095   0.0040   0.00    1.7
2173 294554.000   1535067.9230  -4470498.8708   4268000.9294   2   9   0.0169   0.0190   0.0124  -0.0049  -0.0095   0.0038   0.00    1.7
