     2.11           OBSERVATION DATA    M (MIXED)           RINEX VERSION / TYPE
CONVBIN 2.4.3                           20210831 165202 UTC PGM / RUN BY / DATE 
log: logs/21_08_31_06_47_44_al50_SNAL.rtcm                  COMMENT             
format: RTCM 3, station ID: 1544                            COMMENT             
1544                                                        MARKER NAME         
                                                            MARKER NUMBER       
                                                            OBSERVER / AGENCY   
495503              LEICA GRX1200+GNSS  8.20                REC # / TYPE / VERS 
                    GPPNULLANTENNA                          ANT # / TYPE        
   232974.8899 -5339225.5416  3469567.0549                  APPROX POSITION XYZ 
        0.0000        0.0000        0.0000                  ANTENNA: DELTA H/E/N
     1     1                                                WAVELENGTH FACT L1/2
     7    C1    L1    C2    L2    P2    C5    L5            # / TYPES OF OBSERV 
  2021     8    31     6    47   51.0000000     GPS         TIME OF FIRST OBS   
  2021     8    31     7    17   47.0000000     GPS         TIME OF LAST OBS    
                                                            END OF HEADER       
 21  8 31  6 47 51.0000000  0 13G 4G 7G 8G 9G16G21G27G30R 1R 2R12R21
                                R22
  23207163.691   121954468.285    23207160.475    95029440.624    23207160.046  
  23207162.923    91069891.797  
  20845471.732   109543693.156    20845466.836    85358699.431    20845466.228  
                                
  20560210.524   108044635.568    20560208.630    84190612.711    20560207.593  
  20560205.985    80682663.803  
  21607976.768   113550684.444    21607974.105    88481037.448    21607973.212  
  21607972.979    84794326.971  
  24819649.903   130428140.305                   101632294.980    24819644.471  
                                
  22816467.225   119901344.620                    93429593.524    22816461.167  
                                
  22390963.349   117665306.696    22390960.061    91687235.281    22390959.311  
  22390958.346    87866928.782  
  23074077.692   121255096.342    23074075.709    94484480.085    23074075.030  
  23074074.118    90547622.664  
  22523495.069   120400988.738                    93645241.049    22523501.449  
                                
  21877138.343   116740601.658                    90798258.247    21877141.274  
                                
  21643678.629   115616646.502                    89924070.395    21643681.434  
                                
  20217305.135   108186883.463                    84145358.055    20217306.118  
                                
  21478888.230   114655763.071                    89176710.822    21478889.623  
                                
 21  8 31  6 47 52.0000000  0 13G 4G 7G 8G 9G16G21G27G30R 1R 2R12R21
                                R22
  23207836.406   121958003.389    23207833.208    95032195.247    23207832.779  
  23207835.620    91072531.652  
  20845139.922   109541949.616    20845135.026    85357340.825    20845134.436  
                                
  20560461.566   108045954.694    20560459.654    84191640.601    20560458.600  
  20560457.009    80683648.871  
  21608401.514   113552916.462    21608398.834    88482776.680    21608397.941  
  21608397.708    84795993.738  
  24820200.037   130431031.417                   101634547.776    24820194.605  
                                
  22816045.302   119899127.312                    93427865.750    22816039.244  
                                
  22391537.552   117668324.260    22391534.282    91689586.634    22391533.514  
  22391532.603    87869182.155  
  23073525.968   121252197.125    23073524.003    94482220.946    23073523.341  
  23073522.412    90545457.662  
  22524150.594   120404492.955                    93647966.556    22524156.974  
                                
  21877170.722   116740774.491                    90798392.670    21877173.652  
                                
  21643300.002   115614623.994                    89922497.330    21643302.808  
                                
  20217171.957   108186170.739                    84144803.714    20217172.940  
                                
  21478149.739   114651820.968                    89173644.744    21478151.150  
                                
 21  8 31  6 47 53.0000000  0 13G 4G 7G 8G 9G16G21G27G30R 1R 2R12R21
                                R22
  23208509.193   121961538.774    23208505.959    95034950.100    23208505.548  
  23208508.389    91075171.721  
  20844808.237   109540206.506    20844803.323    85355982.556    20844802.733  
                                
  20560712.715   108047274.565    20560710.821    84192669.072    20560709.784  
  20560708.158    80684634.486  
  21608826.350   113555149.108    21608823.706    88484516.402    21608822.794  
  21608822.562    84797660.971  
  24820750.242   130433922.627                   101636800.674    24820744.810  
                                
  22815623.432   119896910.419                    93426138.300    22815617.374  
                                
  22392111.863   117671342.334    22392108.611    91691938.369    22392107.842  
  22392106.949    87871435.914  
  23072974.316   121249298.113    23072972.314    94479961.973    23072971.671  
  23072970.742    90543292.815  
  22524806.227   120407997.566                    93650692.362    22524812.552  
                                
  21877203.297   116740948.301                    90798527.855    21877206.227  
                                
  21642921.411   115612601.632                    89920924.382    21642924.217  
                                
  20217038.940   108185459.057                    84144250.182    20217039.941  
                                
  21477411.373   114647879.416                    89170579.100    21477412.767  
                                
 21  8 31  6 47 54.0000000  0 13G 4G 7G 8G 9G16G21G27G30R 1R 2R12R21
                                R22
  23209181.998   121965074.373    23209178.763    95037705.110    23209178.334  
  23209181.193    91077811.928  
  20844476.606   109538463.726    20844471.692    85354624.545    20844471.102  
                                
  20560964.007   108048595.058    20560962.095    84193698.032    20560961.059  
  20560959.450    80685620.564  
  21609251.294   113557382.270    21609248.667    88486256.531    21609247.756  
  21609247.505    84799328.588  
  24821300.394   130436813.810                   101639053.555    24821294.979  
                                
  22815201.616   119894693.857                    93424411.109    22815195.612  
                                
  22392686.263   117674360.802    22392683.028    91694290.419    22392682.242  
  22392681.384    87873689.956  
  23072422.699   121246399.206    23072420.680    94477703.090    23072420.019  
  23072419.107    90541128.056  
  22525461.877   120411502.443                    93653418.384    22525468.203  
                                
  21877236.015   116741123.019                    90798663.743    21877238.964  
                                
  21642542.838   115610579.392                    89919351.529    21642545.626  
                                
  20216906.119   108184748.329                    84143697.393    20216907.120  
                                
  21476673.078   114643938.282                    89167513.775    21476674.508  
                                
 21  8 31  6 47 55.0000000  0 13G 4G 7G 8G 9G16G21G27G30R 1R 2R12R21
                                R22
  23209854.820   121968610.111    23209851.586    95040460.228    23209851.175  
  23209854.034    91080452.265  
  20844145.028   109536721.215    20844140.096    85353266.747    20844139.507  
                                
  20561215.388   108049916.114    20561213.494    84194727.431    20561212.458  
  20561210.814    80686607.067  
  21609676.344   113559615.905    21609673.717    88487997.025    21609672.806  
  21609672.538    84800996.566  
  24821850.545   130439704.907                   101641306.356    24821845.059  
                                
  22814779.871   119892477.574                    93422684.138    22814773.831  
                                
  22393260.716   117677379.613    22393257.499    91696642.746    22393256.695  
  22393255.873    87875944.265  
  23071871.082   121243500.400    23071869.045    94475444.281    23071868.384  
  23071867.473    90538963.358  
  22526117.527   120415007.546                    93656144.581    22526123.906  
                                
  21877268.912   116741298.554                    90798800.268    21877271.878  
                                
  21642164.265   115608557.146                    89917778.671    21642167.052  
                                
  20216773.478   108184038.510                    84143145.316    20216774.478  
                                
  21475934.909   114639997.553                    89164448.766    21475936.303  
                                
 21  8 31  6 47 56.0000000  0 13G 4G 7G 8G 9G16G21G27G30R 1R 2R12R21
                                R22
  23210527.660   121972145.848    23210524.408    95043215.355    23210523.997  
  23210526.856    91083092.586  
  20843813.451   109534978.833    20843808.537    85351909.047    20843807.929  
                                
  20561466.877   108051237.578    20561464.965    84195757.146    20561463.929  
  20561462.267    80687593.882  
  21610101.430   113561849.847    21610098.839    88489737.760    21610097.892  
  21610097.660    84802664.764  
  24822400.607   130442595.729                   101643558.945    24822395.175  
                                
  22814358.126   119890261.431                    93420957.276    22814352.122  
                                
  22393835.187   117680398.611    22393831.989    91698995.215    22393831.202  
  22393830.398    87878198.712  
  23071319.430   121240601.484    23071317.393    94473185.389    23071316.732  
  23071315.838    90536798.588  
  22526773.249   120418512.734                    93658870.851    22526779.574  
                                
  21877301.934   116741474.709                    90798937.280    21877304.864  
                                
  21641785.674   115606534.775                    89916205.720    21641788.426  
                                
  20216640.961   108183329.401                    84142593.790    20216641.962  
                                
  21475196.668   114636057.015                    89161383.903    21475198.116  
                                
 21  8 31  6 47 57.0000000  0 13G 4G 7G 8G 9G16G21G27G30R 1R 2R12R21
                                R22
  23211200.554   121975681.856    23211197.302    95045970.690    23211196.819  
  23211199.750    91085733.116  
  20843481.980   109533236.863    20843477.030    85350551.670    20843476.459  
                                
  20561718.455   108052559.770    20561716.561    84196787.425    20561715.542  
  20561713.863    80688581.235  
  21610526.641   113564084.412    21610524.050    88491478.977    21610523.139  
  21610522.871    84804333.434  
  24822950.723   130445486.645                   101645811.606    24822945.380  
                                
  22813936.471   119888045.717                    93419230.741    22813930.503  
                                
  22394409.748   117683418.100    22394406.549    91701348.066    22394405.763  
  22394405.012    87880453.530  
  23070767.813   121237702.784    23070765.776    94470926.658    23070765.133  
  23070764.239    90534633.967  
  22527429.024   120422018.297                    93661597.400    22527435.385  
                                
  21877335.135   116741651.835                    90799075.051    21877338.065  
                                
  21641407.101   115604512.535                    89914632.867    21641409.835  
                                
  20216508.641   108182621.362                    84142043.095    20216509.659  
                                
  21474458.588   114632117.004                    89158319.453    21474460.053  
                                
 21  8 31  6 47 58.0000000  0 13G 4G 7G 8G 9G16G21G27G30R 1R 2R12R21
                                R22
  23211873.465   121979218.127    23211870.231    95048726.235    23211869.767  
  23211872.697    91088373.836  
  20843150.563   109531495.285    20843145.649    85349194.596    20843145.042  
                                
  20561970.194   108053882.658    20561968.318    84197818.247    20561967.281  
  20561965.584    80689569.099  
  21610951.978   113566319.549    21610949.405    88493220.635    21610948.458  
  21610948.207    84806002.526  
  24823500.857   130448377.605                   101648064.296    24823495.478  
                                
  22813514.905   119885830.388                    93417504.508    22813508.990  
                                
  22394984.415   117686438.061    22394981.217    91703701.278    22394980.449  
  22394979.716    87882708.678  
  23070216.250   121234804.256    23070214.213    94468668.061    23070213.570  
  23070212.676    90532469.474  
  22528084.835   120425524.189                    93664324.205    22528091.214  
                                
  21877368.478   116741829.838                    90799213.495    21877371.427  
                                
  21641028.545   115602490.391                    89913060.086    21641031.262  
                                
  20216376.499   108181914.321                    84141493.172    20216377.554  
                                
  21473720.598   114628177.504                    89155255.392    21473722.045  
                                
 21  8 31  6 47 59.0000000  0 13G 4G 7G 8G 9G16G21G27G30R 1R 2R12R21
                                R22
  23212546.467   121982754.610    23212543.179    95051481.939    23212542.750  
  23212545.662    91091014.727  
  20842819.218   109529754.036    20842814.286    85347837.777    20842813.697  
                                
  20562222.058   108055206.182    20562220.181    84198849.562    20562219.145  
  20562217.430    80690557.452  
  21611377.421   113568555.212    21611374.813    88494962.710    21611373.901  
  21611373.633    84807672.025  
  24824050.972   130451268.492                   101650316.928    24824045.665  
                                
  22813093.410   119883615.413                    93415778.551    22813087.532  
                                
  22395559.173   117689458.421    22395555.974    91706054.803    22395555.188  
  22395554.491    87884964.148  
  23069664.722   121231905.851    23069662.668    94466409.566    23069662.024  
  23069661.113    90530305.094  
  22528740.771   120429030.391                    93667051.251    22528747.097  
                                
  21877401.947   116742008.686                    90799352.602    21877404.931  
                                
  21640649.990   115600468.363                    89911487.395    21640652.724  
                                
  20216244.572   108181208.237                    84140943.993    20216245.609  
                                
  21472982.696   114624238.450                    89152191.688    21472984.162  
                                
 21  8 31  6 48  0.0000000  0 13G 4G 7G 8G 9G16G21G27G30R 1R 2R12R21
                                R22
  23213219.468   121986291.392    23213216.215    95054237.868    23213215.751  
  23213218.699    91093655.832  
  20842487.944   109528013.236    20842483.030    85346481.311    20842482.441  
                                
  20562474.047   108056530.455    20562472.170    84199881.463    20562471.152  
  20562469.436    80691546.357  
  21611802.936   113570791.517    21611800.363    88496705.287    21611799.470  
  21611799.202    84809341.989  
  24824601.124   130454159.484                   101652569.646    24824595.781  
                                
  22812671.987   119881400.864                    93414052.933    22812666.126  
                                
  22396134.001   117692479.281    22396130.821    91708408.721    22396130.052  
  22396129.391    87887219.998  
  23069113.213   121229007.690    23069111.158    94464151.261    23069110.515  
  23069109.639    90528140.880  
  22529396.671   120432537.011                    93669778.625    22529403.069  
                                
  21877435.648   116742188.506                    90799492.464    21877438.614  
                                
  21640271.506   115598446.553                    89909914.880    21640274.223  
                                
  20216112.806   108180503.240                    84140395.664    20216113.878  
                                
  21472244.884   114620299.942                    89149128.406    21472246.367  
                                
 21  8 31  6 48  1.0000000  0 13G 4G 7G 8G 9G16G21G27G30R 1R 2R12R21
                                R22
  23213892.540   121989828.412    23213889.270    95056993.985    23213888.788  
  23213891.736    91096297.104  
  20842156.760   109526272.783    20842151.846    85345125.116    20842151.238  
                                
  20562726.179   108057855.364    20562724.302    84200913.862    20562723.284  
  20562721.533    80692535.741  
  21612228.594   113573028.362    21612226.039    88498448.283    21612225.128  
  21612224.860    84811012.358  
  24825151.275   130457050.479                   101654822.358    24825145.897  
                                
  22812250.654   119879186.705                    93412327.617    22812244.793  
                                
  22396708.919   117695500.498    22396705.756    91710762.921    22396704.952  
  22396704.327    87889476.150  
  23068561.739   121226109.661    23068559.702    94461893.059    23068559.041  
  23068558.147    90525976.770  
  22530052.679   120436043.908                    93672506.212    22530059.076  
                                
  21877469.510   116742369.178                    90799632.983    21877472.458  
                                
  21639893.041   115596424.832                    89908342.436    21639895.721  
                                
  20215981.255   108179799.220                    84139848.096    20215982.291  
                                
  21471507.162   114616361.913                    89146065.496    21471508.663  
                                
 21  8 31  6 48  2.0000000  0 13G 4G 7G 8G 9G16G21G27G30R 1R 2R12R21
                                R22
  23214565.648   121993365.485    23214562.360    95059750.148    23214561.842  
  23214564.826    91098938.434  
  20841825.593   109524532.526    20841820.661    85343769.074    20841820.054  
                                
  20562978.400   108059180.790    20562976.524    84201946.666    20562975.505  
  20562973.736    80693525.503  
  21612654.324   113575265.614    21612651.769    88500191.597    21612650.857  
  21612650.589    84812683.025  
  24825701.373   130459941.307                   101657074.952    24825696.066  
                                
  22811829.338   119876972.735                    93410602.449    22811823.513  
                                
  22397283.891   117698522.076    22397280.746    91713117.416    22397279.924  
  22397279.352    87891732.527  
  23068010.265   121223211.623    23068008.228    94459634.854    23068007.567  
  23068006.674    90523812.657  
  22530708.740   120439550.958                    93675233.919    22530715.119  
                                
  21877503.514   116742550.593                    90799774.085    21877506.445  
                                
  21639514.557   115594403.054                    89906769.947    21639517.219  
                                
  20215849.846   108179096.022                    84139301.169    20215850.900  
                                
  21470769.457   114612424.213                    89143002.840    21470771.012  
                                
 21  8 31  6 48  3.0000000  0 13G 4G 7G 8G 9G16G21G27G30R 1R 2R12R21
                                R22
  23215238.756   121996902.610    23215235.433    95062506.356    23215234.932  
  23215237.917    91101579.778  
  20841494.462   109522792.442    20841489.531    85342413.167    20841488.923  
                                
  20563230.710   108060506.679    20563228.834    84202979.829    20563227.816  
  20563226.047    80694515.611  
  21613080.125   113577503.208    21613077.552    88501935.179    21613076.658  
  21613076.408    84814353.961  
  24826251.453   130462831.929                   101659327.382    24826246.110  
                                
  22811408.076   119874758.951                    93408877.428    22811402.250  
                                
  22397858.898   117701543.880    22397855.789    91715472.105    22397854.967  
  22397854.395    87893989.054  
  23067458.792   121220313.550    23067456.755    94457376.613    23067456.058  
  23067455.182    90521648.501  
  22531364.766   120443058.098                    93677961.688    22531371.163  
                                
  21877537.644   116742732.731                    90799915.741    21877540.557  
                                
  21639136.037   115592381.155                    89905197.358    21639138.700  
                                
  20215718.562   108178393.607                    84138754.843    20215719.652  
                                
  21470031.824   114608486.751                    89139940.372    21470033.432  
                                
 21  8 31  6 48  4.0000000  0 13G 4G 7G 8G 9G16G21G27G30R 1R 2R12R21
                                R22
  23215911.847   122000439.768    23215908.523    95065262.576    23215908.023  
  23215911.007    91104221.162  
  20841163.367   109521052.537    20841158.435    85341057.392    20841157.828  
                                
  20563483.110   108061833.059    20563481.234    84204013.364    20563480.234  
  20563478.429    80695506.089  
  21613505.979   113579741.182    21613503.424    88503679.053    21613502.549  
  21613502.281    84816025.174  
  24826801.497   130465722.402                   101661579.699    24826796.101  
                                
  22810986.831   119872545.347                    93407152.530    22810981.024  
                                
  22398433.959   117704565.945    22398430.868    91717826.977    22398430.028  
  22398429.510    87896245.791  
  23066907.282   121217415.439    23066905.263    94455118.345    23066904.566  
  23066903.690    90519484.323  
  22532020.898   120446565.389                    93680689.572    22532027.260  
                                
  21877571.935   116742915.590                    90800057.960    21877574.812  
                                
  21638757.518   115590359.150                    89903624.683    21638760.145  
                                
  20215587.439   108177692.014                    84138209.160    20215588.547  
                                
  21469294.262   114604549.563                    89136878.112    21469295.906  
                                
 21  8 31  6 48  5.0000000  0 13G 4G 7G 8G 9G16G21G27G30R 1R 2R12R21
                                R22
  23216584.955   122003976.931    23216581.614    95068018.805    23216581.113  
  23216584.097    91106862.546  
  20840832.290   109519312.744    20840827.340    85339701.704    20840826.768  
                                
  20563735.582   108063159.834    20563733.706    84205047.216    20563732.723  
  20563730.918    80696496.870  
  21613931.905   113581979.471    21613929.350    88505423.174    21613928.492  
  21613928.224    84817696.623  
  24827351.524   130468612.643                   101663831.835    24827346.110  
                                
  22810565.623   119870331.864                    93405427.733    22810559.815  
                                
  22399009.091   117707588.251    22399006.000    91720182.023    22399005.160  
  22399004.642    87898502.662  
  23066355.790   121214517.249    23066353.753    94452860.006    23066353.039  
  23066352.181    90517320.094  
  22532677.013   120450072.747                    93683417.512    22532683.339  
                                
  21877606.333   116743099.126                    90800200.706    21877609.192  
                                
  21638378.980   115588337.015                    89902051.911    21638381.571  
                                
  20215456.459   108176991.162                    84137664.052    20215457.567  
                                
  21468556.718   114600612.632                    89133816.050    21468558.416  
                                
 21  8 31  6 48  6.0000000  0 13G 4G 7G 8G 9G16G21G27G30R 1R 2R12R21
                                R22
  23217258.045   122007513.972    23217254.650    95070774.939    23217254.204  
  23217257.152    91109503.847  
  20840501.248   109517572.997    20840496.281    85338346.058    20840495.709  
                                
  20563988.125   108064486.941    20563986.249    84206081.325    20563985.284  
  20563983.443    80697487.887  
  21614357.867   113584217.980    21614355.330    88507167.464    21614354.472  
  21614354.204    84819368.230  
  24827901.479   130471502.523                   101666083.696    24827896.029  
                                
  22810144.414   119868118.421                    93403702.970    22810138.642  
                                
  22399584.224   117710610.601    22399581.097    91722537.073    22399580.257  
  22399579.792    87900759.598  
  23065804.263   121211618.874    23065802.208    94450601.529    23065801.475  
  23065800.618    90515155.714  
  22533333.074   120453580.047                    93686145.408    22533339.454  
                                
  21877640.802   116743283.237                    90800343.905    21877643.661  
                                
  21638000.372   115586314.689                    89900478.991    21638002.963  
                                
  20215325.604   108176290.946                    84137119.442    20215326.730  
                                
  21467819.156   114596675.829                    89130754.094    21467820.943  
                                
 21  8 31  6 48  7.0000000  0 13G 4G 7G 8G 9G16G21G27G30R 1R 2R12R21
                                R22
  23217931.171   122011051.141    23217927.759    95073531.181    23217927.294  
  23217930.242    91112145.233  
  20840170.225   109515833.477    20840165.275    85336990.587    20840164.668  
                                
  20564240.757   108065814.609    20564238.899    84207115.869    20564237.934  
  20564236.075    80698479.320  
  21614783.936   113586456.920    21614781.363    88508912.088    21614780.523  
  21614780.273    84821040.173  
  24828451.416   130474392.295                   101668335.464    24828446.002  
                                
  22809723.259   119865905.222                    93401978.402    22809717.523  
                                
  22400159.392   117713633.250    22400156.265    91724892.354    22400155.461  
  22400154.996    87903016.778  
  23065252.700   121208720.528    23065250.681    94448343.073    23065249.930  
  23065249.090    90512991.365  
  22533989.261   120457087.581                    93688873.484    22533995.586  
                                
  21877675.468   116743468.143                    90800487.719    21877678.309  
                                
  21637621.781   115584292.347                    89898906.059    21637624.372  
                                
  20215194.910   108175591.614                    84136575.516    20215196.054  
                                
  21467081.719   114592739.371                    89127692.407    21467083.542  
                                
 21  8 31  6 48  8.0000000  0 13G 4G 7G 8G 9G16G21G27G30R 1R 2R12R21
                                R22
  23218604.333   122014588.580    23218600.902    95076287.632    23218600.456  
  23218603.386    91114786.834  
  20839839.273   109514094.385    20839834.323    85335635.451    20839833.733  
                                
  20564493.550   108067142.993    20564491.692    84208150.973    20564490.745  
  20564488.851    80699471.297  
  21615210.095   113588696.494    21615207.557    88510657.211    21615206.717  
  21615206.449    84822712.571  
  24829001.353   130477282.133                   101670587.284    24828995.921  
                                
  22809302.176   119863692.457                    93400254.174    22809296.458  
                                
  22400734.667   117716656.404    22400731.558    91727248.040    22400730.718  
  22400730.307    87905274.328  
  23064701.208   121205822.399    23064699.171    94446084.793    23064698.421  
  23064697.599    90510827.178  
  22534645.447   120460595.496                    93691601.858    22534651.790  
                                
  21877710.295   116743654.003                    90800632.274    21877713.100  
                                
  21637243.225   115582270.158                    89897333.247    21637245.798  
                                
  20215064.431   108174893.329                    84136032.402    20215065.556  
                                
  21466344.408   114588803.468                    89124631.149    21466346.213  
                                
 21  8 31  6 48  9.0000000  0 13G 4G 7G 8G 9G16G21G27G30R 1R 2R12R21
                                R22
  23219277.585   122018126.316    23219274.082    95079044.312    23219273.635  
  23219276.602    91117428.654  
  20839508.428   109512355.697    20839503.460    85334280.632    20839502.888  
                                
  20564746.468   108068472.060    20564744.610    84209186.608    20564743.645  
  20564741.751    80700463.789  
  21615636.378   113590936.661    21615633.858    88512402.791    21615633.019  
  21615632.751    84824385.423  
  24829551.308   130480172.019                   101672839.155    24829545.822  
                                
  22808881.181   119861480.103                    93398530.262    22808875.463  
                                
  22401310.050   117719680.030    22401306.958    91729604.106    22401306.118  
  22401305.690    87907532.235  
  23064149.734   121202924.443    23064147.697    94443826.648    23064146.965  
  23064146.125    90508663.138  
  22535301.705   120464103.737                    93694330.483    22535308.048  
                                
  21877745.300   116743840.796                    90800777.560    21877748.106  
                                
  21636864.706   115580248.106                    89895760.543    21636867.243  
                                
  20214934.112   108174196.062                    84135490.086    20214935.273  
                                
  21465607.275   114584868.078                    89121570.286    21465609.008  
                                
 21  8 31  6 48 10.0000000  0 13G 4G 7G 8G 9G16G21G27G30R 1R 2R12R21
                                R22
  23219950.818   122021664.228    23219947.315    95081801.124    23219946.869  
  23219949.835    91120070.595  
  20839177.636   109510617.330    20839172.651    85332926.058    20839172.079  
                                
  20564999.494   108069801.729    20564997.635    84210222.718    20564996.688  
  20564994.758    80701456.720  
  21616062.751   113593177.320    21616060.231    88514148.759    21616059.409  
  21616059.141    84826058.645  
  24830101.263   130483061.873                   101675090.986    24830095.795  
                                
  22808460.277   119859268.083                    93396806.613    22808454.576  
                                
  22401885.486   117722704.041    22401882.377    91731960.476    22401881.572  
  22401881.161    87909790.416  
  23063598.296   121200026.617    23063596.259    94441568.604    23063595.527  
  23063594.705    90506499.157  
  22535958.034   120467612.252                    93697059.324    22535964.342  
                                
  21877780.449   116744028.426                    90800923.494    21877783.236  
                                
  21636486.151   115578226.111                    89894187.882    21636488.706  
                                
  20214803.990   108173499.725                    84134948.491    20214805.151  
                                
  21464870.106   114580933.099                    89118509.751    21464871.857  
                                
 21  8 31  6 48 11.0000000  0 13G 4G 7G 8G 9G16G21G27G30R 1R 2R12R21
                                R22
  23220624.105   122025202.202    23220620.585    95084557.989    23220620.102  
  23220623.086    91122712.599  
  20838846.845   109508879.157    20838841.895    85331571.634    20838841.323  
                                
  20565252.626   108071131.909    20565250.732    84211259.220    20565249.821  
  20565247.873    80702450.036  
  21616489.213   113595418.373    21616486.675    88515895.034    21616485.889  
  21616485.603    84827732.160  
  24830651.164   130485951.551                   101677342.690    24830645.660  
                                
  22808039.354   119857056.260                    93395083.110    22808033.689  
                                
  22402460.993   117725728.324    22402457.884    91734317.060    22402457.062  
  22402456.669    87912048.812  
  23063046.823   121197128.767    23063044.803    94439310.539    23063044.089  
  23063043.249    90504335.193  
  22536614.381   120471120.941                    93699788.302    22536620.689  
                                
  21877815.740   116744216.789                    90801069.994    21877818.545  
                                
  21636107.631   115576204.053                    89892615.170    21636110.168  
                                
  20214674.010   108172804.225                    84134407.544    20214675.172  
                                
  21464133.027   114576998.439                    89115449.458    21464134.778  
                                
 21  8 31  6 48 12.0000000  0 13G 4G 7G 8G 9G16G21G27G30R 1R 2R12R21
                                R22
  23221297.410   122028740.460    23221293.871    95087315.077    23221293.389  
  23221296.391    91125354.798  
  20838516.179   109507141.412    20838511.229    85330217.547    20838510.621  
                                
  20565505.866   108072462.810    20565504.008    84212296.283    20565503.114  
  20565501.131    80703443.895  
  21616915.764   113597660.013    21616913.245    88517641.769    21616912.476  
  21616912.190    84829406.114  
  24831201.101   130488841.284                   101679594.437    24831195.544  
                                
  22807618.574   119854844.845                    93393359.932    22807612.856  
                                
  22403036.572   117728753.086    22403033.499    91736674.018    22403032.659  
  22403032.284    87914307.558  
  23062495.438   121194231.110    23062493.419    94437052.628    23062492.686  
  23062491.846    90502171.361  
  22537270.764   120474629.961                    93702517.537    22537277.107  
                                
  21877851.210   116744406.090                    90801217.226    21877853.997  
                                
  21635729.111   115574182.159                    89891042.589    21635731.685  
                                
  20214544.246   108172109.761                    84133867.405    20214545.407  
                                
  21463395.983   114573064.250                    89112389.535    21463397.734  
                                
 21  8 31  6 48 13.0000000  0 13G 4G 7G 8G 9G16G21G27G30R 1R 2R12R21
                                R22
  23221970.839   122032279.199    23221967.230    95090072.539    23221966.801  
  23221969.785    91127997.372  
  20838185.602   109505404.271    20838180.652    85328863.933    20838180.045  
                                
  20565759.302   108073794.633    20565757.444    84213334.067    20565756.550  
  20565754.549    80704438.436  
  21617342.477   113599902.501    21617339.975    88519389.162    21617339.206  
  21617338.921    84831080.695  
  24831751.056   130491731.284                   101681846.374    24831745.481  
                                
  22807197.848   119852634.073                    93391637.245    22807192.201  
                                
  22403612.277   117731778.538    22403609.221    91739031.512    22403608.399  
  22403608.042    87916566.822  
  23061944.107   121191333.900    23061942.088    94434795.066    23061941.373  
  23061940.516    90500007.855  
  22537927.289   120478139.530                    93705247.202    22537933.615  
                                
  21877886.876   116744596.560                    90801365.369    21877889.682  
                                
  21635350.699   115572160.656                    89889470.311    21635353.254  
                                
  20214414.731   108171416.567                    84133328.252    20214415.892  
                                
  21462659.136   114569130.860                    89109330.227    21462660.870  
                                
 21  8 31  6 48 14.0000000  0 13G 4G 7G 8G 9G16G21G27G30R 1R 2R12R21
                                R22
  23222644.269   122035817.974    23222640.642    95092830.030    23222640.213  
  23222643.161    91130639.959  
  20837855.061   109503667.300    20837850.111    85327510.450    20837849.503  
                                
  20566012.828   108075126.920    20566010.987    84214372.213    20566010.094  
  20566008.093    80705433.330  
  21617769.278   113602145.317    21617766.794    88521136.811    21617765.990  
  21617765.740    84832755.526  
  24832300.993   130494621.088                   101684098.162    24832295.454  
                                
  22806777.193   119850423.453                    93389914.679    22806771.547  
                                
  22404188.034   117734804.215    22404184.979    91741389.183    22404184.175  
  22404183.835    87918826.256  
  23061392.776   121188436.619    23061390.757    94432537.449    23061390.043  
  23061389.185    90497844.304  
  22538583.833   120481649.228                    93707976.965    22538590.141  
                                
  21877922.704   116744787.733                    90801514.053    21877925.491  
                                
  21634972.251   115570139.025                    89887897.931    21634974.771  
                                
  20214285.323   108170724.154                    84132789.708    20214286.485  
                                
  21461922.343   114565197.714                    89106271.109    21461924.005  
                                
 21  8 31  6 48 15.0000000  0 13G 4G 7G 8G 9G16G21G27G30R 1R 2R12R21
                                R22
  23223317.717   122039356.913    23223314.072    95095587.643    23223313.661  
  23223316.591    91133282.682  
  20837524.591   109501930.635    20837519.641    85326157.207    20837519.016  
                                
  20566266.461   108076459.811    20566264.620    84215410.829    20566263.745  
  20566261.708    80706428.670  
  21618196.151   113604388.639    21618193.685    88522884.852    21618192.881  
  21618192.631    84834430.740  
  24832850.876   130497510.818                   101686349.900    24832845.355  
                                
  22806356.592   119848213.165                    93388192.377    22806350.964  
                                
  22404763.846   117737830.268    22404760.844    91743747.147    22404760.004  
  22404759.664    87921085.969  
  23060841.464   121185539.436    23060839.444    94430279.905    23060838.730  
  23060837.854    90495680.820  
  22539240.412   120485159.158                    93710706.913    22539246.738  
                                
  21877958.656   116744979.752                    90801663.396    21877961.497  
                                
  21634593.821   115568117.456                    89886325.602    21634596.341  
                                
  20214156.113   108170032.651                    84132251.871    20214157.274  
                                
  21461185.549   114561264.974                    89103212.313    21461187.265  
                                
 21  8 31  6 48 16.0000000  0 13G 4G 7G 8G 9G16G21G27G30R 1R 2R12R21
                                R22
  23223991.200   122042895.951    23223987.537    95098345.338    23223987.108  
  23223990.075    91135925.482  
  20837194.157   109500194.211    20837189.225    85324804.151    20837188.582  
                                
  20566520.201   108077793.239    20566518.361    84216449.864    20566517.503  
  20566515.430    80707424.416  
  21618623.114   113606632.397    21618620.648    88524633.233    21618619.879  
  21618619.611    84836106.274  
  24833400.760   130500400.449                   101688601.551    24833395.238  
                                
  22805936.027   119846003.091                    93386470.241    22805930.452  
                                
  22405339.747   117740856.635    22405336.727    91746105.355    22405335.905  
  22405335.583    87923345.916  
  23060290.168   121182642.290    23060288.149    94428022.387    23060287.381  
  23060286.541    90493517.372  
  22539897.028   120488669.271                    93713437.003    22539903.353  
                                
  21877994.805   116745172.552                    90801813.347    21877997.629  
                                
  21634215.373   115566095.891                    89884753.275    21634217.910  
                                
  20214027.062   108169341.994                    84131714.696    20214028.224  
                                
  21460448.863   114557332.579                    89100153.787    21460450.579  
                                
 21  8 31  6 48 17.0000000  0 13G 4G 7G 8G 9G16G21G27G30R 1R 2R12R21
                                R22
  23224664.684   122046435.087    23224661.039    95101103.115    23224660.592  
  23224663.540    91138568.340  
  20836863.759   109498458.003    20836858.827    85323451.262    20836858.184  
                                
  20566774.031   108079127.175    20566772.208    84217489.297    20566771.350  
  20566769.277    80708420.539  
  21619050.165   113608876.555    21619047.735    88526381.931    21619046.931  
  21619046.681    84837782.101  
  24833950.590   130503289.936                   101690853.095    24833945.068  
                                
  22805515.515   119843793.270                    93384748.307    22805509.958  
                                
  22405915.701   117743883.281    22405912.681    91748463.780    22405911.877  
  22405911.537    87925606.078  
  23059738.855   121179745.141    23059736.818    94425764.873    23059736.068  
  23059735.228    90491353.917  
  22540553.696   120492179.571                    93716167.243    22540560.022  
                                
  21878031.062   116745366.111                    90801963.896    21878033.921  
                                
  21633836.907   115564074.250                    89883180.891    21633839.444  
                                
  20213898.155   108168652.186                    84131178.176    20213899.317  
                                
  21459712.213   114553400.566                    89097095.554    21459713.946  
                                
 21  8 31  6 48 18.0000000  0 13G 4G 7G 8G 9G16G21G27G30R 1R 2R12R21
                                R22
  23225338.257   122049974.551    23225334.558    95103861.143    23225334.165  
  23225337.042    91141211.442  
  20836533.468   109496722.247    20836528.518    85322098.725    20836527.893  
                                
  20567028.021   108080461.873    20567026.216    84218529.324    20567025.358  
  20567023.250    80709417.226  
  21619477.342   113611121.361    21619474.894    88528131.129    21619474.108  
  21619473.858    84839458.420  
  24834500.437   130506179.522                   101693104.716    24834494.934  
                                
  22805095.057   119841583.891                    93383026.718    22805089.536  
                                
  22406491.727   117746910.458    22406488.725    91750822.621    22406487.921  
  22406487.599    87927866.626  
  23059187.578   121176848.245    23059185.577    94423507.547    23059184.844  
  23059183.969    90489190.645  
  22541210.419   120495690.263                    93718897.783    22541216.762  
                                
  21878067.532   116745560.672                    90802115.225    21878070.391  
                                
  21633458.495   115562052.831                    89881608.678    21633461.032  
                                
  20213769.481   108167963.466                    84130642.509    20213770.606  
                                
  21458975.669   114549469.069                    89094037.718    21458977.403  
                                
 21  8 31  6 48 19.0000000  0 13G 4G 7G 8G 9G16G21G27G30R 1R 2R12R21
                                R22
  23226011.865   122053514.256    23226008.166    95106619.350    23226007.755  
  23226010.614    91143854.722  
  20836203.248   109494986.879    20836198.281    85320746.490    20836197.655  
                                
  20567282.136   108081797.273    20567280.331    84219569.893    20567279.492  
  20567277.365    80710414.433  
  21619904.626   113613366.739    21619902.178    88529880.776    21619901.392  
  21619901.160    84841135.161  
  24835050.321   130509069.132                   101695356.356    24835044.835  
                                
  22804674.706   119839374.932                    93381305.449    22804669.149  
                                
  22407067.860   117749938.064    22407064.858    91753181.792    22407064.072  
  22407063.750    87930127.502  
  23058636.372   121173951.525    23058634.353    94421250.360    23058633.621  
  23058632.727    90487027.508  
  22541867.230   120499201.277                    93721628.572    22541873.574  
                                
  21878104.164   116745756.136                    90802267.250    21878107.041  
                                
  21633080.100   115560031.531                    89880036.551    21633082.638  
                                
  20213640.949   108167275.761                    84130107.626    20213642.110  
                                
  21458239.251   114545538.141                    89090980.330    21458241.002  
                                
 21  8 31  6 48 20.0000000  0 13G 4G 7G 8G 9G16G21G27G30R 1R 2R12R21
                                R22
  23226685.456   122057053.978    23226681.757    95109377.578    23226681.382  
  23226684.187    91146498.030  
  20835873.046   109493251.669    20835868.079    85319394.378    20835867.436  
                                
  20567536.341   108083133.108    20567534.518    84220610.803    20567533.696  
  20567531.552    80711411.976  
  21620331.982   113615612.470    21620329.534    88531630.694    21620328.748  
  21620328.533    84842812.168  
  24835600.169   130511958.516                   101697607.821    24835594.754  
                                
  22804254.391   119837166.091                    93379584.281    22804248.834  
                                
  22407644.029   117752965.913    22407641.044    91755541.160    22407640.276  
  22407639.954    87932388.567  
  23058085.131   121171054.755    23058083.094    94418993.141    23058082.361  
  23058081.504    90484864.342  
  22542524.078   120502712.377                    93724359.428    22542530.386  
                                
  21878140.920   116745952.312                    90802419.836    21878143.815  
                                
  21632701.706   115558010.144                    89878464.361    21632704.208  
                                
  20213512.578   108166588.864                    84129573.372    20213513.739  
                                
  21457502.851   114541607.380                    89087923.071    21457504.584  
                                
 21  8 31  6 48 21.0000000  0 13G 4G 7G 8G 9G16G21G27G30R 1R 2R12R21
                                R22
  23227359.011   122060593.445    23227355.294    95112135.602    23227354.919  
  23227357.707    91149141.136  
  20835542.827   109491516.339    20835537.841    85318042.175    20835537.234  
                                
  20567790.581   108084469.121    20567788.759    84221651.852    20567787.955  
  20567785.775    80712409.633  
  21620759.337   113617858.265    21620756.907    88533380.662    21620756.121  
  21620755.907    84844489.220  
  24836149.909   130514847.440                   101699858.926    24836144.531  
                                
  22803834.040   119834957.155                    93377863.037    22803828.519  
                                
  22408220.215   117755993.703    22408217.213    91757900.481    22408216.445  
  22408216.141    87934649.568  
  23057533.854   121168157.659    23057531.817    94416735.664    23057531.066  
  23057530.191    90482700.913  
  22543180.872   120506223.319                    93727090.166    22543187.197  
                                
  21878177.748   116746148.899                    90802572.740    21878180.679  
                                
  21632323.222   115555988.396                    89876891.891    21632325.742  
                                
  20213384.314   108165902.462                    84129039.504    20213385.457  
                                
  21456766.522   114537676.628                    89084865.815    21456768.166  
                                
 21  8 31  6 48 22.0000000  0 13G 4G 7G 8G 9G16G21G27G30R 1R 2R12R21
                                R22
  23228032.620   122064133.115    23228028.903    95114893.786    23228028.510  
  23228031.261    91151784.405  
  20835212.661   109489781.367    20835207.693    85316690.251    20835207.068  
                                
  20568044.929   108085805.786    20568043.124    84222693.407    20568042.302  
  20568040.122    80713407.796  
  21621186.800   113620104.614    21621184.352    88535131.066    21621183.584  
  21621183.369    84846166.682  
  24836699.667   130517736.331                   101702109.999    24836694.271  
                                
  22803413.761   119832748.552                    93376142.056    22803408.257  
                                
  22408796.455   117759021.910    22408793.489    91760260.121    22408792.703  
  22408792.381    87936910.889  
  23056982.577   121165260.695    23056980.539    94414478.282    23056979.789  
  23056978.913    90480537.601  
  22543837.737   120509734.539                    93729821.119    22543844.045  
                                
  21878214.755   116746346.359                    90802726.318    21878217.721  
                                
  21631944.774   115553966.711                    89875319.462    21631947.276  
                                
  20213256.229   108165217.026                    84128506.389    20213257.390  
                                
  21456030.247   114533746.376                    89081808.950    21456031.855  
                                
 21  8 31  6 48 23.0000000  0 13G 4G 7G 8G 9G16G21G27G30R 1R 2R12R21
                                R22
  23228706.192   122067672.873    23228702.511    95117652.036    23228702.118  
  23228704.834    91154427.743  
  20834882.549   109488046.592    20834877.581    85315338.474    20834876.938  
                                
  20568299.384   108087142.958    20568297.579    84223735.359    20568296.793  
  20568294.559    80714406.349  
  21621614.335   113622351.342    21621611.904    88536881.764    21621611.154  
  21621610.922    84847844.438  
  24837249.372   130520625.087                   101704360.959    24837244.029  
                                
  22802993.517   119830540.185                    93374421.254    22802988.049  
                                
  22409372.749   117762050.381    22409369.765    91762619.968    22409368.997  
  22409368.711    87939172.428  
  23056431.299   121162363.717    23056429.244    94412220.899    23056428.512  
  23056427.654    90478374.277  
  22544494.584   120513245.900                    93732552.175    22544500.928  
                                
  21878251.887   116746544.547                    90802880.470    21878254.871  
                                
  21631566.308   115551944.955                    89873746.985    21631568.792  
                                
  20213128.286   108164532.396                    84127973.899    20213129.448  
                                
  21455294.007   114529816.408                    89078752.313    21455295.616  
                                
 21  8 31  6 48 24.0000000  0 13G 4G 7G 8G 9G16G21G27G30R 1R 2R12R21
                                R22
  23229379.872   122071212.988    23229376.191    95120410.575    23229375.798  
  23229378.479    91157071.334  
  20834552.526   109486312.306    20834547.540    85313987.085    20834546.933  
                                
  20568553.982   108088480.911    20568552.177    84224777.922    20568551.409  
  20568549.157    80715405.470  
  21622042.012   113624598.751    21622039.564    88538632.991    21622038.813  
  21622038.617    84849522.700  
  24837799.113   130523513.952                   101706612.011    24837793.770  
                                
  22802573.381   119828332.301                    93372700.829    22802567.913  
                                
  22409949.150   117765079.424    22409946.184    91764980.260    22409945.416  
  22409945.130    87941434.373  
  23055880.076   121159467.037    23055878.039    94409963.751    23055877.270  
  23055876.413    90476211.166  
  22545151.557   120516757.716                    93735283.588    22545157.882  
                                
  21878289.251   116746743.783                    90803035.436    21878292.253  
                                
  21631187.860   115549923.475                    89872174.728    21631190.380  
                                
  20213000.576   108163848.872                    84127442.269    20213001.738  
                                
  21454557.911   114525887.128                    89075696.204    21454559.483  
                                
 21  8 31  6 48 25.0000000  0 13G 4G 7G 8G 9G16G21G27G30R 1R 2R12R21
                                R22
  23230053.588   122074753.268    23230049.889    95123169.237    23230049.514  
  23230052.159    91159715.039  
  20834222.556   109484578.320    20834217.589    85312635.927    20834216.945  
                                
  20568808.705   108089819.451    20568806.900    84225820.938    20568806.114  
  20568803.880    80716405.025  
  21622469.778   113626846.644    21622467.330    88540384.599    21622466.598  
  21622466.383    84851201.324  
  24838348.853   130526402.743                   101708863.001    24838343.475  
                                
  22802153.280   119826124.721                    93370980.639    22802147.830  
                                
  22410525.623   117768108.823    22410522.675    91767340.832    22410521.924  
  22410521.602    87943696.584  
  23055328.870   121156570.429    23055326.815    94407706.653    23055326.065  
  23055325.207    90474048.114  
  22545808.565   120520269.775                    93738015.187    22545814.891  
                                
  21878326.740   116746943.823                    90803191.026    21878329.742  
                                
  21630809.448   115547902.005                    89870602.471    21630811.967  
                                
  20212873.009   108163166.298                    84126911.379    20212874.171  
                                
  21453821.850   114521958.198                    89072640.369    21453823.458  
                                
 21  8 31  6 48 26.0000000  0 13G 4G 7G 8G 9G16G21G27G30R 1R 2R12R21
                                R22
  23230727.358   122078293.942    23230723.694    95125928.205    23230723.301  
  23230725.910    91162359.059  
  20833892.676   109482844.874    20833887.709    85311285.187    20833887.065  
                                
  20569063.571   108091158.806    20569061.766    84226864.592    20569060.997  
  20569058.728    80717405.191  
  21622897.688   113629095.271    21622895.222    88542136.778    21622894.489  
  21622894.293    84852880.489  
  24838898.629   130529291.719                   101711114.168    24838893.251  
                                
  22801733.286   119823917.705                    93369260.886    22801727.836  
                                
  22411102.185   117771138.828    22411099.272    91769701.873    22411098.504  
  22411098.182    87945959.242  
  23054777.718   121153674.137    23054775.681    94405449.800    23054774.912  
  23054774.073    90471885.305  
  22546465.645   120523782.329                    93740747.166    22546471.988  
                                
  21878364.408   116747144.961                    90803347.466    21878367.464  
                                
  21630431.089   115545880.809                    89869030.427    21630433.591  
                                
  20212745.675   108162484.917                    84126381.418    20212746.836  
                                
  21453085.914   114518029.931                    89069585.056    21453087.523  
                                
 21  8 31  6 48 27.0000000  0 13G 4G 7G 8G 9G16G21G27G30R 1R 2R12R21
                                R22
  23231401.216   122081834.970    23231397.535    95128687.448    23231397.178  
  23231399.715    91165003.338  
  20833562.903   109481111.921    20833557.954    85309934.832    20833557.310  
                                
  20569318.579   108092498.940    20569316.792    84227908.852    20569316.024  
  20569313.755    80718405.942  
  21623325.740   113631344.576    21623323.256    88543889.482    21623322.542  
  21623322.363    84854560.169  
  24839448.441   130532180.816                   101713365.412    24839442.956  
                                
  22801313.400   119821711.173                    93367541.508    22801307.950  
                                
  22411678.890   117774169.401    22411675.977    91772063.353    22411675.227  
  22411674.905    87948222.327  
  23054226.601   121150778.145    23054224.582    94403193.178    23054223.832  
  23054222.992    90469722.711  
  22547122.814   120527295.310                    93743479.480    22547129.193  
                                
  21878402.291   116747347.066                    90803504.661    21878405.364  
                                
  21630052.784   115543859.843                    89867458.565    21630055.268  
                                
  20212618.555   108161804.623                    84125852.296    20212619.716  
                                
  21452350.140   114514102.229                    89066530.181    21452351.712  
