% program   : rnx2rtkp ver.2.4.3 b31
% inp file  : ngs/21_09_02_07_47_03_gacc.obs
% inp file  : ngs/21_09_02_07_47_03_gacc_SNGA.obs
% inp file  : ngs/21_09_02_07_47_03_brdc.nav
% obs start : 2021/09/02 07:00:00.0 GPST (week2173 370800.0s)
% obs end   : 2021/09/02 07:59:59.0 GPST (week2173 374399.0s)
% ref pos   :   728269.1534  -5271196.0165   3504564.7181
%
% (x/y/z-ecef=WGS84,Q=1:fix,2:float,3:sbas,4:dgps,5:single,6:ppp,ns=# of satellites)
%  GPST              x-ecef(m)      y-ecef(m)      z-ecef(m)   Q  ns   sdx(m)   sdy(m)   sdz(m)  sdxy(m)  sdyz(m)  sdzx(m) age(s)  ratio
2173 373600.000    728280.7738  -5271277.3897   3504619.7567   2   8   0.3909   1.0312   0.6230  -0.1168  -0.6180   0.1576 -30.00    2.3
2173 373601.000    728280.7566  -5271277.3272   3504619.7595   2   8   0.2781   0.7327   0.4434  -0.0839  -0.4393   0.1131 -29.00    2.3
2173 373602.000    728280.7972  -5271277.3252   3504619.7845   2   8   0.2277   0.5998   0.3631  -0.0688  -0.3597   0.0927 -28.00    2.1
2173 373603.000    728280.8028  -5271277.3513   3504619.7797   2   8   0.1975   0.5203   0.3151  -0.0597  -0.3121   0.0804 -27.00    2.2
2173 373604.000    728280.7981  -5271277.3515   3504619.7581   2   8   0.1769   0.4660   0.2822  -0.0535  -0.2795   0.0720 -26.00    2.3
2173 373605.000    728280.8213  -5271277.3708   3504619.6962   2   8   0.1616   0.4258   0.2579  -0.0489  -0.2554   0.0658 -25.00    2.3
2173 373606.000    728280.8177  -5271277.4344   3504619.6727   2   8   0.1498   0.3945   0.2390  -0.0453  -0.2367   0.0609 -24.00    2.6
2173 373607.000    728280.8450  -5271277.4715   3504619.6357   2   8   0.1402   0.3692   0.2237  -0.0424  -0.2215   0.0570 -23.00    2.7
2173 373608.000    728280.8354  -5271277.4759   3504619.5976   2   8   0.1322   0.3482   0.2110  -0.0401  -0.2089   0.0537 -22.00    2.9
2173 373609.000    728280.5469  -5271278.4588   3504619.9337   1   8   0.0152   0.0473   0.0239   0.0077  -0.0280  -0.0065 -21.00    3.2
2173 373610.000    728280.5465  -5271278.4575   3504619.9323   1   8   0.0145   0.0452   0.0229   0.0073  -0.0267  -0.0062 -20.00    3.3
2173 373611.000    728280.5458  -5271278.4631   3504619.9373   1   8   0.0138   0.0430   0.0219   0.0069  -0.0255  -0.0058 -19.00    3.3
2173 373612.000    728280.5450  -5271278.4637   3504619.9358   1   8   0.0132   0.0409   0.0208   0.0066  -0.0242  -0.0055 -18.00    3.5
2173 373613.000    728280.5465  -5271278.4660   3504619.9341   1   8   0.0125   0.0388   0.0198   0.0062  -0.0230  -0.0052 -17.00    3.5
2173 373614.000    728280.5456  -5271278.4672   3504619.9338   1   8   0.0118   0.0367   0.0188   0.0058  -0.0218  -0.0048 -16.00    3.6
2173 373615.000    728280.5440  -5271278.4731   3504619.9348   1   8   0.0112   0.0346   0.0178   0.0054  -0.0205  -0.0045 -15.00    3.7
2173 373616.000    728280.5426  -5271278.4770   3504619.9369   1   8   0.0105   0.0325   0.0168   0.0050  -0.0193  -0.0041 -14.00    3.9
2173 373617.000    728280.5421  -5271278.4753   3504619.9345   1   8   0.0099   0.0304   0.0158   0.0046  -0.0181  -0.0038 -13.00    4.0
2173 373618.000    728280.5439  -5271278.4760   3504619.9347   1   8   0.0093   0.0284   0.0148   0.0042  -0.0169  -0.0034 -12.00    4.2
2173 373619.000    728280.5433  -5271278.4749   3504619.9343   1   8   0.0086   0.0264   0.0138   0.0038  -0.0157  -0.0031 -11.00    4.3
2173 373620.000    728280.5421  -5271278.4704   3504619.9317   1   8   0.0080   0.0244   0.0129   0.0034  -0.0145  -0.0027 -10.00    4.5
2173 373621.000    728280.5415  -5271278.4807   3504619.9337   1   8   0.0075   0.0224   0.0119   0.0030  -0.0134  -0.0023  -9.00    4.8
2173 373622.000    728280.5401  -5271278.4869   3504619.9333   1   8   0.0069   0.0205   0.0110   0.0026  -0.0122  -0.0020  -8.00    5.3
2173 373623.000    728280.5379  -5271278.4903   3504619.9318   1   8   0.0063   0.0186   0.0102   0.0021  -0.0112  -0.0018  -7.00    5.8
2173 373624.000    728280.5372  -5271278.5006   3504619.9352   1   8   0.0058   0.0169   0.0093   0.0016  -0.0101  -0.0014  -6.00    6.6
2173 373625.000    728280.5352  -5271278.5068   3504619.9349   1   8   0.0052   0.0152   0.0085   0.0011  -0.0091   0.0011  -5.00    7.5
2173 373626.000    728280.5345  -5271278.5073   3504619.9335   1   8   0.0050   0.0136   0.0079   0.0002  -0.0082   0.0012  -4.00    8.2
2173 373627.000    728280.5346  -5271278.5059   3504619.9335   1   8   0.0042   0.0123   0.0071  -0.0014  -0.0075   0.0011  -3.00    9.2
2173 373628.000    728280.5347  -5271278.5064   3504619.9349   1   8   0.0043   0.0112   0.0069  -0.0010  -0.0068   0.0015  -2.00   10.1
2173 373629.000    728280.5355  -5271278.5045   3504619.9353   1   8   0.0043   0.0106   0.0064   0.0007  -0.0063  -0.0009  -1.00   11.0
2173 373630.000    728280.5359  -5271278.5035   3504619.9358   1   8   0.0039   0.0103   0.0064  -0.0008  -0.0062   0.0014   0.00   11.8
2173 373631.000    728280.5378  -5271278.5051   3504619.9341   1   8   0.0040   0.0103   0.0063  -0.0010  -0.0062   0.0015   0.00   12.6
2173 373632.000    728280.5364  -5271278.5025   3504619.9351   1   8   0.0039   0.0105   0.0064  -0.0010  -0.0060   0.0017   0.00   13.5
2173 373633.000    728280.5362  -5271278.5052   3504619.9338   1   8   0.0038   0.0103   0.0062  -0.0017  -0.0062   0.0019   0.00   14.2
2173 373634.000    728280.5377  -5271278.5027   3504619.9335   1   8   0.0039   0.0103   0.0063  -0.0010  -0.0061   0.0018   0.00   15.0
2173 373635.000    728280.5377  -5271278.5047   3504619.9350   1   8   0.0039   0.0102   0.0064  -0.0015  -0.0063  -0.0007   0.00   15.7
2173 373636.000    728280.5368  -5271278.4988   3504619.9324   1   8   0.0038   0.0103   0.0063  -0.0011  -0.0063   0.0020   0.00   16.5
2173 373637.000    728280.5366  -5271278.5013   3504619.9323   1   8   0.0037   0.0103   0.0063  -0.0013  -0.0061   0.0012   0.00   17.6
2173 373638.000    728280.5376  -5271278.5050   3504619.9357   1   8   0.0035   0.0102   0.0062  -0.0022  -0.0062   0.0020   0.00   18.7
2173 373639.000    728280.5361  -5271278.5013   3504619.9338   1   8   0.0039   0.0103   0.0063  -0.0017  -0.0062   0.0019   0.00   20.0
2173 373640.000    728280.5363  -5271278.4989   3504619.9338   1   8   0.0041   0.0103   0.0062  -0.0003  -0.0063   0.0019   0.00   21.6
2173 373641.000    728280.5373  -5271278.4982   3504619.9321   1   8   0.0037   0.0103   0.0063  -0.0018  -0.0062   0.0013   0.00   22.9
2173 373642.000    728280.5379  -5271278.4985   3504619.9332   1   8   0.0042   0.0103   0.0061  -0.0003  -0.0063   0.0019   0.00   24.2
2173 373643.000    728280.5367  -5271278.4985   3504619.9344   1   8   0.0041   0.0103   0.0062  -0.0012  -0.0061   0.0020   0.00   25.6
2173 373644.000    728280.5372  -5271278.5025   3504619.9347   1   8   0.0035   0.0103   0.0062  -0.0017  -0.0061   0.0017   0.00   26.4
2173 373645.000    728280.5379  -5271278.5016   3504619.9338   1   8   0.0041   0.0103   0.0064   0.0008  -0.0062   0.0017   0.00   27.1
2173 373646.000    728280.5387  -5271278.5001   3504619.9332   1   8   0.0039   0.0103   0.0062  -0.0014  -0.0062   0.0016   0.00   28.0
2173 373647.000    728280.5353  -5271278.5006   3504619.9327   1   8   0.0036   0.0102   0.0064  -0.0014  -0.0063   0.0006   0.00   28.9
2173 373648.000    728280.5372  -5271278.4984   3504619.9309   1   8   0.0042   0.0104   0.0061  -0.0008  -0.0061   0.0020   0.00   29.8
2173 373649.000    728280.5371  -5271278.4998   3504619.9335   1   8   0.0044   0.0103   0.0063  -0.0011  -0.0062   0.0017   0.00   30.5
2173 373650.000    728280.5356  -5271278.4999   3504619.9331   1   8   0.0042   0.0103   0.0065  -0.0007  -0.0062   0.0010   0.00   31.1
2173 373651.000    728280.5358  -5271278.4994   3504619.9323   1   8   0.0040   0.0104   0.0063  -0.0017  -0.0063   0.0016   0.00   31.6
2173 373652.000    728280.5344  -5271278.4987   3504619.9310   1   8   0.0038   0.0103   0.0062  -0.0011  -0.0063   0.0022   0.00   32.3
2173 373653.000    728280.5360  -5271278.5000   3504619.9344   1   8   0.0043   0.0103   0.0065  -0.0017  -0.0063   0.0013   0.00   33.3
2173 373654.000    728280.5374  -5271278.5063   3504619.9379   1   8   0.0039   0.0103   0.0062  -0.0007  -0.0063   0.0021   0.00   33.8
2173 373655.000    728280.5347  -5271278.5001   3504619.9358   1   8   0.0036   0.0103   0.0062  -0.0007  -0.0062   0.0023   0.00   34.1
2173 373656.000    728280.5372  -5271278.5032   3504619.9364   1   8   0.0038   0.0103   0.0064  -0.0012  -0.0062   0.0015   0.00   34.7
2173 373657.000    728280.5348  -5271278.5014   3504619.9337   1   8   0.0040   0.0102   0.0062  -0.0015  -0.0062   0.0014   0.00   35.0
2173 373658.000    728280.5345  -5271278.5014   3504619.9340   1   8   0.0039   0.0102   0.0064  -0.0007  -0.0062   0.0015   0.00   35.5
2173 373659.000    728280.5378  -5271278.4990   3504619.9334   1   8   0.0035   0.0102   0.0064  -0.0011  -0.0062   0.0012   0.00   36.0
2173 373660.000    728280.5380  -5271278.4976   3504619.9341   1   8   0.0041   0.0103   0.0063  -0.0012  -0.0062   0.0018   0.00   36.5
2173 373661.000    728280.5384  -5271278.4987   3504619.9346   1   8   0.0038   0.0102   0.0065  -0.0009  -0.0062  -0.0004   0.00   37.0
2173 373662.000    728280.5385  -5271278.5024   3504619.9363   1   8   0.0046   0.0104   0.0065   0.0011  -0.0062   0.0020   0.00   37.3
2173 373663.000    728280.5379  -5271278.5016   3504619.9367   1   8   0.0041   0.0103   0.0064  -0.0016  -0.0063   0.0020   0.00   37.7
2173 373664.000    728280.5370  -5271278.5015   3504619.9351   1   8   0.0040   0.0103   0.0064  -0.0013  -0.0062   0.0020   0.00   37.8
2173 373665.000    728280.5375  -5271278.4997   3504619.9336   1   8   0.0037   0.0102   0.0064  -0.0016  -0.0063   0.0022   0.00   38.1
2173 373666.000    728280.5375  -5271278.4979   3504619.9338   1   8   0.0040   0.0101   0.0062  -0.0017  -0.0062   0.0016   0.00   38.1
2173 373667.000    728280.5390  -5271278.5031   3504619.9361   1   8   0.0041   0.0102   0.0065  -0.0016  -0.0064   0.0016   0.00   38.5
2173 373668.000    728280.5381  -5271278.4993   3504619.9339   1   8   0.0036   0.0103   0.0063  -0.0017  -0.0063   0.0023   0.00   38.8
2173 373669.000    728280.5390  -5271278.5049   3504619.9374   1   8   0.0035   0.0103   0.0063  -0.0004  -0.0060   0.0021   0.00   39.7
2173 373670.000    728280.5410  -5271278.5076   3504619.9380   1   8   0.0040   0.0102   0.0063  -0.0014  -0.0062   0.0007   0.00   40.4
2173 373671.000    728280.5394  -5271278.5108   3504619.9367   1   8   0.0040   0.0103   0.0063  -0.0008  -0.0062   0.0014   0.00   41.1
2173 373672.000    728280.5391  -5271278.5098   3504619.9390   1   8   0.0042   0.0104   0.0063  -0.0015  -0.0061   0.0016   0.00   41.6
2173 373673.000    728280.5392  -5271278.5102   3504619.9382   1   8   0.0039   0.0104   0.0062   0.0003  -0.0060   0.0020   0.00   42.5
2173 373674.000    728280.5398  -5271278.5144   3504619.9406   1   8   0.0038   0.0102   0.0062  -0.0014  -0.0062   0.0019   0.00   43.0
2173 373675.000    728280.5395  -5271278.5082   3504619.9393   1   8   0.0039   0.0103   0.0063  -0.0009  -0.0062   0.0017   0.00   43.5
2173 373676.000    728280.5411  -5271278.5121   3504619.9387   1   8   0.0040   0.0102   0.0065  -0.0017  -0.0063   0.0014   0.00   44.1
2173 373677.000    728280.5407  -5271278.5115   3504619.9407   1   8   0.0036   0.0103   0.0062  -0.0016  -0.0063   0.0025   0.00   44.2
2173 373678.000    728280.5397  -5271278.5048   3504619.9353   1   8   0.0038   0.0102   0.0063  -0.0006  -0.0061  -0.0012   0.00   44.5
2173 373679.000    728280.5385  -5271278.5130   3504619.9369   1   8   0.0038   0.0102   0.0062  -0.0020  -0.0062   0.0022   0.00   44.6
2173 373680.000    728280.5406  -5271278.5114   3504619.9371   1   8   0.0040   0.0103   0.0063   0.0004  -0.0062   0.0010   0.00   45.1
2173 373681.000    728280.5413  -5271278.5127   3504619.9379   1   8   0.0040   0.0102   0.0063  -0.0020  -0.0063   0.0004   0.00   46.2
2173 373682.000    728280.5409  -5271278.5089   3504619.9363   1   8   0.0038   0.0103   0.0063  -0.0013  -0.0062   0.0015   0.00   47.2
2173 373683.000    728280.5422  -5271278.5162   3504619.9382   1   8   0.0040   0.0102   0.0063  -0.0005  -0.0062   0.0015   0.00   47.9
2173 373684.000    728280.5404  -5271278.5093   3504619.9386   1   8   0.0039   0.0102   0.0065  -0.0016  -0.0063   0.0018   0.00   48.8
2173 373685.000    728280.5418  -5271278.5134   3504619.9393   1   8   0.0039   0.0102   0.0064   0.0006  -0.0062   0.0018   0.00   49.0
2173 373686.000    728280.5387  -5271278.5080   3504619.9361   1   8   0.0036   0.0102   0.0062  -0.0011  -0.0063   0.0018   0.00   49.4
2173 373687.000    728280.5401  -5271278.5050   3504619.9366   1   8   0.0037   0.0102   0.0061  -0.0017  -0.0062   0.0026   0.00   49.7
2173 373688.000    728280.5399  -5271278.5125   3504619.9403   1   8   0.0043   0.0103   0.0063  -0.0014  -0.0062   0.0015   0.00   49.4
2173 373689.000    728280.5388  -5271278.5120   3504619.9381   1   8   0.0038   0.0103   0.0066  -0.0014  -0.0062   0.0016   0.00   49.2
2173 373690.000    728280.5388  -5271278.5082   3504619.9359   1   8   0.0035   0.0102   0.0062  -0.0017  -0.0063   0.0016   0.00   49.2
2173 373691.000    728280.5396  -5271278.5148   3504619.9405   1   8   0.0039   0.0102   0.0064  -0.0012  -0.0063   0.0016   0.00   48.9
2173 373692.000    728280.5385  -5271278.5107   3504619.9374   1   8   0.0040   0.0103   0.0063  -0.0008  -0.0062   0.0024   0.00   48.9
2173 373693.000    728280.5396  -5271278.5107   3504619.9369   1   8   0.0039   0.0103   0.0064  -0.0015  -0.0062   0.0012   0.00   49.3
2173 373694.000    728280.5399  -5271278.5076   3504619.9350   1   8   0.0042   0.0104   0.0064  -0.0010  -0.0060   0.0020   0.00   49.4
2173 373695.000    728280.5389  -5271278.5086   3504619.9349   1   8   0.0033   0.0103   0.0063  -0.0019  -0.0062   0.0026   0.00   49.5
2173 373696.000    728280.5387  -5271278.5051   3504619.9342   1   8   0.0041   0.0102   0.0064  -0.0012  -0.0062   0.0016   0.00   49.3
2173 373697.000    728280.5401  -5271278.5103   3504619.9354   1   8   0.0041   0.0102   0.0065  -0.0008  -0.0062   0.0009   0.00   49.1
2173 373698.000    728280.5401  -5271278.5072   3504619.9339   1   8   0.0039   0.0102   0.0063  -0.0010  -0.0063   0.0017   0.00   48.9
2173 373699.000    728280.5408  -5271278.5116   3504619.9365   1   8   0.0041   0.0102   0.0066  -0.0018  -0.0061   0.0012   0.00   49.0
2173 373700.000    728280.5399  -5271278.5113   3504619.9360   1   8   0.0041   0.0103   0.0064  -0.0013  -0.0062   0.0014   0.00   49.4
2173 373701.000    728280.5405  -5271278.5149   3504619.9379   1   8   0.0038   0.0103   0.0064  -0.0016  -0.0062   0.0017   0.00   49.8
2173 373702.000    728280.5412  -5271278.5155   3504619.9369   1   8   0.0036   0.0102   0.0063  -0.0016  -0.0062   0.0016   0.00   49.9
2173 373703.000    728280.5403  -5271278.5163   3504619.9370   1   8   0.0040   0.0101   0.0065  -0.0018  -0.0063   0.0011   0.00   50.0
2173 373704.000    728280.5417  -5271278.5158   3504619.9370   1   8   0.0037   0.0102   0.0063  -0.0017  -0.0063   0.0019   0.00   50.2
2173 373705.000    728280.5411  -5271278.5117   3504619.9369   1   8   0.0039   0.0102   0.0063  -0.0014  -0.0062   0.0009   0.00   50.5
2173 373706.000    728280.5383  -5271278.5173   3504619.9375   1   8   0.0036   0.0102   0.0062  -0.0018  -0.0063   0.0017   0.00   50.9
2173 373707.000    728280.5407  -5271278.5123   3504619.9362   1   8   0.0038   0.0102   0.0062  -0.0016  -0.0062   0.0020   0.00   51.5
2173 373708.000    728280.5386  -5271278.5130   3504619.9362   1   8   0.0038   0.0102   0.0064  -0.0017  -0.0062   0.0015   0.00   52.2
2173 373709.000    728280.5394  -5271278.5158   3504619.9386   1   8   0.0037   0.0102   0.0064  -0.0017  -0.0063   0.0021   0.00   52.8
2173 373710.000    728280.5374  -5271278.5160   3504619.9373   1   8   0.0039   0.0102   0.0061  -0.0018  -0.0062   0.0011   0.00   53.4
2173 373711.000    728280.5389  -5271278.5138   3504619.9377   1   8   0.0036   0.0102   0.0065   0.0008  -0.0062   0.0014   0.00   54.0
2173 373712.000    728280.5379  -5271278.5160   3504619.9397   1   8   0.0033   0.0102   0.0062  -0.0016  -0.0062   0.0023   0.00   54.3
2173 373713.000    728280.5383  -5271278.5110   3504619.9376   1   8   0.0042   0.0103   0.0064   0.0002  -0.0061   0.0019   0.00   54.6
2173 373714.000    728280.5403  -5271278.5164   3504619.9397   1   8   0.0041   0.0102   0.0063  -0.0015  -0.0063   0.0017   0.00   55.1
2173 373715.000    728280.5403  -5271278.5128   3504619.9377   1   8   0.0035   0.0103   0.0063  -0.0016  -0.0061   0.0024   0.00   55.4
2173 373716.000    728280.5398  -5271278.5106   3504619.9371   1   8   0.0038   0.0102   0.0065  -0.0009  -0.0062   0.0012   0.00   55.5
2173 373717.000    728280.5418  -5271278.5127   3504619.9386   1   8   0.0043   0.0101   0.0065  -0.0015  -0.0062   0.0013   0.00   55.8
2173 373718.000    728280.5400  -5271278.5184   3504619.9399   1   8   0.0039   0.0102   0.0064  -0.0015  -0.0062   0.0019   0.00   56.0
2173 373719.000    728280.5406  -5271278.5177   3504619.9409   1   8   0.0041   0.0102   0.0065  -0.0013  -0.0061   0.0008   0.00   56.4
2173 373720.000    728280.5425  -5271278.5148   3504619.9404   1   8   0.0041   0.0101   0.0063  -0.0018  -0.0063   0.0015   0.00   56.8
2173 373721.000    728280.5413  -5271278.5132   3504619.9381   1   8   0.0039   0.0101   0.0063  -0.0015  -0.0062   0.0021   0.00   57.2
2173 373722.000    728280.5396  -5271278.5183   3504619.9396   1   8   0.0038   0.0101   0.0062  -0.0011  -0.0062   0.0012   0.00   57.1
2173 373723.000    728280.5397  -5271278.5122   3504619.9398   1   8   0.0043   0.0102   0.0065  -0.0004  -0.0062   0.0015   0.00   57.5
2173 373724.000    728280.5393  -5271278.5172   3504619.9411   1   8   0.0038   0.0101   0.0063  -0.0015  -0.0064   0.0015   0.00   57.4
2173 373725.000    728280.5397  -5271278.5150   3504619.9405   1   8   0.0038   0.0102   0.0065  -0.0018  -0.0064   0.0015   0.00   57.6
2173 373726.000    728280.5388  -5271278.5137   3504619.9390   1   8   0.0043   0.0102   0.0064  -0.0015  -0.0062  -0.0009   0.00   57.6
2173 373727.000    728280.5379  -5271278.5170   3504619.9388   1   8   0.0040   0.0101   0.0064  -0.0017  -0.0062   0.0003   0.00   57.7
2173 373728.000    728280.5394  -5271278.5159   3504619.9386   1   8   0.0036   0.0100   0.0063  -0.0022  -0.0064   0.0012   0.00   57.5
2173 373729.000    728280.5392  -5271278.5154   3504619.9383   1   8   0.0040   0.0102   0.0066  -0.0013  -0.0063   0.0013   0.00   57.6
2173 373730.000    728280.5382  -5271278.5147   3504619.9394   1   8   0.0040   0.0103   0.0065  -0.0007  -0.0061   0.0008   0.00   58.1
2173 373731.000    728280.5381  -5271278.5130   3504619.9361   1   8   0.0038   0.0101   0.0063  -0.0019  -0.0063   0.0013   0.00   58.6
2173 373732.000    728280.5387  -5271278.5138   3504619.9386   1   8   0.0036   0.0101   0.0064  -0.0015  -0.0063   0.0019   0.00   59.1
2173 373733.000    728280.5373  -5271278.5126   3504619.9357   1   8   0.0038   0.0102   0.0063  -0.0019  -0.0062   0.0015   0.00   59.4
2173 373734.000    728280.5385  -5271278.5152   3504619.9391   1   8   0.0040   0.0103   0.0066  -0.0014  -0.0061   0.0019   0.00   59.6
2173 373735.000    728280.5388  -5271278.5160   3504619.9379   1   8   0.0038   0.0102   0.0062  -0.0023  -0.0061   0.0019   0.00   60.1
2173 373736.000    728280.5377  -5271278.5140   3504619.9370   1   8   0.0039   0.0103   0.0063  -0.0014  -0.0062   0.0013   0.00   60.1
2173 373737.000    728280.5391  -5271278.5135   3504619.9362   1   8   0.0039   0.0101   0.0063  -0.0015  -0.0063   0.0005   0.00   60.5
2173 373738.000    728280.5381  -5271278.5165   3504619.9373   1   8   0.0041   0.0102   0.0065  -0.0015  -0.0063   0.0018   0.00   61.0
2173 373739.000    728280.5370  -5271278.5174   3504619.9377   1   8   0.0039   0.0101   0.0065  -0.0007  -0.0063   0.0011   0.00   61.5
2173 373740.000    728280.5363  -5271278.5171   3504619.9412   1   8   0.0037   0.0102   0.0064   0.0007  -0.0062   0.0020   0.00   62.1
2173 373741.000    728280.5361  -5271278.5125   3504619.9367   1   8   0.0035   0.0101   0.0062  -0.0019  -0.0062   0.0015   0.00   62.8
2173 373742.000    728280.5362  -5271278.5166   3504619.9400   1   8   0.0034   0.0102   0.0064  -0.0016  -0.0062   0.0017   0.00   63.1
2173 373743.000    728280.5381  -5271278.5177   3504619.9374   1   8   0.0042   0.0102   0.0064  -0.0010  -0.0061   0.0017   0.00   63.1
2173 373744.000    728280.5357  -5271278.5187   3504619.9409   1   8   0.0039   0.0102   0.0065  -0.0017  -0.0062   0.0024   0.00   63.4
2173 373745.000    728280.5367  -5271278.5157   3504619.9374   1   8   0.0040   0.0103   0.0066   0.0009  -0.0062   0.0010   0.00   63.9
2173 373746.000    728280.5385  -5271278.5175   3504619.9378   1   8   0.0039   0.0102   0.0064  -0.0016  -0.0062   0.0019   0.00   64.2
2173 373747.000    728280.5378  -5271278.5160   3504619.9390   1   8   0.0038   0.0101   0.0064  -0.0019  -0.0063   0.0011   0.00   64.8
2173 373748.000    728280.5375  -5271278.5146   3504619.9363   1   8   0.0042   0.0103   0.0063  -0.0008  -0.0062   0.0022   0.00   65.3
2173 373749.000    728280.5387  -5271278.5176   3504619.9404   1   8   0.0039   0.0102   0.0066  -0.0015  -0.0063   0.0010   0.00   66.0
2173 373750.000    728280.5363  -5271278.5189   3504619.9379   1   8   0.0035   0.0102   0.0063  -0.0020  -0.0062   0.0027   0.00   66.2
2173 373751.000    728280.5373  -5271278.5177   3504619.9387   1   8   0.0040   0.0101   0.0066  -0.0016  -0.0064  -0.0006   0.00   66.4
2173 373752.000    728280.5374  -5271278.5179   3504619.9376   1   8   0.0037   0.0102   0.0064  -0.0015  -0.0061   0.0019   0.00   66.2
2173 373753.000    728280.5360  -5271278.5169   3504619.9387   1   8   0.0039   0.0102   0.0064  -0.0018  -0.0062   0.0005   0.00   66.4
2173 373754.000    728280.5356  -5271278.5191   3504619.9397   1   8   0.0038   0.0102   0.0063  -0.0012  -0.0062   0.0022   0.00   66.5
2173 373755.000    728280.5361  -5271278.5184   3504619.9392   1   8   0.0037   0.0101   0.0064  -0.0016  -0.0063   0.0016   0.00   66.3
2173 373756.000    728280.5360  -5271278.5155   3504619.9396   1   8   0.0037   0.0103   0.0064  -0.0017  -0.0062   0.0022   0.00   66.5
2173 373757.000    728280.5375  -5271278.5159   3504619.9400   1   8   0.0040   0.0102   0.0063  -0.0013  -0.0062   0.0024   0.00   66.6
2173 373758.000    728280.5378  -5271278.5141   3504619.9366   1   8   0.0038   0.0102   0.0064  -0.0014  -0.0062  -0.0001   0.00   66.6
2173 373759.000    728280.5370  -5271278.5164   3504619.9423   1   8   0.0037   0.0101   0.0062  -0.0012  -0.0061   0.0023   0.00   66.8
2173 373760.000    728280.5384  -5271278.5210   3504619.9414   1   8   0.0043   0.0102   0.0065  -0.0016  -0.0063   0.0022   0.00   67.4
2173 373761.000    728280.5365  -5271278.5185   3504619.9420   1   8   0.0035   0.0102   0.0065  -0.0008  -0.0062   0.0024   0.00   67.2
2173 373762.000    728280.5379  -5271278.5210   3504619.9436   1   8   0.0033   0.0101   0.0064  -0.0013  -0.0061   0.0020   0.00   67.2
2173 373763.000    728280.5362  -5271278.5216   3504619.9442   1   8   0.0041   0.0102   0.0068  -0.0014  -0.0063  -0.0004   0.00   67.2
2173 373764.000    728280.5370  -5271278.5242   3504619.9428   1   8   0.0042   0.0103   0.0065  -0.0014  -0.0061   0.0021   0.00   67.4
2173 373765.000    728280.5370  -5271278.5214   3504619.9444   1   8   0.0042   0.0101   0.0064  -0.0010  -0.0062   0.0020   0.00   67.8
2173 373766.000    728280.5372  -5271278.5258   3504619.9437   1   8   0.0038   0.0102   0.0065  -0.0018  -0.0063   0.0015   0.00   68.0
2173 373767.000    728280.5370  -5271278.5213   3504619.9422   1   8   0.0040   0.0102   0.0066  -0.0012  -0.0063   0.0014   0.00   68.3
2173 373768.000    728280.5373  -5271278.5200   3504619.9425   1   8   0.0036   0.0102   0.0064   0.0008  -0.0063   0.0017   0.00   68.6
2173 373769.000    728280.5374  -5271278.5264   3504619.9457   1   8   0.0039   0.0102   0.0064  -0.0006  -0.0062   0.0018   0.00   68.7
2173 373770.000    728280.5356  -5271278.5254   3504619.9448   1   8   0.0036   0.0102   0.0066  -0.0009  -0.0062   0.0017   0.00   68.8
2173 373771.000    728280.5367  -5271278.5268   3504619.9445   1   8   0.0038   0.0101   0.0064  -0.0019  -0.0062   0.0013   0.00   69.0
2173 373772.000    728280.5356  -5271278.5282   3504619.9447   1   8   0.0039   0.0101   0.0063  -0.0015  -0.0062   0.0015   0.00   69.0
2173 373773.000    728280.5376  -5271278.5248   3504619.9435   1   8   0.0036   0.0101   0.0065  -0.0021  -0.0063   0.0018   0.00   69.1
2173 373774.000    728280.5343  -5271278.5227   3504619.9437   1   8   0.0037   0.0102   0.0064  -0.0011  -0.0062   0.0019   0.00   69.2
2173 373775.000    728280.5357  -5271278.5270   3504619.9450   1   8   0.0042   0.0102   0.0065  -0.0003  -0.0062   0.0018   0.00   69.4
2173 373776.000    728280.5370  -5271278.5268   3504619.9451   1   8   0.0034   0.0101   0.0062  -0.0016  -0.0064   0.0015   0.00   69.8
2173 373777.000    728280.5359  -5271278.5239   3504619.9453   1   8   0.0036   0.0101   0.0065  -0.0023  -0.0063   0.0023   0.00   69.9
2173 373778.000    728280.5366  -5271278.5288   3504619.9464   1   8   0.0035   0.0102   0.0063  -0.0013  -0.0062   0.0023   0.00   70.0
2173 373779.000    728280.5350  -5271278.5274   3504619.9437   1   8   0.0042   0.0101   0.0064  -0.0020  -0.0063   0.0014   0.00   69.9
2173 373780.000    728280.5367  -5271278.5291   3504619.9472   1   8   0.0038   0.0101   0.0065  -0.0009  -0.0062   0.0018   0.00   69.7
2173 373781.000    728280.5367  -5271278.5312   3504619.9476   1   8   0.0035   0.0102   0.0064  -0.0013  -0.0062   0.0008   0.00   69.5
2173 373782.000    728280.5370  -5271278.5269   3504619.9429   1   8   0.0039   0.0101   0.0062  -0.0020  -0.0062   0.0016   0.00   69.5
2173 373783.000    728280.5364  -5271278.5273   3504619.9451   1   8   0.0038   0.0101   0.0064  -0.0020  -0.0062   0.0019   0.00   69.3
2173 373784.000    728280.5352  -5271278.5287   3504619.9458   1   8   0.0039   0.0101   0.0066  -0.0019  -0.0062   0.0017   0.00   69.2
2173 373785.000    728280.5355  -5271278.5260   3504619.9412   1   8   0.0039   0.0101   0.0064  -0.0017  -0.0063   0.0023   0.00   69.1
2173 373786.000    728280.5346  -5271278.5273   3504619.9444   1   8   0.0043   0.0101   0.0063  -0.0024  -0.0063   0.0015   0.00   69.0
2173 373787.000    728280.5354  -5271278.5296   3504619.9450   1   8   0.0037   0.0102   0.0065  -0.0012  -0.0062   0.0016   0.00   69.0
2173 373788.000    728280.5333  -5271278.5267   3504619.9419   1   8   0.0041   0.0102   0.0065  -0.0013  -0.0062   0.0021   0.00   69.0
2173 373789.000    728280.5349  -5271278.5285   3504619.9450   1   8   0.0034   0.0100   0.0063  -0.0019  -0.0063   0.0017   0.00   69.3
2173 373790.000    728280.5349  -5271278.5310   3504619.9477   1   8   0.0041   0.0102   0.0066  -0.0013  -0.0062   0.0013   0.00   69.6
2173 373791.000    728280.5350  -5271278.5325   3504619.9473   1   8   0.0039   0.0101   0.0064  -0.0021  -0.0063   0.0021   0.00   69.7
2173 373792.000    728280.5345  -5271278.5254   3504619.9459   1   8   0.0035   0.0101   0.0064  -0.0015  -0.0062   0.0014   0.00   69.8
2173 373793.000    728280.5339  -5271278.5316   3504619.9467   1   8   0.0040   0.0102   0.0064  -0.0012  -0.0062   0.0020   0.00   70.2
2173 373794.000    728280.5332  -5271278.5318   3504619.9481   1   8   0.0039   0.0101   0.0064  -0.0012  -0.0063   0.0009   0.00   70.2
2173 373795.000    728280.5336  -5271278.5325   3504619.9472   1   8   0.0041   0.0102   0.0065   0.0004  -0.0062   0.0024   0.00   70.2
2173 373796.000    728280.5334  -5271278.5307   3504619.9469   1   8   0.0039   0.0102   0.0065  -0.0019  -0.0061   0.0019   0.00   70.3
2173 373797.000    728280.5322  -5271278.5315   3504619.9470   1   8   0.0042   0.0101   0.0066  -0.0016  -0.0062   0.0016   0.00   70.4
2173 373798.000    728280.5339  -5271278.5301   3504619.9470   1   8   0.0043   0.0101   0.0066  -0.0016  -0.0063   0.0016   0.00   70.7
2173 373799.000    728280.5360  -5271278.5380   3504619.9460   1   8   0.0040   0.0102   0.0065  -0.0009  -0.0062   0.0020   0.00   70.9
2173 373800.000    728280.5338  -5271278.5331   3504619.9446   1   8   0.0042   0.0103   0.0065  -0.0012  -0.0061   0.0015   0.00   71.4
2173 373801.000    728280.5340  -5271278.5346   3504619.9485   1   8   0.0041   0.0102   0.0063  -0.0014  -0.0060   0.0023   0.00   71.8
2173 373802.000    728280.5347  -5271278.5332   3504619.9458   1   8   0.0044   0.0101   0.0067  -0.0011  -0.0062   0.0009   0.00   72.3
2173 373803.000    728280.5350  -5271278.5335   3504619.9473   1   8   0.0037   0.0101   0.0065  -0.0021  -0.0063   0.0014   0.00   72.6
2173 373804.000    728280.5336  -5271278.5312   3504619.9480   1   8   0.0040   0.0100   0.0064  -0.0023  -0.0064   0.0022   0.00   72.9
2173 373805.000    728280.5333  -5271278.5368   3504619.9491   1   8   0.0039   0.0101   0.0064  -0.0016  -0.0062   0.0019   0.00   73.0
2173 373806.000    728280.5342  -5271278.5367   3504619.9483   1   8   0.0044   0.0102   0.0068  -0.0012  -0.0063  -0.0003   0.00   73.1
2173 373807.000    728280.5331  -5271278.5331   3504619.9476   1   8   0.0040   0.0102   0.0065  -0.0014  -0.0061   0.0018   0.00   73.3
2173 373808.000    728280.5337  -5271278.5306   3504619.9453   1   8   0.0036   0.0100   0.0065  -0.0011  -0.0063   0.0010   0.00   73.5
2173 373809.000    728280.5327  -5271278.5333   3504619.9488   1   8   0.0039   0.0100   0.0065  -0.0014  -0.0062   0.0019   0.00   73.5
2173 373810.000    728280.5325  -5271278.5376   3504619.9478   1   8   0.0042   0.0101   0.0065  -0.0017  -0.0063   0.0018   0.00   73.6
2173 373811.000    728280.5339  -5271278.5334   3504619.9476   1   8   0.0040   0.0100   0.0065  -0.0023  -0.0063   0.0014   0.00   73.8
2173 373812.000    728280.5330  -5271278.5344   3504619.9484   1   8   0.0037   0.0100   0.0063  -0.0017  -0.0062   0.0016   0.00   73.9
2173 373813.000    728280.5330  -5271278.5349   3504619.9497   1   8   0.0042   0.0102   0.0067  -0.0021  -0.0062   0.0019   0.00   74.3
2173 373814.000    728280.5338  -5271278.5343   3504619.9454   1   8   0.0039   0.0101   0.0067  -0.0022  -0.0064   0.0008   0.00   74.5
2173 373815.000    728280.5336  -5271278.5343   3504619.9477   1   8   0.0040   0.0101   0.0066  -0.0016  -0.0062   0.0012   0.00   74.8
2173 373816.000    728280.5335  -5271278.5365   3504619.9487   1   8   0.0036   0.0100   0.0063  -0.0018  -0.0063   0.0018   0.00   74.9
2173 373817.000    728280.5337  -5271278.5369   3504619.9482   1   8   0.0039   0.0101   0.0065  -0.0013  -0.0063   0.0018   0.00   75.0
2173 373818.000    728280.5320  -5271278.5356   3504619.9471   1   8   0.0042   0.0100   0.0064  -0.0021  -0.0063   0.0015   0.00   75.1
2173 373819.000    728280.5314  -5271278.5348   3504619.9473   1   8   0.0042   0.0102   0.0066  -0.0012  -0.0062   0.0018   0.00   75.1
2173 373820.000    728280.5338  -5271278.5410   3504619.9482   1   8   0.0038   0.0101   0.0066  -0.0009  -0.0061   0.0010   0.00   75.2
2173 373821.000    728280.5329  -5271278.5377   3504619.9475   1   8   0.0038   0.0100   0.0064  -0.0026  -0.0063   0.0017   0.00   75.2
2173 373822.000    728280.5339  -5271278.5309   3504619.9462   1   8   0.0039   0.0101   0.0065  -0.0018  -0.0062   0.0023   0.00   75.1
2173 373823.000    728280.5339  -5271278.5335   3504619.9445   1   8   0.0035   0.0101   0.0065  -0.0018  -0.0062   0.0015   0.00   74.9
2173 373824.000    728280.5342  -5271278.5346   3504619.9451   1   8   0.0040   0.0101   0.0066  -0.0014  -0.0062   0.0019   0.00   75.0
2173 373825.000    728280.5340  -5271278.5372   3504619.9499   1   8   0.0039   0.0102   0.0066  -0.0002  -0.0062   0.0006   0.00   75.0
2173 373826.000    728280.5326  -5271278.5378   3504619.9485   1   8   0.0037   0.0101   0.0065  -0.0018  -0.0063   0.0015   0.00   74.9
2173 373827.000    728280.5318  -5271278.5356   3504619.9472   1   8   0.0040   0.0102   0.0064  -0.0017  -0.0062   0.0022   0.00   74.7
2173 373828.000    728280.5328  -5271278.5401   3504619.9501   1   8   0.0037   0.0100   0.0066  -0.0017  -0.0063   0.0017   0.00   74.8
2173 373829.000    728280.5336  -5271278.5368   3504619.9485   1   8   0.0041   0.0101   0.0066  -0.0015  -0.0063   0.0016   0.00   74.9
2173 373830.000    728280.5329  -5271278.5342   3504619.9487   1   8   0.0039   0.0102   0.0065  -0.0012  -0.0063   0.0023   0.00   75.1
2173 373831.000    728280.5328  -5271278.5365   3504619.9492   1   8   0.0041   0.0100   0.0065  -0.0020  -0.0064   0.0021   0.00   75.3
2173 373832.000    728280.5349  -5271278.5382   3504619.9513   1   8   0.0040   0.0102   0.0065  -0.0016  -0.0062   0.0017   0.00   75.3
2173 373833.000    728280.5324  -5271278.5363   3504619.9504   1   8   0.0036   0.0100   0.0066  -0.0019  -0.0064   0.0017   0.00   75.0
2173 373834.000    728280.5326  -5271278.5337   3504619.9471   1   8   0.0038   0.0100   0.0065  -0.0020  -0.0063  -0.0007   0.00   74.8
2173 373835.000    728280.5329  -5271278.5345   3504619.9479   1   8   0.0041   0.0100   0.0064  -0.0018  -0.0062   0.0006   0.00   74.8
2173 373836.000    728280.5349  -5271278.5349   3504619.9459   1   8   0.0040   0.0101   0.0065  -0.0010  -0.0062   0.0009   0.00   74.9
2173 373837.000    728280.5346  -5271278.5408   3504619.9494   1   8   0.0034   0.0101   0.0064  -0.0013  -0.0061   0.0023   0.00   74.8
2173 373838.000    728280.5326  -5271278.5361   3504619.9485   1   8   0.0038   0.0101   0.0067  -0.0019  -0.0063   0.0020   0.00   74.7
2173 373839.000    728280.5360  -5271278.5372   3504619.9484   1   8   0.0039   0.0100   0.0065  -0.0012  -0.0062   0.0023   0.00   74.6
2173 373840.000    728280.5346  -5271278.5389   3504619.9486   1   8   0.0041   0.0101   0.0066  -0.0011  -0.0063   0.0023   0.00   74.5
2173 373841.000    728280.5346  -5271278.5357   3504619.9459   1   8   0.0039   0.0101   0.0066  -0.0018  -0.0063   0.0023   0.00   74.4
2173 373842.000    728280.5353  -5271278.5380   3504619.9478   1   8   0.0039   0.0101   0.0066  -0.0013  -0.0062   0.0018   0.00   74.3
2173 373843.000    728280.5353  -5271278.5405   3504619.9500   1   8   0.0039   0.0101   0.0064  -0.0014  -0.0063   0.0020   0.00   74.1
2173 373844.000    728280.5353  -5271278.5362   3504619.9513   1   8   0.0040   0.0100   0.0067  -0.0014  -0.0064   0.0019   0.00   73.8
2173 373845.000    728280.5364  -5271278.5358   3504619.9497   1   8   0.0040   0.0100   0.0064  -0.0013  -0.0063   0.0018   0.00   73.7
2173 373846.000    728280.5321  -5271278.5373   3504619.9497   1   8   0.0040   0.0101   0.0065  -0.0016  -0.0063   0.0019   0.00   73.4
2173 373847.000    728280.5342  -5271278.5380   3504619.9517   1   8   0.0036   0.0100   0.0064  -0.0022  -0.0063   0.0021   0.00   73.3
2173 373848.000    728280.5344  -5271278.5387   3504619.9521   1   8   0.0043   0.0101   0.0064  -0.0013  -0.0063   0.0015   0.00   73.1
2173 373849.000    728280.5358  -5271278.5358   3504619.9505   1   8   0.0038   0.0101   0.0064  -0.0016  -0.0062   0.0017   0.00   72.9
2173 373850.000    728280.5328  -5271278.5378   3504619.9504   1   8   0.0044   0.0101   0.0066  -0.0015  -0.0063   0.0018   0.00   72.4
2173 373851.000    728280.5352  -5271278.5355   3504619.9496   1   8   0.0041   0.0101   0.0066  -0.0018  -0.0062   0.0017   0.00   72.3
2173 373852.000    728280.5342  -5271278.5328   3504619.9500   1   8   0.0040   0.0100   0.0065  -0.0018  -0.0063   0.0012   0.00   72.2
2173 373853.000    728280.5360  -5271278.5370   3504619.9517   1   8   0.0042   0.0101   0.0066  -0.0013  -0.0062   0.0018   0.00   71.9
2173 373854.000    728280.5338  -5271278.5364   3504619.9474   1   8   0.0039   0.0101   0.0065  -0.0018  -0.0062   0.0015   0.00   71.8
2173 373855.000    728280.5339  -5271278.5351   3504619.9461   1   8   0.0040   0.0100   0.0064  -0.0021  -0.0063   0.0011   0.00   71.9
2173 373856.000    728280.5338  -5271278.5373   3504619.9491   1   8   0.0039   0.0102   0.0067  -0.0015  -0.0062   0.0018   0.00   71.7
2173 373857.000    728280.5323  -5271278.5298   3504619.9440   1   8   0.0039   0.0100   0.0066  -0.0021  -0.0064   0.0018   0.00   71.6
2173 373858.000    728280.5337  -5271278.5343   3504619.9455   1   8   0.0036   0.0100   0.0064  -0.0011  -0.0063   0.0017   0.00   71.7
2173 373859.000    728280.5318  -5271278.5361   3504619.9489   1   8   0.0041   0.0101   0.0065  -0.0015  -0.0062   0.0023   0.00   71.5
2173 373860.000    728280.5311  -5271278.5362   3504619.9474   1   8   0.0034   0.0101   0.0064  -0.0017  -0.0061   0.0023   0.00   71.4
2173 373861.000    728280.5341  -5271278.5357   3504619.9484   1   8   0.0036   0.0100   0.0065  -0.0019  -0.0063   0.0007   0.00   71.3
2173 373862.000    728280.5338  -5271278.5346   3504619.9474   1   8   0.0038   0.0099   0.0065  -0.0017  -0.0064   0.0012   0.00   71.0
2173 373863.000    728280.5336  -5271278.5308   3504619.9480   1   8   0.0043   0.0100   0.0067  -0.0017  -0.0063  -0.0006   0.00   70.9
2173 373864.000    728280.5343  -5271278.5311   3504619.9457   1   8   0.0042   0.0100   0.0066  -0.0016  -0.0063   0.0009   0.00   70.7
2173 373865.000    728280.5339  -5271278.5324   3504619.9460   1   8   0.0042   0.0100   0.0067  -0.0014  -0.0064   0.0012   0.00   70.4
2173 373866.000    728280.5359  -5271278.5331   3504619.9457   1   8   0.0039   0.0100   0.0063  -0.0023  -0.0063   0.0021   0.00   70.1
2173 373867.000    728280.5349  -5271278.5355   3504619.9459   1   8   0.0041   0.0100   0.0064  -0.0021  -0.0063   0.0012   0.00   69.8
2173 373868.000    728280.5345  -5271278.5371   3504619.9482   1   8   0.0040   0.0100   0.0066  -0.0017  -0.0062   0.0019   0.00   69.5
2173 373869.000    728280.5352  -5271278.5356   3504619.9487   1   8   0.0036   0.0100   0.0065  -0.0019  -0.0062   0.0008   0.00   69.3
2173 373870.000    728280.5353  -5271278.5313   3504619.9463   1   8   0.0038   0.0101   0.0064  -0.0013  -0.0062   0.0026   0.00   69.0
2173 373871.000    728280.5343  -5271278.5310   3504619.9495   1   8   0.0042   0.0102   0.0067  -0.0019  -0.0063   0.0012   0.00   68.6
2173 373872.000    728280.5351  -5271278.5300   3504619.9456   1   8   0.0037   0.0102   0.0067  -0.0011  -0.0062  -0.0013   0.00   68.3
2173 373873.000    728280.5355  -5271278.5269   3504619.9449   1   8   0.0038   0.0100   0.0065  -0.0013  -0.0063   0.0021   0.00   68.1
2173 373874.000    728280.5348  -5271278.5334   3504619.9468   1   8   0.0036   0.0099   0.0065  -0.0021  -0.0063   0.0015   0.00   67.9
2173 373875.000    728280.5342  -5271278.5325   3504619.9481   1   8   0.0040   0.0101   0.0065  -0.0011  -0.0063   0.0018   0.00   67.6
2173 373876.000    728280.5323  -5271278.5323   3504619.9465   1   8   0.0040   0.0101   0.0066  -0.0011  -0.0062   0.0015   0.00   67.4
2173 373877.000    728280.5338  -5271278.5279   3504619.9457   1   8   0.0037   0.0100   0.0065  -0.0019  -0.0064   0.0019   0.00   67.3
2173 373878.000    728280.5338  -5271278.5295   3504619.9474   1   8   0.0040   0.0100   0.0067  -0.0020  -0.0062   0.0019   0.00   67.1
2173 373879.000    728280.5343  -5271278.5302   3504619.9458   1   8   0.0039   0.0101   0.0064  -0.0014  -0.0062   0.0024   0.00   66.9
2173 373880.000    728280.5337  -5271278.5328   3504619.9476   1   8   0.0039   0.0101   0.0065  -0.0014  -0.0063   0.0022   0.00   66.7
2173 373881.000    728280.5343  -5271278.5294   3504619.9454   1   8   0.0044   0.0102   0.0066  -0.0012  -0.0062   0.0020   0.00   66.5
2173 373882.000    728280.5321  -5271278.5311   3504619.9476   1   8   0.0039   0.0101   0.0064  -0.0017  -0.0062   0.0019   0.00   66.4
2173 373883.000    728280.5345  -5271278.5302   3504619.9442   1   8   0.0036   0.0100   0.0064  -0.0017  -0.0062   0.0020   0.00   66.2
2173 373884.000    728280.5329  -5271278.5303   3504619.9468   1   8   0.0040   0.0101   0.0065  -0.0015  -0.0062   0.0020   0.00   66.2
2173 373885.000    728280.5334  -5271278.5315   3504619.9454   1   8   0.0039   0.0101   0.0066  -0.0016  -0.0061   0.0018   0.00   66.0
2173 373886.000    728280.5322  -5271278.5355   3504619.9483   1   8   0.0042   0.0100   0.0065  -0.0012  -0.0063   0.0019   0.00   65.8
2173 373887.000    728280.5339  -5271278.5343   3504619.9488   1   8   0.0041   0.0101   0.0066  -0.0010  -0.0062   0.0016   0.00   65.7
2173 373888.000    728280.5358  -5271278.5347   3504619.9483   1   8   0.0040   0.0101   0.0067  -0.0013  -0.0061   0.0017   0.00   65.5
2173 373889.000    728280.5342  -5271278.5335   3504619.9490   1   8   0.0040   0.0099   0.0068  -0.0014  -0.0062   0.0009   0.00   65.5
2173 373890.000    728280.5325  -5271278.5301   3504619.9473   1   8   0.0038   0.0100   0.0066  -0.0015  -0.0063   0.0020   0.00   65.5
2173 373891.000    728280.5341  -5271278.5297   3504619.9486   1   8   0.0040   0.0101   0.0066  -0.0013  -0.0063   0.0018   0.00   65.4
2173 373892.000    728280.5343  -5271278.5266   3504619.9439   1   8   0.0039   0.0101   0.0064  -0.0017  -0.0062   0.0019   0.00   65.4
2173 373893.000    728280.5355  -5271278.5292   3504619.9458   1   8   0.0041   0.0100   0.0066  -0.0023  -0.0064   0.0008   0.00   65.4
2173 373894.000    728280.5318  -5271278.5303   3504619.9483   1   8   0.0040   0.0101   0.0067  -0.0017  -0.0061   0.0019   0.00   65.3
2173 373895.000    728280.5330  -5271278.5249   3504619.9460   1   8   0.0041   0.0100   0.0067  -0.0019  -0.0063   0.0013   0.00   65.2
2173 373896.000    728280.5351  -5271278.5272   3504619.9467   1   8   0.0038   0.0100   0.0065  -0.0016  -0.0062   0.0019   0.00   65.1
2173 373897.000    728280.5347  -5271278.5286   3504619.9469   1   8   0.0038   0.0101   0.0066  -0.0013  -0.0062   0.0025   0.00   65.0
2173 373898.000    728280.5353  -5271278.5313   3504619.9497   1   8   0.0040   0.0101   0.0065  -0.0019  -0.0062   0.0011   0.00   64.9
2173 373899.000    728280.5350  -5271278.5281   3504619.9482   1   8   0.0038   0.0099   0.0065  -0.0018  -0.0062   0.0011   0.00   64.8
2173 373900.000    728280.5360  -5271278.5274   3504619.9471   1   8   0.0036   0.0099   0.0064  -0.0020  -0.0063   0.0019   0.00   64.8
2173 373901.000    728280.5341  -5271278.5292   3504619.9473   1   8   0.0039   0.0101   0.0067  -0.0016  -0.0063   0.0019   0.00   64.8
2173 373902.000    728280.5337  -5271278.5261   3504619.9476   1   8   0.0039   0.0099   0.0066  -0.0016  -0.0064   0.0018   0.00   64.7
2173 373903.000    728280.5353  -5271278.5287   3504619.9466   1   8   0.0041   0.0100   0.0065  -0.0022  -0.0062   0.0016   0.00   64.7
2173 373904.000    728280.5343  -5271278.5325   3504619.9493   1   8   0.0035   0.0101   0.0065  -0.0018  -0.0062   0.0022   0.00   64.8
2173 373905.000    728280.5355  -5271278.5317   3504619.9482   1   8   0.0040   0.0100   0.0067  -0.0017  -0.0062  -0.0009   0.00   64.9
2173 373906.000    728280.5354  -5271278.5340   3504619.9503   1   8   0.0040   0.0100   0.0067  -0.0014  -0.0062   0.0022   0.00   65.1
2173 373907.000    728280.5356  -5271278.5360   3504619.9491   1   8   0.0037   0.0101   0.0066  -0.0013  -0.0061   0.0024   0.00   65.1
2173 373908.000    728280.5361  -5271278.5327   3504619.9505   1   8   0.0040   0.0099   0.0065  -0.0013  -0.0063   0.0021   0.00   64.9
2173 373909.000    728280.5341  -5271278.5305   3504619.9469   1   8   0.0040   0.0100   0.0065  -0.0016  -0.0063   0.0016   0.00   65.0
2173 373910.000    728280.5340  -5271278.5338   3504619.9476   1   8   0.0041   0.0100   0.0066  -0.0010  -0.0063   0.0021   0.00   65.1
2173 373911.000    728280.5344  -5271278.5311   3504619.9462   1   8   0.0041   0.0099   0.0067  -0.0018  -0.0063   0.0022   0.00   65.2
2173 373912.000    728280.5340  -5271278.5319   3504619.9483   1   8   0.0039   0.0099   0.0066  -0.0023  -0.0063   0.0019   0.00   65.1
2173 373913.000    728280.5333  -5271278.5295   3504619.9477   1   8   0.0036   0.0101   0.0065  -0.0017  -0.0062   0.0020   0.00   65.0
2173 373914.000    728280.5354  -5271278.5299   3504619.9471   1   8   0.0038   0.0100   0.0064  -0.0013  -0.0063   0.0018   0.00   65.1
2173 373915.000    728280.5346  -5271278.5301   3504619.9486   1   8   0.0038   0.0101   0.0065  -0.0020  -0.0063   0.0021   0.00   65.1
2173 373916.000    728280.5352  -5271278.5297   3504619.9477   1   8   0.0039   0.0100   0.0065  -0.0007  -0.0062   0.0018   0.00   65.0
2173 373917.000    728280.5353  -5271278.5246   3504619.9475   1   8   0.0039   0.0099   0.0065  -0.0012  -0.0063   0.0016   0.00   64.9
2173 373918.000    728280.5361  -5271278.5266   3504619.9468   1   8   0.0038   0.0100   0.0065  -0.0021  -0.0062   0.0021   0.00   64.8
2173 373919.000    728280.5363  -5271278.5263   3504619.9484   1   8   0.0043   0.0101   0.0064  -0.0007  -0.0062   0.0018   0.00   64.7
2173 373920.000    728280.5364  -5271278.5239   3504619.9481   1   8   0.0038   0.0100   0.0067  -0.0015  -0.0062   0.0025   0.00   64.7
2173 373921.000    728280.5344  -5271278.5253   3504619.9491   1   8   0.0036   0.0098   0.0066  -0.0018  -0.0063   0.0019   0.00   64.7
2173 373922.000    728280.5352  -5271278.5203   3504619.9487   1   8   0.0043   0.0100   0.0067  -0.0012  -0.0062   0.0018   0.00   64.7
2173 373923.000    728280.5358  -5271278.5250   3504619.9478   1   8   0.0037   0.0100   0.0066  -0.0020  -0.0063   0.0014   0.00   64.7
2173 373924.000    728280.5345  -5271278.5297   3504619.9494   1   8   0.0040   0.0101   0.0066  -0.0017  -0.0062   0.0021   0.00   64.8
2173 373925.000    728280.5339  -5271278.5278   3504619.9488   1   8   0.0038   0.0100   0.0066  -0.0007  -0.0062   0.0018   0.00   64.9
2173 373926.000    728280.5348  -5271278.5239   3504619.9451   1   8   0.0043   0.0100   0.0067  -0.0010  -0.0062  -0.0009   0.00   65.0
2173 373927.000    728280.5346  -5271278.5253   3504619.9484   1   8   0.0041   0.0100   0.0067  -0.0020  -0.0063   0.0013   0.00   65.1
2173 373928.000    728280.5358  -5271278.5239   3504619.9489   1   8   0.0041   0.0100   0.0066   0.0002  -0.0062   0.0011   0.00   65.0
2173 373929.000    728280.5356  -5271278.5227   3504619.9465   1   8   0.0037   0.0100   0.0065  -0.0023  -0.0063   0.0022   0.00   65.0
2173 373930.000    728280.5360  -5271278.5277   3504619.9489   1   8   0.0039   0.0100   0.0067  -0.0016  -0.0062   0.0020   0.00   65.1
2173 373931.000    728280.5355  -5271278.5198   3504619.9460   1   8   0.0039   0.0100   0.0067  -0.0015  -0.0062   0.0019   0.00   65.1
2173 373932.000    728280.5339  -5271278.5256   3504619.9483   1   8   0.0041   0.0100   0.0066  -0.0011  -0.0062   0.0016   0.00   65.1
2173 373933.000    728280.5336  -5271278.5210   3504619.9473   1   8   0.0036   0.0099   0.0064  -0.0020  -0.0063   0.0016   0.00   65.2
2173 373934.000    728280.5335  -5271278.5249   3504619.9480   1   8   0.0036   0.0100   0.0066  -0.0016  -0.0061   0.0016   0.00   65.3
2173 373935.000    728280.5329  -5271278.5244   3504619.9487   1   8   0.0038   0.0100   0.0065  -0.0019  -0.0063   0.0020   0.00   65.4
2173 373936.000    728280.5331  -5271278.5187   3504619.9470   1   8   0.0044   0.0100   0.0068  -0.0014  -0.0063  -0.0007   0.00   65.6
2173 373937.000    728280.5339  -5271278.5211   3504619.9472   1   8   0.0037   0.0100   0.0067  -0.0019  -0.0062   0.0021   0.00   65.8
2173 373938.000    728280.5360  -5271278.5197   3504619.9483   1   8   0.0043   0.0100   0.0066  -0.0010  -0.0063   0.0021   0.00   65.9
2173 373939.000    728280.5336  -5271278.5159   3504619.9448   1   8   0.0036   0.0101   0.0066  -0.0016  -0.0062   0.0012   0.00   66.2
2173 373940.000    728280.5338  -5271278.5165   3504619.9446   1   8   0.0035   0.0100   0.0068  -0.0018  -0.0063   0.0018   0.00   66.2
2173 373941.000    728280.5342  -5271278.5149   3504619.9440   1   8   0.0037   0.0100   0.0066  -0.0017  -0.0062  -0.0004   0.00   66.3
2173 373942.000    728280.5343  -5271278.5145   3504619.9438   1   8   0.0036   0.0100   0.0064  -0.0010  -0.0062   0.0021   0.00   66.5
2173 373943.000    728280.5335  -5271278.5108   3504619.9450   1   8   0.0043   0.0099   0.0067  -0.0012  -0.0063   0.0015   0.00   66.6
2173 373944.000    728280.5337  -5271278.5196   3504619.9470   1   8   0.0037   0.0100   0.0067  -0.0014  -0.0062   0.0016   0.00   66.7
2173 373945.000    728280.5338  -5271278.5217   3504619.9456   1   8   0.0038   0.0099   0.0068  -0.0023  -0.0062   0.0012   0.00   67.0
2173 373946.000    728280.5345  -5271278.5206   3504619.9468   1   8   0.0043   0.0100   0.0064  -0.0014  -0.0062   0.0017   0.00   67.1
2173 373947.000    728280.5348  -5271278.5163   3504619.9438   1   8   0.0038   0.0100   0.0068  -0.0018  -0.0063   0.0015   0.00   67.1
2173 373948.000    728280.5344  -5271278.5210   3504619.9468   1   8   0.0036   0.0099   0.0067  -0.0015  -0.0063   0.0019   0.00   67.2
2173 373949.000    728280.5340  -5271278.5122   3504619.9429   1   8   0.0038   0.0100   0.0067  -0.0008  -0.0062   0.0016   0.00   67.5
2173 373950.000    728280.5341  -5271278.5147   3504619.9432   1   8   0.0036   0.0099   0.0067  -0.0022  -0.0064  -0.0002   0.00   67.7
2173 373951.000    728280.5342  -5271278.5173   3504619.9459   1   8   0.0036   0.0101   0.0065  -0.0011  -0.0062   0.0026   0.00   68.0
2173 373952.000    728280.5333  -5271278.5155   3504619.9442   1   8   0.0040   0.0101   0.0066  -0.0013  -0.0062   0.0014   0.00   68.2
2173 373953.000    728280.5329  -5271278.5168   3504619.9445   1   8   0.0040   0.0100   0.0067  -0.0016  -0.0063   0.0011   0.00   68.4
2173 373954.000    728280.5336  -5271278.5123   3504619.9457   1   8   0.0033   0.0099   0.0066  -0.0019  -0.0063   0.0022   0.00   68.8
2173 373955.000    728280.5323  -5271278.5162   3504619.9460   1   8   0.0037   0.0099   0.0064  -0.0020  -0.0063   0.0017   0.00   68.8
2173 373956.000    728280.5328  -5271278.5131   3504619.9441   1   8   0.0042   0.0100   0.0065  -0.0020  -0.0064   0.0026   0.00   69.0
2173 373957.000    728280.5321  -5271278.5121   3504619.9434   1   8   0.0042   0.0099   0.0068  -0.0015  -0.0063  -0.0005   0.00   69.1
2173 373958.000    728280.5336  -5271278.5134   3504619.9439   1   8   0.0041   0.0100   0.0066  -0.0017  -0.0062   0.0016   0.00   69.3
2173 373959.000    728280.5335  -5271278.5140   3504619.9447   1   8   0.0037   0.0100   0.0066  -0.0010  -0.0062   0.0019   0.00   69.6
2173 373960.000    728280.5327  -5271278.5151   3504619.9454   1   8   0.0039   0.0099   0.0066  -0.0021  -0.0063   0.0019   0.00   69.8
2173 373961.000    728280.5357  -5271278.5150   3504619.9465   1   8   0.0035   0.0098   0.0065  -0.0016  -0.0064   0.0020   0.00   70.0
2173 373962.000    728280.5343  -5271278.5145   3504619.9429   1   8   0.0038   0.0099   0.0067  -0.0020  -0.0064   0.0016   0.00   70.3
2173 373963.000    728280.5339  -5271278.5128   3504619.9450   1   8   0.0041   0.0099   0.0067  -0.0020  -0.0064   0.0008   0.00   70.6
2173 373964.000    728280.5318  -5271278.5162   3504619.9471   1   8   0.0035   0.0099   0.0068  -0.0024  -0.0064   0.0019   0.00   70.8
2173 373965.000    728280.5343  -5271278.5192   3504619.9456   1   8   0.0041   0.0100   0.0068  -0.0017  -0.0063   0.0021   0.00   71.1
2173 373966.000    728280.5333  -5271278.5145   3504619.9454   1   8   0.0037   0.0100   0.0066  -0.0017  -0.0063   0.0018   0.00   71.6
2173 373967.000    728280.5349  -5271278.5168   3504619.9461   1   8   0.0039   0.0099   0.0065  -0.0019  -0.0064   0.0009   0.00   71.9
2173 373968.000    728280.5349  -5271278.5160   3504619.9475   1   8   0.0039   0.0098   0.0067  -0.0017  -0.0063   0.0012   0.00   72.3
2173 373969.000    728280.5347  -5271278.5072   3504619.9398   1   8   0.0042   0.0101   0.0069  -0.0021  -0.0063   0.0025   0.00   72.6
2173 373970.000    728280.5334  -5271278.5087   3504619.9412   1   8   0.0036   0.0100   0.0067  -0.0018  -0.0063   0.0022   0.00   72.9
2173 373971.000    728280.5312  -5271278.5043   3504619.9396   1   8   0.0041   0.0101   0.0068  -0.0015  -0.0060  -0.0008   0.00   73.3
2173 373972.000    728280.5321  -5271278.5061   3504619.9417   1   8   0.0044   0.0100   0.0067  -0.0016  -0.0063   0.0018   0.00   73.5
2173 373973.000    728280.5338  -5271278.5075   3504619.9423   1   8   0.0038   0.0099   0.0066  -0.0010  -0.0063   0.0015   0.00   73.8
2173 373974.000    728280.5346  -5271278.5087   3504619.9440   1   8   0.0037   0.0098   0.0066  -0.0017  -0.0064   0.0024   0.00   74.1
2173 373975.000    728280.5356  -5271278.5092   3504619.9411   1   8   0.0037   0.0098   0.0064  -0.0012  -0.0064   0.0024   0.00   74.4
2173 373976.000    728280.5337  -5271278.5087   3504619.9423   1   8   0.0042   0.0100   0.0069  -0.0014  -0.0063   0.0016   0.00   74.8
2173 373977.000    728280.5343  -5271278.5082   3504619.9433   1   8   0.0039   0.0100   0.0068  -0.0012  -0.0062   0.0017   0.00   75.2
2173 373978.000    728280.5333  -5271278.5092   3504619.9414   1   8   0.0038   0.0098   0.0065  -0.0017  -0.0064   0.0018   0.00   75.7
2173 373979.000    728280.5347  -5271278.5063   3504619.9405   1   8   0.0043   0.0099   0.0067  -0.0020  -0.0063   0.0014   0.00   76.0
2173 373980.000    728280.5338  -5271278.5100   3504619.9420   1   8   0.0042   0.0099   0.0067  -0.0021  -0.0063   0.0016   0.00   76.3
2173 373981.000    728280.5335  -5271278.5128   3504619.9429   1   8   0.0042   0.0101   0.0066  -0.0009  -0.0061   0.0018   0.00   76.6
2173 373982.000    728280.5331  -5271278.5082   3504619.9394   1   8   0.0038   0.0100   0.0068  -0.0015  -0.0063   0.0004   0.00   76.9
2173 373983.000    728280.5334  -5271278.5085   3504619.9398   1   8   0.0040   0.0101   0.0065  -0.0008  -0.0062   0.0014   0.00   77.2
2173 373984.000    728280.5348  -5271278.5090   3504619.9426   1   8   0.0042   0.0100   0.0065  -0.0019  -0.0063   0.0015   0.00   77.5
2173 373985.000    728280.5326  -5271278.5051   3504619.9394   1   8   0.0032   0.0099   0.0066  -0.0021  -0.0062   0.0023   0.00   77.9
2173 373986.000    728280.5327  -5271278.5101   3504619.9403   1   8   0.0040   0.0099   0.0067  -0.0022  -0.0063   0.0015   0.00   78.3
2173 373987.000    728280.5340  -5271278.5112   3504619.9423   1   8   0.0033   0.0099   0.0067  -0.0014  -0.0062   0.0015   0.00   78.9
2173 373988.000    728280.5320  -5271278.5038   3504619.9404   1   8   0.0035   0.0097   0.0068  -0.0019  -0.0064  -0.0007   0.00   79.3
2173 373989.000    728280.5359  -5271278.5078   3504619.9414   1   8   0.0036   0.0101   0.0067  -0.0018  -0.0061   0.0024   0.00   79.7
2173 373990.000    728280.5343  -5271278.5047   3504619.9400   1   8   0.0036   0.0099   0.0067  -0.0021  -0.0063   0.0021   0.00   80.1
2173 373991.000    728280.5346  -5271278.5094   3504619.9420   1   8   0.0040   0.0100   0.0066  -0.0018  -0.0062   0.0022   0.00   80.4
2173 373992.000    728280.5359  -5271278.5084   3504619.9414   1   8   0.0040   0.0099   0.0068  -0.0016  -0.0064  -0.0007   0.00   80.9
2173 373993.000    728280.5365  -5271278.5069   3504619.9418   1   8   0.0043   0.0098   0.0067  -0.0012  -0.0064   0.0017   0.00   81.2
2173 373994.000    728280.5351  -5271278.5068   3504619.9410   1   8   0.0038   0.0099   0.0067  -0.0016  -0.0064   0.0009   0.00   81.6
2173 373995.000    728280.5355  -5271278.5046   3504619.9402   1   8   0.0039   0.0099   0.0067  -0.0016  -0.0063   0.0017   0.00   81.9
2173 373996.000    728280.5358  -5271278.5095   3504619.9436   1   8   0.0043   0.0100   0.0066  -0.0013  -0.0062   0.0014   0.00   82.4
2173 373997.000    728280.5333  -5271278.5032   3504619.9401   1   8   0.0038   0.0098   0.0067  -0.0018  -0.0063   0.0020   0.00   82.7
2173 373998.000    728280.5345  -5271278.5024   3504619.9396   1   8   0.0038   0.0099   0.0068  -0.0021  -0.0064   0.0020   0.00   83.1
2173 373999.000    728280.5342  -5271278.5051   3504619.9406   1   8   0.0039   0.0099   0.0065  -0.0016  -0.0063   0.0020   0.00   83.6
2173 374000.000    728280.5358  -5271278.5028   3504619.9414   1   8   0.0039   0.0097   0.0068  -0.0021  -0.0064   0.0014   0.00   84.0
2173 374001.000    728280.5350  -5271278.5040   3504619.9432   1   8   0.0038   0.0099   0.0066  -0.0018  -0.0062   0.0022   0.00   84.4
2173 374002.000    728280.5333  -5271278.5021   3504619.9425   1   8   0.0039   0.0100   0.0066  -0.0021  -0.0062   0.0022   0.00   84.4
2173 374003.000    728280.5339  -5271278.5091   3504619.9446   1   8   0.0038   0.0099   0.0066  -0.0017  -0.0064   0.0022   0.00   84.4
2173 374004.000    728280.5345  -5271278.5078   3504619.9415   1   8   0.0042   0.0100   0.0068  -0.0017  -0.0063   0.0013   0.00   84.3
2173 374005.000    728280.5340  -5271278.5089   3504619.9422   1   8   0.0037   0.0100   0.0067  -0.0016  -0.0063   0.0017   0.00   84.4
2173 374006.000    728280.5330  -5271278.5071   3504619.9421   1   8   0.0039   0.0099   0.0067  -0.0012  -0.0063   0.0010   0.00   84.4
2173 374007.000    728280.5326  -5271278.5143   3504619.9448   1   8   0.0037   0.0099   0.0065  -0.0019  -0.0063   0.0018   0.00   84.4
2173 374008.000    728280.5333  -5271278.5100   3504619.9443   1   8   0.0033   0.0099   0.0065  -0.0020  -0.0063   0.0023   0.00   84.5
2173 374009.000    728280.5336  -5271278.5079   3504619.9430   1   8   0.0038   0.0099   0.0065  -0.0018  -0.0062   0.0018   0.00   84.3
2173 374010.000    728280.5343  -5271278.5056   3504619.9438   1   8   0.0038   0.0101   0.0067  -0.0021  -0.0063   0.0017   0.00   84.3
2173 374011.000    728280.5323  -5271278.5044   3504619.9440   1   8   0.0039   0.0098   0.0066  -0.0018  -0.0064   0.0017   0.00   84.1
2173 374012.000    728280.5340  -5271278.5049   3504619.9454   1   8   0.0039   0.0099   0.0067  -0.0018  -0.0063   0.0020   0.00   84.0
2173 374013.000    728280.5333  -5271278.5062   3504619.9445   1   8   0.0036   0.0099   0.0067  -0.0018  -0.0063   0.0019   0.00   84.0
2173 374014.000    728280.5348  -5271278.5029   3504619.9440   1   8   0.0038   0.0099   0.0068  -0.0011  -0.0062   0.0017   0.00   83.9
2173 374015.000    728280.5346  -5271278.4999   3504619.9432   1   8   0.0040   0.0100   0.0067  -0.0021  -0.0063   0.0018   0.00   83.8
2173 374016.000    728280.5342  -5271278.5019   3504619.9432   1   8   0.0042   0.0099   0.0068  -0.0018  -0.0063   0.0018   0.00   83.7
2173 374017.000    728280.5336  -5271278.5002   3504619.9441   1   8   0.0041   0.0099   0.0067  -0.0020  -0.0062   0.0009   0.00   83.6
2173 374018.000    728280.5335  -5271278.5045   3504619.9442   1   8   0.0039   0.0099   0.0066  -0.0015  -0.0063   0.0024   0.00   83.4
2173 374019.000    728280.5357  -5271278.5002   3504619.9422   1   8   0.0038   0.0100   0.0067  -0.0018  -0.0061   0.0026   0.00   83.0
2173 374020.000    728280.5329  -5271278.4979   3504619.9432   1   8   0.0041   0.0100   0.0067  -0.0019  -0.0063   0.0022   0.00   82.8
2173 374021.000    728280.5345  -5271278.5012   3504619.9446   1   8   0.0037   0.0099   0.0068  -0.0018  -0.0063   0.0021   0.00   82.5
2173 374022.000    728280.5322  -5271278.5025   3504619.9433   1   8   0.0039   0.0098   0.0067  -0.0018  -0.0063   0.0017   0.00   82.2
2173 374023.000    728280.5333  -5271278.4997   3504619.9440   1   8   0.0038   0.0097   0.0066  -0.0019  -0.0064   0.0013   0.00   82.0
2173 374024.000    728280.5327  -5271278.5028   3504619.9446   1   8   0.0041   0.0099   0.0068  -0.0020  -0.0063   0.0005   0.00   82.0
2173 374025.000    728280.5316  -5271278.5041   3504619.9447   1   8   0.0041   0.0100   0.0070  -0.0013  -0.0062   0.0018   0.00   82.0
2173 374026.000    728280.5322  -5271278.5051   3504619.9434   1   8   0.0037   0.0099   0.0066  -0.0020  -0.0063   0.0017   0.00   82.0
2173 374027.000    728280.5332  -5271278.4988   3504619.9406   1   8   0.0039   0.0099   0.0066  -0.0019  -0.0063   0.0020   0.00   82.1
2173 374028.000    728280.5326  -5271278.5064   3504619.9443   1   8   0.0041   0.0100   0.0068  -0.0017  -0.0062   0.0017   0.00   82.3
2173 374029.000    728280.5314  -5271278.5071   3504619.9447   1   8   0.0038   0.0099   0.0067  -0.0021  -0.0064   0.0016   0.00   82.3
2173 374030.000    728280.5315  -5271278.5056   3504619.9431   1   8   0.0038   0.0099   0.0066  -0.0016  -0.0063   0.0026   0.00   82.4
2173 374031.000    728280.5322  -5271278.5066   3504619.9451   1   8   0.0037   0.0098   0.0066  -0.0019  -0.0063   0.0024   0.00   82.3
2173 374032.000    728280.5325  -5271278.5063   3504619.9456   1   8   0.0042   0.0099   0.0066  -0.0019  -0.0063   0.0017   0.00   82.2
