     2.11           OBSERVATION DATA    M (MIXED)           RINEX VERSION / TYPE
CONVBIN 2.4.3                           20210901 190702 UTC PGM / RUN BY / DATE 
log: logs/21_09_01_07_41_55_blom_SW.rtcm                    COMMENT             
format: RTCM 3, station ID: 252                             COMMENT             
0252                                                        MARKER NAME         
                                                            MARKER NUMBER       
                                                            OBSERVER / AGENCY   
                    SWFT                                    REC # / TYPE / VERS 
                    NULL                                    ANT # / TYPE        
    85902.2620 -4920601.6362  4043655.9789                  APPROX POSITION XYZ 
        0.0000        0.0000        0.0000                  ANTENNA: DELTA H/E/N
     1     1                                                WAVELENGTH FACT L1/2
     5    C1    L1    P2    L2    C2                        # / TYPES OF OBSERV 
  2021     9     1     7    42    0.0000000     GPS         TIME OF FIRST OBS   
  2021     9     1     8    11   58.0000000     GPS         TIME OF LAST OBS    
                                                            END OF HEADER       
 21  9  1  7 42  0.0000000  0  9G 1G 7G 8G 9G13G14G17G21E19
  22775244.658   119684672.886    22775247.856    93260771.726                  
  20177027.660   106031012.915    20177026.838    82621572.427                  
  21700321.806   114035924.392    21700323.878    88859152.926                  
  24107226.092   126684286.547    24107228.665    98715017.942                  
  24037682.446   126318893.179    24037681.374    98430310.972                  
  22440677.044   117926566.212    22440677.115    91890836.028                  
  23414483.545   123043942.661    23414483.652    95878396.625                  
  22072568.005   115992132.114    22072566.933    90383481.266                  
  26184050.213   137598106.840                                                  
 21  9  1  7 42  1.0000000  0 13G 1G 7G 8G 9G13G14G17G21C23C25C28C34
                                E19
  22774628.838   119681436.735    22774632.036    93258250.055                  
  20177078.462   106031279.868    20177077.640    82621780.437                  
  21700819.100   114038537.712    21700821.173    88861189.277                  
  24107890.194   126687776.384    24107892.768    98717737.293                  
  24037242.528   126316581.385    24037241.456    98428509.574                  
  22440255.246   117924349.605    22440255.317    91889108.804                  
  23413865.991   123040697.554    23413866.116    95875867.977                  
  22072355.364   115991014.650    22072354.292    90382610.515                  
                 117538499.188                   117538499.188    22572023.119  
                 116388479.514                   116388479.514    22351179.917  
                 134987986.384                   134987986.384    25923025.386  
                 118419346.684                   118419346.684    22741189.463  
  26184096.744   137598351.344                                                  
 21  9  1  7 42  2.0000000  0 13G 1G 7G 8G 9G13G14G17G21C23C25C28C34
                                E19
  22774013.089   119678200.852    22774016.252    93255728.585                  
  20177129.353   106031547.366    20177128.549    82621988.880                  
  21701316.467   114041151.367    21701318.540    88863225.895                  
  24108554.297   126691266.271    24108556.852    98720456.683                  
  24036802.682   126314270.091    24036801.628    98426708.563                  
  22439833.465   117922133.161    22439833.537    91887381.702                  
  23413248.545   123037452.703    23413248.652    95873339.519                  
  22072142.812   115989897.737    22072141.758    90381740.195                  
                 117536970.758                   117536970.758    22571729.602  
                 116389539.958                   116389539.958    22351383.588  
                 134984535.043                   134984535.043    25922362.607  
                 118420535.942                   118420535.942    22741417.847  
  26184143.364   137598596.318                                                  
 21  9  1  7 42  3.0000000  0 13G 1G 7G 8G 9G13G14G17G21C23C25C28C34
                                E19
  22773397.358   119674965.250    22773400.557    93253207.337                  
  20177180.387   106031815.425    20177179.565    82622197.757                  
  21701813.887   114043765.370    21701815.977    88865262.777                  
  24109218.417   126694756.193    24109220.972    98723176.102                  
  24036362.961   126311959.292    24036361.907    98424907.945                  
  22439411.721   117919916.866    22439411.774    91885654.722                  
  23412631.099   123034208.089    23412631.224    95870811.251                  
  22071930.385   115988781.388    22071929.313    90380870.313                  
                 117535442.556                   117535442.556    22571436.139  
                 116390600.728                   116390600.728    22351587.277  
                 134981083.762                   134981083.762    25921699.809  
                 118421725.704                   118421725.704    22741646.320  
  26184190.056   137598841.737                                                  
 21  9  1  7 42  4.0000000  0 13G 1G 7G 8G 9G13G14G17G21C23C25C28C34
                                E19
  22772781.699   119671729.917    22772784.879    93250686.301                  
  20177231.492   106032084.036    20177230.688    82622407.062                  
  21702311.378   114046379.723    21702313.487    88867299.937                  
  24109882.537   126698246.156    24109885.092    98725895.554                  
  24035923.312   126309648.995    24035922.258    98423107.711                  
  22438989.994   117917700.735    22438990.083    91883927.866                  
  23412013.724   123030963.742    23412013.831    95868283.191                  
  22071718.047   115987665.590    22071716.975    90380000.860                  
                 117533914.583                   117533914.583    22571142.694  
                 116391661.817                   116391661.817    22351791.056  
                 134977632.539                   134977632.539    25921037.047  
                 118422915.965                   118422915.965    22741874.901  
  26184236.855   137599087.644                                                  
 21  9  1  7 42  5.0000000  0 13G 1G 7G 8G 9G13G14G17G21C23C25C28C34
                                E19
  22772166.075   119668494.855    22772169.274    93248165.473                  
  20177282.723   106032353.204    20177281.901    82622616.805                  
  21702808.941   114048994.414    21702811.014    88869337.360                  
  24110546.657   126701736.160    24110549.212    98728615.040                  
  24035483.788   126307339.202    24035482.716    98421307.871                  
  22438568.321   117915484.769    22438568.374    91882201.142                  
  23411396.385   123027719.625    23411396.492    95865755.309                  
  22071505.817   115986550.356    22071504.763    90379131.844                  
                 117532386.837                   117532386.837    22570849.320  
                 116392723.235                   116392723.235    22351994.906  
                 134974181.375                   134974181.375    25920374.285  
                 118424106.727                   118424106.727    22742103.588  
  26184283.743   137599334.003                                                  
 21  9  1  7 42  6.0000000  0 13G 1G 7G 8G 9G13G14G17G21C23C25C28C34
                                E19
  22771550.523   119665260.081    22771553.722    93245644.872                  
  20177334.042   106032622.944    20177333.220    82622826.993                  
  21703306.558   114051609.456    21703308.666    88871375.056                  
  24111210.795   126705226.190    24111213.368    98731334.542                  
  24035044.335   126305029.891    24035043.281    98419508.407                  
  22438146.665   117913268.973    22438146.737    91880474.543                  
  23410779.100   123024475.762    23410779.225    95863227.622                  
  22071293.694   115985435.671    22071292.640    90378263.263                  
                 117530859.317                   117530859.317    22570555.965  
                 116393784.976                   116393784.976    22352198.773  
                 134970730.269                   134970730.269    25919711.523  
                 118425297.991                   118425297.991    22742332.348  
  26184330.703   137599580.840                                                  
 21  9  1  7 42  7.0000000  0 14G 1G 7G 8G 9G13G14G17G21G27C23C25C28
                                C34E19
  22770935.025   119662025.582    22770938.223    93243124.481                  
  20177385.487   106032893.222    20177384.665    82623037.599                  
  21703804.264   114054224.851    21703806.336    88873413.023                  
  24111874.933   126708716.253    24111877.506    98734054.069                  
  24034604.971   126302721.091    24034603.917    98417709.344                  
  22437725.046   117911053.356    22437725.117    91878748.090                  
  23410161.868   123021232.137    23410161.975    95860700.122                  
  22071081.696   115984321.531    22071080.642    90377395.102                  
  24262013.841   127497719.329    24262015.306    99348867.176                  
                 117529332.028                   117529332.028    22570262.662  
                 116394847.046                   116394847.046    22352402.748  
                 134967279.224                   134967279.224    25919048.796  
                 118426489.759                   118426489.759    22742561.196  
  26184377.752   137599828.132                                                  
 21  9  1  7 42  8.0000000  0 14G 1G 7G 8G 9G13G14G17G21G27C23C25C28
                                C34E19
  22770319.562   119658791.324    22770322.760    93240604.282                  
  20177437.004   106033164.039    20177436.200    82623248.625                  
  21704302.023   114056840.600    21704304.096    88875451.274                  
  24112539.089   126712206.395    24112541.644    98736773.660                  
  24034165.715   126300412.786    24034164.661    98415910.663                  
  22437303.444   117908837.824    22437303.515    91877021.704                  
  23409544.654   123017988.773    23409544.779    95858172.828                  
  22070869.805   115983207.984    22070868.733    90376527.403                  
  24262708.160   127501368.040    24262709.625    99351710.328                  
                 117527804.965                   117527804.965    22569969.414  
                 116395909.438                   116395909.438    22352606.759  
                 134963828.234                   134963828.234    25918386.052  
                 118427682.024                   118427682.024    22742790.188  
  26184424.908   137600075.875                                                  
 21  9  1  7 42  9.0000000  0 14G 1G 7G 8G 9G13G14G17G21G27C23C25C28
                                C34E19
  22769704.153   119655557.362    22769707.351    93238084.312                  
  20177488.663   106033435.434    20177487.841    82623460.102                  
  21704799.836   114059456.699    21704801.945    88877489.789                  
  24113203.245   126715696.554    24113205.800    98739493.265                  
  24033726.566   126298104.980    24033725.494    98414112.375                  
  22436881.878   117906622.509    22436881.967    91875295.480                  
  23408927.511   123014745.656    23408927.636    95855645.724                  
  22070658.003   115982094.965    22070656.931    90375660.118                  
  24263402.497   127505016.833    24263403.980    99354553.543                  
                 117526278.132                   117526278.132    22569676.201  
                 116396972.156                   116396972.156    22352810.859  
                 134960377.305                   134960377.305    25917723.361  
                 118428874.792                   118428874.792    22743019.215  
  26184472.136   137600324.121                                                  
 21  9  1  7 42 10.0000000  0 14G 1G 7G 8G 9G13G14G17G21G27C23C25C28
                                C34E19
  22769088.815   119652323.682    22769091.996    93235564.561                  
  20177540.394   106033707.370    20177539.572    82623672.000                  
  21705297.739   114062073.121    21705299.812    88879528.559                  
  24113867.401   126719186.746    24113869.956    98742212.895                  
  24033287.506   126295797.685    24033286.434    98412314.480                  
  22436460.366   117904407.335    22436460.419    91873569.375                  
  23408310.423   123011502.783    23408310.548    95853118.809                  
  22070446.291   115980982.519    22070445.237    90374793.277                  
  24264096.851   127508665.711    24264098.316    99357396.829                  
                 117524751.523                   117524751.523    22569383.042  
                 116398035.199                   116398035.199    22353014.995  
                 134956926.434                   134956926.434    25917060.635  
                 118430068.060                   118430068.060    22743248.385  
  26184519.471   137600572.804                                                  
 21  9  1  7 42 11.0000000  0 14G 1G 7G 8G 9G13G14G17G21G27C23C25C28
                                C34E19
  22768473.513   119649090.281    22768476.694    93233045.028                  
  20177592.268   106033979.872    20177591.446    82623884.336                  
  21705795.695   114064689.904    21705797.785    88881567.610                  
  24114531.556   126722676.979    24114534.147    98744932.555                  
  24032848.536   126293490.871    24032847.481    98410516.968                  
  22436038.853   117902192.331    22436038.925    91871843.398                  
  23407693.387   123008260.161    23407693.477    95850592.093                  
  22070234.722   115979870.621    22070233.668    90373926.858                  
  24264791.241   127512314.689    24264792.707    99360240.184                  
                 117523225.149                   117523225.149    22569089.901  
                 116399098.571                   116399098.571    22353219.202  
                 134953475.625                   134953475.625    25916397.962  
                 118431261.828                   118431261.828    22743477.645  
  26184566.878   137600821.962                                                  
 21  9  1  7 42 12.0000000  0 14G 1G 7G 8G 9G13G14G17G21G27C23C25C28
                                C34E19
  22767858.265   119645857.144    22767861.463    93230525.703                  
  20177644.213   106034252.922    20177643.409    82624097.101                  
  21706293.722   114067307.033    21706295.795    88883606.929                  
  24115195.748   126726167.250    24115198.303    98747652.247                  
  24032409.655   126291184.574    24032408.600    98408719.850                  
  22435617.376   117899977.485    22435617.448    91870117.542                  
  23407076.352   123005017.790    23407076.477    95848065.570                  
  22070023.242   115978759.281    22070022.188    90373060.884                  
  24265485.632   127515963.749    24265487.097    99363083.610                  
                 117521698.996                   117521698.996    22568796.813  
                 116400162.260                   116400162.260    22353423.480  
                 134950024.870                   134950024.870    25915735.272  
                 118432456.102                   118432456.102    22743706.976  
  26184614.374   137601071.578                                                  
 21  9  1  7 42 13.0000000  0 14G 1G 7G 8G 9G13G14G17G21G27C23C25C28
                                C34E19
  22767243.088   119642624.300    22767246.269    93228006.601                  
  20177696.283   106034526.524    20177695.461    82624310.302                  
  21706791.803   114069924.511    21706793.894    88885646.527                  
  24115859.940   126729657.560    24115862.495    98750371.966                  
  24031970.881   126288878.778    24031969.826    98406923.129                  
  22435195.936   117897762.781    22435196.007    91868391.801                  
  23406459.406   123001775.661    23406459.513    95845539.239                  
  22069811.852   115977648.513    22069810.797    90372195.348                  
  24266180.040   127519612.906    24266181.523    99365927.108                  
                 117520173.079                   117520173.079    22568503.779  
                 116401226.281                   116401226.281    22353627.813  
                 134946574.177                   134946574.177    25915072.599  
                 118433650.870                   118433650.870    22743936.414  
  26184661.977   137601321.675                                                  
 21  9  1  7 42 14.0000000  0 15G 1G 7G 8G 9G13G14G17G21G27G30C23C25
                                C28C34E19
  22766627.947   119639391.718    22766631.127    93225487.706                  
  20177748.461   106034800.681    20177747.639    82624523.930                  
  21707289.956   114072542.329    21707292.047    88887686.383                  
  24116524.113   126733147.919    24116526.686    98753091.726                  
  24031532.196   126286573.472    24031531.142    98405126.789                  
  22434774.513   117895548.247    22434774.602    91866666.187                  
  23405842.496   122998533.782    23405842.621    95843013.101                  
  22069600.604   115976538.288    22069599.514    90371330.237                  
  24266874.466   127523262.145    24266875.949    99368770.669                  
  21008679.078   110401320.583    21008680.812    86026994.836                  
                 117518647.383                   117518647.383    22568210.798  
                 116402290.624                   116402290.624    22353832.199  
                 134943123.542                   134943123.542    25914409.944  
                 118434846.145                   118434846.145    22744165.960  
  26184709.651   137601572.218                                                  
 21  9  1  7 42 15.0000000  0 15G 1G 7G 8G 9G13G14G17G21G27G30C23C25
                                C28C34E19
  22766012.859   119636159.417    22766016.040    93222969.032                  
  20177800.728   106035075.395    20177799.924    82624737.993                  
  21707788.180   114075160.509    21707790.289    88889726.523                  
  24117188.323   126736638.301    24117190.878    98755811.505                  
  24031093.601   126284268.683    24031092.547    98403330.847                  
  22434353.143   117893333.874    22434353.215    91864940.704                  
  23405225.639   122995292.159    23405225.765    95840487.161                  
  22069389.428   115975428.629    22069388.356    90370465.570                  
  24267568.927   127526911.478    24267570.375    99371614.305                  
  21008337.798   110399527.227    21008339.567    86025597.414                  
                 117517121.917                   117517121.917    22567917.836  
                 116403355.293                   116403355.293    22354036.656  
                 134939672.965                   134939672.965    25913747.307  
                 118436041.914                   118436041.914    22744395.594  
  26184757.415   137601823.231                                                  
 21  9  1  7 42 16.0000000  0 15G 1G 7G 8G 9G13G14G17G21G27G30C23C25
                                C28C34E19
  22765397.825   119632927.392    22765401.006    93220450.571                  
  20177853.120   106035350.664    20177852.298    82624952.484                  
  21708286.476   114077779.058    21708288.566    88891766.949                  
  24117852.514   126740128.719    24117855.105    98758531.313                  
  24030655.113   126281964.387    24030654.059    98401535.294                  
  22433931.792   117891119.683    22433931.863    91863215.360                  
  23404608.819   122992050.785    23404608.944    95837961.415                  
  22069178.377   115974319.528    22069177.323    90369601.336                  
  24268263.371   127530560.884    24268264.836    99374457.996                  
  21007996.625   110397734.300    21007998.358    86024200.332                  
                 117515596.683                   117515596.683    22567624.944  
                 116404420.288                   116404420.288    22354241.185  
                 134936222.449                   134936222.449    25913084.652  
                 118437238.188                   118437238.188    22744625.336  
  26184805.286   137602074.707                                                  
 21  9  1  7 42 17.0000000  0 15G 1G 7G 8G 9G13G14G17G21G27G30C23C25
                                C28C34E19
  22764782.845   119629695.637    22764786.026    93217932.321                  
  20177905.601   106035626.484    20177904.779    82625167.411                  
  21708784.843   114080397.977    21708786.916    88893807.665                  
  24118516.742   126743619.196    24118519.297    98761251.161                  
  24030216.714   126279660.593    24030215.660    98399740.130                  
  22433510.476   117888905.635    22433510.547    91861490.129                  
  23403992.051   122988809.663    23403992.177    95835435.868                  
  22068967.415   115973210.973    22068966.361    90368737.526                  
  24268957.869   127534210.387    24268959.316    99377301.769                  
  21007655.523   110395941.816    21007657.274    86022803.586                  
                 117514071.676                   117514071.676    22567332.071  
                 116405485.608                   116405485.608    22354445.785  
                 134932771.991                   134932771.991    25912422.033  
                 118438434.966                   118438434.966    22744855.168  
  26184853.211   137602326.656                                                  
 21  9  1  7 42 18.0000000  0 15G 1G 7G 8G 9G13G14G17G21G27G30C23C25
                                C28C34E19
  22764167.901   119626464.152    22764171.099    93215414.280                  
  20177958.172   106035902.860    20177957.385    82625382.766                  
  21709283.263   114083017.242    21709285.354    88895848.653                  
  24119180.969   126747109.699    24119183.524    98763971.035                  
  24029778.423   126277357.306    24029777.369    98397945.356                  
  22433089.178   117886691.753    22433089.267    91859765.023                  
  23403375.338   122985568.776    23403375.463    95832910.499                  
  22068756.579   115972102.984    22068755.524    90367874.161                  
  24269652.348   127537859.984    24269653.813    99380145.613                  
  21007314.493   110394149.745    21007316.262    86021407.172                  
                 117512546.896                   117512546.896    22567039.251  
                 116406551.254                   116406551.254    22354650.421  
                 134929321.595                   134929321.595    25911759.414  
                 118439632.238                   118439632.238    22745085.088  
  26184901.261   137602579.074                                                  
 21  9  1  7 42 19.0000000  0 15G 1G 7G 8G 9G13G14G17G21G27G30C23C25
                                C28C34E19
  22763553.027   119623233.066    22763556.226    93212896.594                  
  20178010.885   106036179.792    20178010.081    82625598.558                  
  21709781.756   114085636.824    21709783.864    88897889.867                  
  24119845.196   126750600.269    24119847.752    98766690.969                  
  24029340.203   126275054.577    24029339.149    98396151.054                  
  22432667.916   117884477.996    22432668.005    91858040.004                  
  23402758.660   122982328.130    23402758.785    95830385.313                  
  22068545.831   115970995.496    22068544.777    90367011.149                  
  24270346.863   127541509.698    24270348.329    99382989.556                  
  21006973.552   110392358.082    21006975.321    86020011.058                  
                 117511022.348                   117511022.348    22566746.485  
                 116407617.223                   116407617.223    22354855.129  
                 134925871.259                   134925871.259    25911096.813  
                 118440830.010                   118440830.010    22745315.099  
  26184949.382   137602831.950                                                  
 21  9  1  7 42 20.0000000  0 15G 1G 7G 8G 9G13G14G17G21G27G30C23C25
                                C28C34E19
  22762938.208   119620002.136    22762941.407    93210378.993                  
  20178063.706   106036457.277    20178062.884    82625814.784                  
  21710280.319   114088256.799    21710282.428    88899931.411                  
  24120509.441   126754090.851    24120511.997    98769410.901                  
  24028902.108   126272752.288    24028901.036    98394357.067                  
  22432246.707   117882264.427    22432246.761    91856315.147                  
  23402142.036   122979087.750    23402142.161    95827860.345                  
  22068335.227   115969888.623    22068334.137    90366148.652                  
  24271041.379   127545159.480    24271042.862    99385833.544                  
  21006632.718   110390566.875    21006634.451    86018615.316                  
                 117509498.025                   117509498.025    22566453.755  
                 116408683.520                   116408683.520    22355059.908  
                 134922420.976                   134922420.976    25910434.247  
                 118442028.288                   118442028.288    22745545.216  
  26184997.575   137603085.293                                                  
 21  9  1  7 42 21.0000000  0 15G 1G 7G 8G 9G13G14G17G21G27G30C23C25
                                C28C34E19
  22762323.442   119616771.487    22762326.623    93207861.605                  
  20178116.598   106036735.322    20178115.776    82626031.442                  
  21710778.954   114090877.141    21710781.063    88901973.229                  
  24121173.687   126757581.466    24121176.242    98772130.863                  
  24028464.085   126270450.512    24028463.013    98392563.473                  
  22431825.498   117880051.017    22431825.588    91854590.414                  
  23401525.465   122975847.615    23401525.572    95825335.563                  
  22068124.676   115968782.309    22068123.622    90365286.590                  
  24271735.948   127548809.347    24271737.395    99388677.598                  
  21006291.938   110388776.086    21006293.689    86017219.899                  
                 117507973.931                   117507973.931    22566161.078  
                 116409750.140                   116409750.140    22355264.740  
                 134918970.756                   134918970.756    25909771.664  
                 118443227.064                   118443227.064    22745775.440  
  26185045.875   137603339.096                                                  
 21  9  1  7 42 22.0000000  0 15G 1G 7G 8G 9G13G14G17G21G27G30C23C25
                                C28C34E19
  22761708.712   119613541.126    22761711.893    93205344.442                  
  20178169.616   106037013.918    20178168.794    82626248.531                  
  21711277.661   114093497.812    21711279.752    88904015.317                  
  24121837.914   126761072.136    24121840.505    98774850.868                  
  24028026.169   126268149.218    24028025.097    98390770.262                  
  22431404.343   117877837.765    22431404.397    91852865.800                  
  23400908.948   122972607.722    23400909.037    95822810.972                  
  22067914.269   115967676.556    22067913.196    90364424.964                  
  24272430.499   127552459.302    24272431.964    99391521.714                  
  21005951.247   110386985.729    21005952.980    86015824.813                  
                 117506450.066                   117506450.066    22565868.420  
                 116410817.086                   116410817.086    22355469.626  
                 134915520.598                   134915520.598    25909109.099  
                 118444426.339                   118444426.339    22746005.736  
  26185094.264   137603593.375                                                  
 21  9  1  7 42 23.0000000  0 15G 1G 7G 8G 9G13G14G17G21G27G30C23C25
                                C28C34E19
  22761094.035   119610311.046    22761097.234    93202827.495                  
  20178222.740   106037293.066    20178221.918    82626466.051                  
  21711776.421   114096118.818    21711778.512    88906057.657                  
  24122502.177   126764562.821    24122504.732    98777570.880                  
  24027588.342   126265848.437    24027587.288    98388977.441                  
  22430983.206   117875624.677    22430983.260    91851141.316                  
  23400292.467   122969368.091    23400292.556    95820286.582                  
  22067703.968   115966571.355    22067702.896    90363563.773                  
  24273125.086   127556109.348    24273126.533    99394365.911                  
  21005610.645   110385195.801    21005612.379    86014430.062                  
                 117504926.429                   117504926.429    22565575.832  
                 116411884.354                   116411884.354    22355674.584  
                 134912070.501                   134912070.501    25908446.533  
                 118445626.118                   118445626.118    22746236.139  
  26185142.743   137603848.109                                                  
 21  9  1  7 42 24.0000000  0 15G 1G 7G 8G 9G13G14G17G21G27G30C23C25
                                C28C34E19
  22760479.448   119607081.231    22760482.611    93200310.754                  
  20178275.954   106037572.772    20178275.132    82626684.004                  
  21712275.235   114098740.157    21712277.343    88908100.257                  
  24123166.440   126768053.538    24123168.995    98780290.917                  
  24027150.605   126263548.150    24027149.532    98387185.007                  
  22430562.105   117873411.751    22430562.158    91849416.958                  
  23399676.021   122966128.704    23399676.128    95817762.386                  
  22067493.739   115965466.714    22067492.685    90362703.012                  
  24273819.672   127559759.485    24273821.138    99397210.171                  
  21005270.098   110383406.301    21005271.849    86013035.648                  
                 117503403.024                   117503403.024    22565283.280  
                 116412951.954                   116412951.954    22355879.595  
                 134908620.456                   134908620.456    25907784.003  
                 118446826.394                   118446826.394    22746466.632  
  26185191.293   137604103.318                                                  
 21  9  1  7 42 25.0000000  0 15G 1G 7G 8G 9G13G14G17G21G27G30C23C25
                                C28C34E19
  22759864.879   119603851.703    22759868.060    93197794.243                  
  20178329.293   106037853.038    20178328.471    82626902.391                  
  21712774.138   114101361.852    21712776.229    88910143.136                  
  24123830.721   126771544.319    24123833.276    98783011.009                  
  24026712.974   126261248.364    24026711.920    98385392.968                  
  22430141.021   117871198.977    22430141.075    91847692.719                  
  23399059.611   122962889.560    23399059.737    95815238.383                  
  22067283.635   115964362.637    22067282.581    90361842.692                  
  24274514.277   127563409.704    24274515.760    99400054.500                  
  21004929.657   110381617.215    21004931.408    86011641.555                  
                 117501879.843                   117501879.843    22564990.765  
                 116414019.874                   116414019.874    22356084.678  
                 134905170.475                   134905170.475    25907121.456  
                 118448027.172                   118448027.172    22746697.232  
  26185239.968   137604358.982                                                  
 21  9  1  7 42 26.0000000  0 15G 1G 7G 8G 9G13G14G17G21G27G30C23C25
                                C28C34E19
  22759250.363   119600622.445    22759253.562    93195277.938                  
  20178382.740   106038133.847    20178381.918    82627121.203                  
  21713273.095   114103983.899    21713275.185    88912186.292                  
  24124495.002   126775035.113    24124497.557    98785731.105                  
  24026275.433   126258949.071    24026274.361    98383601.313                  
  22429719.956   117868986.362    22429720.045    91845968.605                  
  23398443.273   122959650.671    23398443.398    95812714.573                  
  22067073.656   115963259.114    22067072.602    90360982.804                  
  24275208.917   127567060.023    24275210.383    99402898.902                  
  21004589.288   110379828.566    21004591.021    86010247.805                  
                 117500356.895                   117500356.895    22564698.302  
                 116415088.122                   116415088.122    22356289.832  
                 134901720.558                   134901720.558    25906458.944  
                 118449228.449                   118449228.449    22746927.939  
  26185288.697   137604615.112                                                  
 21  9  1  7 42 27.0000000  0 15G 1G 7G 8G 9G13G14G17G21G27G30C23C25
                                C28C34E19
  22758635.919   119597393.469    22758639.100    93192761.851                  
  20178436.275   106038415.214    20178435.453    82627340.454                  
  21713772.123   114106606.313    21713774.214    88914229.731                  
  24125159.283   126778525.965    24125161.838    98788451.245                  
  24025837.982   126256650.297    24025836.928    98381810.059                  
  22429298.961   117866773.923    22429299.015    91844244.625                  
  23397827.006   122956412.035    23397827.096    95810190.961                  
  22066863.767   115962156.146    22066862.694    90360123.348                  
  24275903.576   127570710.427    24275905.041    99405743.372                  
  21004249.008   110378040.345    21004250.741    86008854.382                  
                 117498834.176                   117498834.176    22564405.876  
                 116416156.696                   116416156.696    22356495.040  
                 134898270.697                   134898270.697    25905796.414  
                 118450430.228                   118450430.228    22747158.717  
  26185337.515   137604871.712                                                  
 21  9  1  7 42 28.0000000  0 15G 1G 7G 8G 9G13G14G17G21G27G30C23C25
                                C28C34E19
  22758021.528   119594164.772    22758024.691    93190245.985                  
  20178489.918   106038697.132    20178489.096    82627560.124                  
  21714271.223   114109229.070    21714273.313    88916273.438                  
  24125823.582   126782016.844    24125826.137    98791171.415                  
  24025400.638   126254352.020    24025399.583    98380019.196                  
  22428877.985   117864561.630    22428878.039    91842520.763                  
  23397210.739   122953173.648    23397210.864    95807667.542                  
  22066653.984   115961053.738    22066652.912    90359264.331                  
  24276598.234   127574360.919    24276599.699    99408587.914                  
  21003908.782   110376252.556    21003910.533    86007461.297                  
                 117497311.685                   117497311.685    22564113.503  
                 116417225.593                   116417225.593    22356700.320  
                 134894820.893                   134894820.893    25905133.938  
                 118451632.504                   118451632.504    22747389.603  
  26185386.441   137605128.778                                                  
 21  9  1  7 42 29.0000000  0 15G 1G 7G 8G 9G13G14G17G21G27G30C23C25
                                C28C34E19
  22757407.156   119590936.351    22757410.354    93187730.332                  
  20178543.686   106038979.608    20178542.864    82627780.237                  
  21714770.376   114111852.177    21714772.484    88918317.417                  
  24126487.880   126785507.763    24126490.436    98793891.610                  
  24024963.400   126252054.253    24024962.328    98378228.726                  
  22428457.027   117862349.499    22428457.080    91840797.027                  
  23396594.562   122949935.508    23396594.651    95805144.321                  
  22066444.327   115959951.891    22066443.237    90358405.749                  
  24277292.928   127578011.505    24277294.375    99411432.528                  
  21003568.663   110374465.186    21003570.396    86006068.546                  
                 117495789.423                   117495789.423    22563821.166  
                 116418294.816                   116418294.816    22356905.635  
                 134891371.156                   134891371.156    25904471.444  
                 118452835.280                   118452835.280    22747620.578  
  26185435.437   137605386.317                                                  
 21  9  1  7 42 30.0000000  0 15G 1G 7G 8G 9G13G14G17G21G27G30C23C25
                                C28C34E19
  22756792.872   119587708.208    22756796.053    93185214.894                  
  20178597.543   106039262.645    20178596.721    82628000.785                  
  21715269.601   114114475.621    21715271.691    88920361.659                  
  24127152.179   126788998.712    24127154.735    98796611.827                  
  24024526.235   126249756.976    24024525.180    98376438.640                  
  22428036.104   117860137.527    22428036.158    91839073.409                  
  23395978.402   122946697.620    23395978.527    95802621.289                  
  22066234.741   115958850.601    22066233.687    90357547.601                  
  24277987.622   127581662.178    24277989.087    99414277.207                  
  21003228.615   110372678.251    21003230.366    86004676.124                  
                 117494267.390                   117494267.390    22563528.882  
                 116419364.364                   116419364.364    22357111.039  
                 134887921.478                   134887921.478    25903808.968  
                 118454038.560                   118454038.560    22747851.660  
  26185484.542   137605644.299                                                  
 21  9  1  7 42 31.0000000  0 15G 1G 7G 8G 9G13G14G17G21G27G30C23C25
                                C28C34E19
  22756178.625   119584480.329    22756181.823    93182699.668                  
  20178651.508   106039546.230    20178650.686    82628221.763                  
  21715768.897   114117099.425    21715771.005    88922406.185                  
  24127816.496   126792489.702    24127819.051    98799332.082                  
  24024089.176   126247460.201    24024088.104    98374648.945                  
  22427615.199   117857925.722    22427615.253    91837349.927                  
  23395362.296   122943459.969    23395362.403    95800098.444                  
  22066025.280   115957749.872    22066024.226    90356689.890                  
  24278682.334   127585312.929    24278683.799    99417121.950                  
  21002888.657   110370891.738    21002890.408    86003284.039                  
                 117492745.585                   117492745.585    22563236.616  
                 116420434.238                   116420434.238    22357316.497  
                 134884471.855                   134884471.855    25903146.492  
                 118455242.337                   118455242.337    22748082.831  
  26185533.717   137605902.757                                                  
 21  9  1  7 42 32.0000000  0 15G 1G 7G 8G 9G13G14G17G21G27G30C23C25
                                C28C34E19
  22755564.448   119581252.753    22755567.611    93180184.671                  
  20178705.579   106039830.372    20178704.757    82628443.168                  
  21716268.265   114119723.594    21716270.355    88924450.989                  
  24128480.813   126795980.722    24128483.386    98802052.356                  
  24023652.207   126245163.930    24023651.135    98372859.648                  
  22427194.348   117855714.072    22427194.402    91835626.563                  
  23394746.244   122940222.583    23394746.369    95797575.808                  
  22065815.927   115956649.706    22065814.855    90355832.620                  
  24279377.064   127588963.779    24279378.547    99419966.766                  
  21002548.788   110369105.657    21002550.522    86001892.285                  
                 117491224.012                   117491224.012    22562944.422  
                 116421504.437                   116421504.437    22357522.027  
                 134881022.296                   134881022.296    25902484.051  
                 118456446.614                   118456446.614    22748314.092  
  26185582.982   137606161.684                                                  
 21  9  1  7 42 33.0000000  0 15G 1G 7G 8G 9G13G14G17G21G27G30C23C25
                                C28C34E19
  22754950.308   119578025.414    22754953.489    93177669.864                  
  20178759.740   106040115.070    20178758.936    82628665.012                  
  21716767.686   114122348.088    21716769.777    88926496.050                  
  24129145.147   126799471.785    24129147.702    98804772.663                  
  24023215.345   126242868.164    24023214.273    98371070.739                  
  22426773.497   117853502.583    22426773.586    91833903.323                  
  23394130.245   122936985.438    23394130.334    95795053.359                  
  22065606.681   115955550.095    22065605.626    90354975.780                  
  24280071.811   127592614.708    24280073.276    99422811.646                  
  21002208.973   110367320.004    21002210.724    86000500.871                  
                 117489702.663                   117489702.663    22562652.263  
                 116422574.960                   116422574.960    22357727.592  
                 134877572.797                   134877572.797    25901821.629  
                 118457651.391                   118457651.391    22748545.478  
  26185632.336   137606421.063                                                  
 21  9  1  7 42 34.0000000  0 15G 1G 7G 8G 9G13G14G17G21G27G30C23C25
                                C28C34E19
  22754336.221   119574798.390    22754339.402    93175155.300                  
  20178814.044   106040400.324    20178813.222    82628887.289                  
  21717267.179   114124972.938    21717269.252    88928541.382                  
  24129809.482   126802962.887    24129812.037    98807493.000                  
  24022778.555   126240572.898    24022777.501    98369282.220                  
  22426352.699   117851291.256    22426352.753    91832180.214                  
  23393514.282   122933748.547    23393514.371    95792531.105                  
  22065397.542   115954451.050    22065396.487    90354119.382                  
  24280766.577   127596265.719    24280768.042    99425656.590                  
  21001869.265   110365534.771    21001870.998    85999109.778                  
                 117488181.552                   117488181.552    22562360.158  
                 116423645.814                   116423645.814    22357933.264  
                 134874123.360                   134874123.360    25901159.188  
                 118458856.665                   118458856.665    22748776.936  
  26185681.798   137606680.914                                                  
 21  9  1  7 42 35.0000000  0 15G 1G 7G 8G 9G13G14G17G21G27G30C23C25
                                C28C34E19
  22753722.188   119571571.629    22753725.369    93172640.941                  
  20178868.420   106040686.140    20178867.598    82629110.000                  
  21717766.743   114127598.139    21717768.816    88930586.996                  
  24130473.816   126806454.020    24130476.371    98810213.364                  
  24022341.872   126238278.144    24022340.818    98367494.098                  
  22425931.937   117849080.091    22425932.009    91830457.228                  
  23392898.354   122930511.906    23392898.462    95790009.051                  
  22065188.492   115953352.560    22065187.438    90353263.418                  
  24281461.360   127599916.836    24281462.843    99428501.618                  
  21001529.629   110363749.980    21001531.380    85997719.030                  
                 117486660.665                   117486660.665    22562068.071  
                 116424716.987                   116424716.987    22358138.955  
                 134870673.981                   134870673.981    25900496.766  
                 118460062.442                   118460062.442    22749008.483  
  26185731.313   137606941.232                                                  
 21  9  1  7 42 36.0000000  0 15G 1G 7G 8G 9G13G14G17G21G27G30C23C25
                                C28C34E19
  22753108.208   119568345.165    22753111.407    93170126.813                  
  20178922.920   106040972.507    20178922.098    82629333.145                  
  21718266.361   114130223.676    21718268.452    88932632.871                  
  24131138.169   126809945.192    24131140.742    98812933.758                  
  24021905.296   126235983.875    24021904.242    98365706.356                  
  22425511.175   117846869.078    22425511.265    91828734.360                  
  23392282.499   122927275.515    23392282.606    95787487.188                  
  22064979.567   115952254.624    22064978.495    90352407.883                  
  24282156.161   127603568.027    24282157.627    99431346.704                  
  21001190.081   110361965.610    21001191.815    85996328.614                  
                 117485140.003                   117485140.003    22561776.056  
                 116425788.489                   116425788.489    22358344.717  
                 134867224.663                   134867224.663    25899834.361  
                 118461268.720                   118461268.720    22749240.137  
  26185780.953   137607202.004                                                  
 21  9  1  7 42 37.0000000  0 15G 1G 7G 8G 9G13G14G17G21G27G30C23C25
                                C28C34E19
  22752494.282   119565118.974    22752497.463    93167612.898                  
  20178977.528   106041259.425    20178976.706    82629556.718                  
  21718766.068   114132849.578    21718768.141    88934679.027                  
  24131802.521   126813436.402    24131805.076    98815654.179                  
  24021468.827   126233690.122    24021467.737    98363919.016                  
  22425090.485   117844658.235    22425090.538    91827011.626                  
  23391666.678   122924039.370    23391666.786    95784965.517                  
  22064770.732   115951157.258    22064769.678    90351552.793                  
  24282850.980   127607219.314    24282852.446    99434191.860                  
  21000850.606   110360181.671    21000852.339    85994938.531                  
                 117483619.578                   117483619.578    22561484.076  
                 116426860.317                   116426860.317    22358550.568  
                 134863775.406                   134863775.406    25899171.956  
                 118462475.491                   118462475.491    22749471.880  
  26185830.665   137607463.261                                                  
 21  9  1  7 42 38.0000000  0 15G 1G 7G 8G 9G13G14G17G21G27G30C23C25
                                C28C34E19
  22751880.392   119561893.058    22751883.608    93165099.204                  
  20179032.225   106041546.907    20179031.403    82629780.725                  
  21719265.829   114135475.842    21719267.902    88936725.468                  
  24132466.873   126816927.642    24132469.464    98818374.625                  
  24021032.412   126231396.868    24021031.358    98362132.067                  
  22424669.794   117842447.548    22424669.866    91825289.008                  
  23391050.894   122920803.478    23391051.019    95782444.042                  
  22064562.040   115950060.452    22064560.968    90350698.141                  
  24283545.817   127610870.686    24283547.283    99437037.086                  
  21000511.219   110358398.160    21000512.953    85993548.780                  
                 117482099.378                   117482099.378    22561192.132  
                 116427932.468                   116427932.468    22358756.455  
                 134860326.211                   134860326.211    25898509.587  
                 118463682.769                   118463682.769    22749703.748  
  26185880.465   137607724.970                                                  
 21  9  1  7 42 39.0000000  0 15G 1G 7G 8G 9G13G14G17G21G27G30C23C25
                                C28C34E19
  22751266.609   119558667.430    22751269.772    93162585.723                  
  20179087.011   106041834.938    20179086.225    82630005.167                  
  21719765.643   114138102.429    21719767.716    88938772.159                  
  24133131.262   126820418.928    24133133.817    98821095.110                  
  24020596.122   126229104.122    24020595.068    98360345.507                  
  22424249.140   117840237.016    22424249.211    91823566.520                  
  23390435.181   122917567.837    23390435.306    95779922.766                  
  22064353.419   115948964.201    22064352.365    90349843.917                  
  24284240.654   127614522.149    24284242.120    99439882.379                  
  21000171.905   110356615.083    21000173.638    85992159.370                  
                 117480579.410                   117480579.410    22560900.241  
                 116429004.944                   116429004.944    22358962.413  
                 134856877.073                   134856877.073    25897847.218  
                 118464890.544                   118464890.544    22749935.688  
  26185930.356   137607987.145                                                  
 21  9  1  7 42 40.0000000  0 15G 1G 7G 8G 9G13G14G17G21G27G30C23C25
                                C28C34E19
  22750652.826   119555442.075    22750656.024    93160072.462                  
  20179141.941   106042123.523    20179141.119    82630230.039                  
  21720265.511   114140729.362    21720267.620    88940819.122                  
  24133795.614   126823910.238    24133798.205    98823815.609                  
  24020159.921   126226811.863    24020158.867    98358559.336                  
  22423828.521   117838026.646    22423828.592    91821844.151                  
  23389819.504   122914332.441    23389819.611    95777401.680                  
  22064144.923   115947868.507    22064143.869    90348990.130                  
  24284935.527   127618173.695    24284936.992    99442727.742                  
  20999832.679   110354832.429    20999834.412    85990770.289                  
                 117479059.669                   117479059.669    22560608.405  
                 116430077.746                   116430077.746    22359168.443  
                 134853427.999                   134853427.999    25897184.867  
                 118466098.816                   118466098.816    22750167.718  
  26185980.335   137608249.779                                                  
 21  9  1  7 42 41.0000000  0 15G 1G 7G 8G 9G13G14G17G21G27G30C23C25
                                C28C34E19
  22750039.114   119552217.008    22750042.295    93157559.422                  
  20179196.959   106042412.669    20179196.155    82630455.348                  
  21720765.487   114143356.644    21720767.577    88942866.353                  
  24134460.020   126827401.601    24134462.575    98826536.152                  
  24019723.828   126224520.118    24019722.755    98356773.558                  
  22423407.938   117835816.437    22423407.991    91820121.915                  
  23389203.880   122911097.299    23389203.988    95774880.793                  
  22063936.517   115946773.380    22063935.463    90348136.782                  
  24285630.418   127621825.328    24285631.883    99445573.168                  
  20999493.525   110353050.204    20999495.276    85989381.542                  
                 117477540.161                   117477540.161    22560316.586  
                 116431150.874                   116431150.874    22359374.526  
                 134849978.990                   134849978.990    25896522.516  
                 118467307.591                   118467307.591    22750399.836  
  26186030.404   137608512.890                                                  
 21  9  1  7 42 42.0000000  0 15G 1G 7G 8G 9G13G14G17G21G27G30C23C25
                                C28C34E19
  22749425.456   119548992.211    22749428.637    93155046.593                  
  20179252.103   106042702.367    20179251.281    82630681.086                  
  21721265.498   114145984.266    21721267.606    88944913.848                  
  24135124.408   126830892.981    24135126.963    98829256.703                  
  24019287.806   126222228.859    24019286.733    98354988.164                  
  22422987.372   117833606.389    22422987.462    91818399.800                  
  23388588.293   122907862.402    23388588.400    95772360.089                  
  22063728.235   115945678.813    22063727.163    90347283.875                  
  24286325.326   127625477.050    24286326.773    99448418.668                  
  20999154.460   110351268.410    20999156.194    85987993.133                  
                 117476020.879                   117476020.879    22560024.820  
                 116432224.327                   116432224.327    22359580.663  
                 134846530.035                   134846530.035    25895860.183  
                 118468516.864                   118468516.864    22750632.080  
  26186080.563   137608776.442                                                  
 21  9  1  7 42 43.0000000  0 15G 1G 7G 8G 9G13G14G17G21G27G30C23C25
                                C28C34E19
  22748811.852   119545767.695    22748815.033    93152533.984                  
  20179307.319   106042992.625    20179306.514    82630907.261                  
  21721765.580   114148612.238    21721767.689    88946961.616                  
  24135788.796   126834384.403    24135791.352    98831977.294                  
  24018851.909   126219938.117    24018850.819    98353203.168                  
  22422566.861   117831396.503    22422566.914    91816677.809                  
  23387972.758   122904627.762    23387972.883    95769839.593                  
  22063520.043   115944584.797    22063518.971    90346431.398                  
  24287020.217   127629128.874    24287021.700    99451264.245                  
  20998815.485   110349487.038    20998817.218    85986605.052                  
                 117474501.827                   117474501.827    22559733.108  
                 116433298.109                   116433298.109    22359786.872  
                 134843081.145                   134843081.145    25895197.868  
                 118469726.633                   118469726.633    22750864.395  
  26186130.793   137609040.469                                                  
 21  9  1  7 42 44.0000000  0 15G 1G 7G 8G 9G13G14G17G21G27G30C23C25
                                C28C34E19
  22748198.301   119542543.449    22748201.482    93150021.587                  
  20179362.659   106043283.438    20179361.855    82631133.868                  
  21722265.734   114151240.574    21722267.843    88949009.672                  
  24136453.202   126837875.859    24136455.758    98834697.909                  
  24018416.083   126217647.883    24018415.029    98351418.574                  
  22422146.367   117829186.781    22422146.420    91814955.950                  
  23387357.278   122901393.366    23387357.385    95767319.289                  
  22063311.977   115943491.352    22063310.904    90345579.359                  
  24287715.161   127632780.763    24287716.626    99454109.870                  
  20998476.581   110347706.101    20998478.314    85985217.308                  
                 117472983.008                   117472983.008    22559441.432  
                 116434372.214                   116434372.214    22359993.134  
                 134839632.312                   134839632.312    25894535.534  
                 118470936.906                   118470936.906    22751096.817  
  26186181.112   137609304.965                                                  
 21  9  1  7 42 45.0000000  0 15G 1G 7G 8G 9G13G14G17G21G27G30C23C25
                                C28C34E19
  22747584.804   119539319.491    22747587.985    93147509.409                  
  20179418.124   106043574.808    20179417.302    82631360.910                  
  21722765.960   114153869.241    21722768.068    88951057.984                  
  24137117.608   126841367.351    24137120.181    98837418.550                  
  24017980.365   126215358.148    24017979.275    98349634.363                  
  22421725.909   117826977.215    22421725.962    91813234.208                  
  23386741.833   122898159.225    23386741.958    95764799.179                  
  22063103.999   115942398.454    22063102.945    90344727.754                  
  24288410.105   127636432.746    24288411.588    99456955.573                  
  20998137.766   110345925.595    20998139.500    85983829.899                  
                 117471464.418                   117471464.418    22559149.792  
                 116435446.644                   116435446.644    22360199.485  
                 134836183.544                   134836183.544    25893873.237  
