% program   : rnx2rtkp ver.2.4.3 b31
% inp file  : ngs/21_08_31_08_48_17_nvbm.obs
% inp file  : ngs/21_08_31_08_48_17_nvbm_VZ.obs
% inp file  : ngs/21_08_31_08_48_17_brdc.nav
% obs start : 2021/08/31 08:00:00.0 GPST (week2173 201600.0s)
% obs end   : 2021/08/31 08:59:59.0 GPST (week2173 205199.0s)
% ref pos   : -2205566.0295  -4680606.9283   3718396.3297
%
% (x/y/z-ecef=WGS84,Q=1:fix,2:float,3:sbas,4:dgps,5:single,6:ppp,ns=# of satellites)
%  GPST              x-ecef(m)      y-ecef(m)      z-ecef(m)   Q  ns   sdx(m)   sdy(m)   sdz(m)  sdxy(m)  sdyz(m)  sdzx(m) age(s)  ratio
2173 204476.000  -2197190.3695  -4678268.8627   3725900.2276   2   9   0.4653   0.7402   0.6786   0.3932  -0.5419  -0.2638 -30.00    1.6
2173 204477.000  -2197190.3720  -4678268.8718   3725900.2328   2   9   0.3314   0.5269   0.4824   0.2800  -0.3854  -0.1877 -29.00    1.8
2173 204478.000  -2197190.3709  -4678268.8713   3725900.2329   2   9   0.2714   0.4314   0.3950   0.2293  -0.3155  -0.1537 -28.00    1.9
2173 204479.000  -2197190.3720  -4678268.8715   3725900.2331   2   9   0.2354   0.3743   0.3427   0.1989  -0.2738  -0.1334 -27.00    2.0
2173 204480.000  -2197190.3685  -4678268.8707   3725900.2303   2   9   0.2108   0.3352   0.3070   0.1782  -0.2452  -0.1195 -26.00    2.1
2173 204481.000  -2197190.3707  -4678268.8742   3725900.2353   2   9   0.1926   0.3063   0.2806   0.1628  -0.2241  -0.1092 -25.00    2.2
2173 204482.000  -2197190.3714  -4678268.8747   3725900.2331   2   9   0.1785   0.2838   0.2600   0.1508  -0.2077  -0.1012 -24.00    2.3
2173 204483.000  -2197190.3710  -4678268.8735   3725900.2351   2   9   0.1670   0.2656   0.2434   0.1411  -0.1944  -0.0947 -23.00    2.4
2173 204484.000  -2197190.3710  -4678268.8746   3725900.2354   2   9   0.1575   0.2505   0.2296   0.1331  -0.1834  -0.0893 -22.00    2.6
2173 204485.000  -2197190.3726  -4678268.8746   3725900.2359   2   9   0.1495   0.2377   0.2179   0.1263  -0.1740  -0.0848 -21.00    2.7
2173 204486.000  -2197190.3726  -4678268.8793   3725900.2377   2   9   0.1425   0.2267   0.2078   0.1205  -0.1659  -0.0809 -20.00    2.9
2173 204487.000  -2197190.3716  -4678268.8745   3725900.2345   2   9   0.1365   0.2171   0.1989   0.1153  -0.1589  -0.0774 -19.00    3.0
2173 204488.000  -2197190.3698  -4678268.4969   3725900.0861   1   9   0.0135   0.0233   0.0256   0.0115  -0.0193  -0.0091 -18.00    3.1
2173 204489.000  -2197190.3684  -4678268.4998   3725900.0862   1   9   0.0129   0.0222   0.0242   0.0109  -0.0183  -0.0086 -17.00    3.1
2173 204490.000  -2197190.3666  -4678268.4982   3725900.0854   1   9   0.0122   0.0211   0.0229   0.0104  -0.0174  -0.0081 -16.00    3.3
2173 204491.000  -2197190.3661  -4678268.5013   3725900.0888   1   9   0.0116   0.0200   0.0217   0.0098  -0.0164  -0.0076 -15.00    3.4
2173 204492.000  -2197190.3659  -4678268.5003   3725900.0862   1   9   0.0110   0.0189   0.0204   0.0093  -0.0154  -0.0072 -14.00    3.6
2173 204493.000  -2197190.3645  -4678268.4976   3725900.0856   1   9   0.0103   0.0178   0.0191   0.0088  -0.0145  -0.0068 -13.00    3.9
2173 204494.000  -2197190.3649  -4678268.4966   3725900.0873   1   9   0.0097   0.0167   0.0178   0.0082  -0.0136  -0.0063 -12.00    4.2
2173 204495.000  -2197190.3627  -4678268.4979   3725900.0858   1   9   0.0091   0.0156   0.0166   0.0077  -0.0126  -0.0059 -11.00    4.6
2173 204496.000  -2197190.3633  -4678268.4965   3725900.0842   1   9   0.0086   0.0146   0.0154   0.0072  -0.0117  -0.0054 -10.00    5.0
2173 204497.000  -2197190.3632  -4678268.5003   3725900.0894   1   9   0.0080   0.0136   0.0141   0.0067  -0.0108  -0.0050  -9.00    5.6
2173 204498.000  -2197190.3623  -4678268.4977   3725900.0868   1   9   0.0074   0.0126   0.0130   0.0063  -0.0100  -0.0046  -8.00    6.4
2173 204499.000  -2197190.3622  -4678268.4966   3725900.0872   1   9   0.0069   0.0116   0.0118   0.0058  -0.0091  -0.0042  -7.00    7.4
2173 204500.000  -2197190.3612  -4678268.4962   3725900.0872   1   9   0.0064   0.0108   0.0107   0.0053  -0.0083  -0.0039  -6.00    8.3
2173 204501.000  -2197190.3608  -4678268.4963   3725900.0879   1   9   0.0059   0.0099   0.0097   0.0050  -0.0076  -0.0035  -5.00    9.6
2173 204502.000  -2197190.3609  -4678268.4967   3725900.0869   1   9   0.0053   0.0092   0.0087   0.0045  -0.0070  -0.0031  -4.00   11.1
2173 204503.000  -2197190.3600  -4678268.4944   3725900.0876   1   9   0.0052   0.0085   0.0080   0.0043  -0.0063  -0.0029  -3.00   12.6
2173 204504.000  -2197190.3582  -4678268.4919   3725900.0861   1   9   0.0050   0.0079   0.0074   0.0041  -0.0059  -0.0027  -2.00   14.2
2173 204505.000  -2197190.3587  -4678268.4930   3725900.0895   1   9   0.0047   0.0076   0.0069   0.0038  -0.0056  -0.0025  -1.00   16.1
2173 204506.000  -2197190.3581  -4678268.4903   3725900.0899   1   9   0.0049   0.0074   0.0068   0.0041  -0.0054  -0.0027   0.00   18.5
2173 204507.000  -2197190.3563  -4678268.4871   3725900.0902   1   9   0.0047   0.0077   0.0069   0.0036  -0.0055  -0.0025   0.00   20.3
2173 204508.000  -2197190.3586  -4678268.4900   3725900.0936   1   9   0.0046   0.0076   0.0067   0.0038  -0.0055  -0.0029   0.00   22.0
2173 204509.000  -2197190.3572  -4678268.4887   3725900.0915   1   9   0.0051   0.0076   0.0068   0.0036  -0.0055  -0.0026   0.00   23.4
2173 204510.000  -2197190.3586  -4678268.4878   3725900.0891   1   9   0.0045   0.0075   0.0069   0.0037  -0.0055  -0.0027   0.00   24.2
2173 204511.000  -2197190.3589  -4678268.4858   3725900.0875   1   9   0.0046   0.0075   0.0069   0.0039  -0.0054  -0.0028   0.00   25.0
2173 204512.000  -2197190.3578  -4678268.4860   3725900.0884   1   9   0.0049   0.0076   0.0068   0.0040  -0.0054  -0.0028   0.00   26.0
2173 204513.000  -2197190.3583  -4678268.4871   3725900.0902   1   9   0.0045   0.0075   0.0068   0.0038  -0.0055  -0.0028   0.00   26.4
2173 204514.000  -2197190.3571  -4678268.4902   3725900.0927   1   9   0.0047   0.0076   0.0070   0.0037  -0.0054  -0.0023   0.00   27.0
2173 204515.000  -2197190.3578  -4678268.4873   3725900.0890   1   9   0.0050   0.0078   0.0067   0.0034  -0.0055  -0.0023   0.00   27.0
2173 204516.000  -2197190.3574  -4678268.4893   3725900.0923   1   9   0.0046   0.0076   0.0069   0.0039  -0.0054  -0.0026   0.00   26.9
2173 204517.000  -2197190.3571  -4678268.4874   3725900.0910   1   9   0.0044   0.0076   0.0069   0.0038  -0.0055  -0.0026   0.00   26.7
2173 204518.000  -2197190.3568  -4678268.4872   3725900.0905   1   9   0.0045   0.0072   0.0068   0.0043  -0.0056  -0.0024   0.00   26.6
2173 204519.000  -2197190.3581  -4678268.4892   3725900.0905   1   9   0.0047   0.0074   0.0068   0.0039  -0.0056  -0.0028   0.00   26.7
2173 204520.000  -2197190.3593  -4678268.4867   3725900.0861   1   9   0.0044   0.0076   0.0069   0.0037  -0.0055  -0.0025   0.00   26.7
2173 204521.000  -2197190.3582  -4678268.4867   3725900.0877   1   9   0.0045   0.0074   0.0068   0.0042  -0.0056  -0.0028   0.00   26.6
2173 204522.000  -2197190.3581  -4678268.4866   3725900.0890   1   9   0.0047   0.0075   0.0067   0.0038  -0.0054  -0.0023   0.00   26.6
2173 204523.000  -2197190.3582  -4678268.4868   3725900.0902   1   9   0.0043   0.0074   0.0068   0.0038  -0.0055  -0.0023   0.00   26.4
2173 204524.000  -2197190.3582  -4678268.4853   3725900.0890   1   9   0.0047   0.0074   0.0069   0.0041  -0.0055  -0.0026   0.00   26.2
2173 204525.000  -2197190.3577  -4678268.4864   3725900.0891   1   9   0.0048   0.0075   0.0069   0.0040  -0.0056  -0.0026   0.00   25.9
2173 204526.000  -2197190.3554  -4678268.4843   3725900.0881   1   9   0.0048   0.0075   0.0068   0.0039  -0.0055  -0.0027   0.00   25.5
2173 204527.000  -2197190.3560  -4678268.4840   3725900.0867   1   9   0.0043   0.0077   0.0069   0.0036  -0.0053  -0.0029   0.00   25.3
2173 204528.000  -2197190.3577  -4678268.4836   3725900.0828   1   9   0.0050   0.0075   0.0070   0.0040  -0.0054  -0.0027   0.00   25.1
2173 204529.000  -2197190.3571  -4678268.4868   3725900.0908   1   9   0.0050   0.0075   0.0069   0.0043  -0.0054  -0.0026   0.00   25.0
2173 204530.000  -2197190.3562  -4678268.4833   3725900.0890   1   9   0.0048   0.0074   0.0069   0.0040  -0.0055  -0.0028   0.00   24.8
2173 204531.000  -2197190.3572  -4678268.4831   3725900.0858   1   9   0.0050   0.0074   0.0069   0.0041  -0.0055  -0.0029   0.00   24.5
2173 204532.000  -2197190.3556  -4678268.4855   3725900.0901   1   9   0.0047   0.0075   0.0069   0.0038  -0.0054  -0.0028   0.00   24.6
2173 204533.000  -2197190.3587  -4678268.4835   3725900.0871   1   9   0.0048   0.0077   0.0067   0.0035  -0.0054  -0.0024   0.00   24.3
2173 204534.000  -2197190.3574  -4678268.4834   3725900.0875   1   9   0.0050   0.0075   0.0068   0.0039  -0.0055  -0.0027   0.00   24.2
2173 204535.000  -2197190.3564  -4678268.4835   3725900.0841   1   9   0.0044   0.0075   0.0068   0.0036  -0.0054  -0.0026   0.00   24.2
2173 204536.000  -2197190.3549  -4678268.4819   3725900.0873   1   9   0.0046   0.0073   0.0068   0.0043  -0.0056  -0.0029   0.00   24.1
2173 204537.000  -2197190.3569  -4678268.4828   3725900.0884   1   9   0.0045   0.0075   0.0068   0.0039  -0.0054  -0.0027   0.00   24.0
2173 204538.000  -2197190.3567  -4678268.4823   3725900.0849   1   9   0.0047   0.0075   0.0068   0.0039  -0.0054  -0.0027   0.00   24.0
2173 204539.000  -2197190.3589  -4678268.4839   3725900.0870   1   9   0.0047   0.0075   0.0069   0.0038  -0.0056  -0.0030   0.00   23.8
2173 204540.000  -2197190.3588  -4678268.4824   3725900.0852   1   9   0.0046   0.0075   0.0068   0.0038  -0.0057  -0.0026   0.00   23.5
2173 204541.000  -2197190.3569  -4678268.4837   3725900.0890   1   9   0.0049   0.0073   0.0069   0.0043  -0.0056  -0.0028   0.00   23.5
2173 204542.000  -2197190.3574  -4678268.4838   3725900.0863   1   9   0.0047   0.0076   0.0067   0.0037  -0.0055  -0.0028   0.00   23.5
2173 204543.000  -2197190.3574  -4678268.4838   3725900.0890   1   9   0.0046   0.0073   0.0068   0.0040  -0.0054  -0.0028   0.00   23.4
2173 204544.000  -2197190.3568  -4678268.4827   3725900.0836   1   9   0.0047   0.0075   0.0069   0.0040  -0.0055  -0.0028   0.00   23.3
2173 204545.000  -2197190.3577  -4678268.4811   3725900.0853   1   9   0.0046   0.0076   0.0068   0.0038  -0.0054  -0.0023   0.00   23.2
2173 204546.000  -2197190.3566  -4678268.4830   3725900.0850   1   9   0.0047   0.0078   0.0068   0.0033  -0.0054  -0.0026   0.00   23.2
2173 204547.000  -2197190.3573  -4678268.4804   3725900.0823   1   9   0.0049   0.0072   0.0068   0.0044  -0.0056  -0.0029   0.00   23.0
2173 204548.000  -2197190.3588  -4678268.4820   3725900.0843   1   9   0.0048   0.0074   0.0068   0.0042  -0.0055  -0.0029   0.00   22.9
2173 204549.000  -2197190.3568  -4678268.4840   3725900.0892   1   9   0.0047   0.0075   0.0070   0.0040  -0.0054  -0.0023   0.00   22.9
2173 204550.000  -2197190.3569  -4678268.4804   3725900.0832   1   9   0.0047   0.0076   0.0068   0.0037  -0.0056  -0.0027   0.00   22.7
2173 204551.000  -2197190.3555  -4678268.4808   3725900.0857   1   9   0.0049   0.0075   0.0069   0.0042  -0.0054  -0.0025   0.00   22.8
2173 204552.000  -2197190.3569  -4678268.4802   3725900.0824   1   9   0.0051   0.0074   0.0069   0.0041  -0.0056  -0.0027   0.00   22.8
2173 204553.000  -2197190.3582  -4678268.4838   3725900.0854   1   9   0.0049   0.0076   0.0068   0.0038  -0.0055  -0.0027   0.00   22.8
2173 204554.000  -2197190.3584  -4678268.4802   3725900.0848   1   9   0.0046   0.0073   0.0070   0.0041  -0.0055  -0.0030   0.00   22.7
2173 204555.000  -2197190.3590  -4678268.4832   3725900.0889   1   9   0.0046   0.0073   0.0068   0.0043  -0.0054  -0.0027   0.00   22.8
2173 204556.000  -2197190.3553  -4678268.4781   3725900.0827   1   9   0.0048   0.0078   0.0069   0.0035  -0.0053  -0.0024   0.00   22.7
2173 204557.000  -2197190.3589  -4678268.4816   3725900.0842   1   9   0.0049   0.0075   0.0069   0.0039  -0.0054  -0.0023   0.00   22.7
2173 204558.000  -2197190.3572  -4678268.4801   3725900.0837   1   9   0.0045   0.0073   0.0071   0.0041  -0.0055  -0.0027   0.00   22.6
2173 204559.000  -2197190.3586  -4678268.4829   3725900.0860   1   9   0.0050   0.0075   0.0070   0.0041  -0.0055  -0.0028   0.00   22.6
2173 204560.000  -2197190.3593  -4678268.4830   3725900.0836   1   9   0.0048   0.0075   0.0068   0.0040  -0.0054  -0.0024   0.00   22.5
2173 204561.000  -2197190.3586  -4678268.4815   3725900.0836   1   9   0.0047   0.0075   0.0070   0.0038  -0.0056  -0.0028   0.00   22.5
2173 204562.000  -2197190.3593  -4678268.4831   3725900.0846   1   9   0.0044   0.0075   0.0069   0.0040  -0.0056  -0.0031   0.00   22.5
2173 204563.000  -2197190.3603  -4678268.4846   3725900.0855   1   9   0.0046   0.0073   0.0068   0.0040  -0.0057  -0.0027   0.00   22.6
2173 204564.000  -2197190.3582  -4678268.4829   3725900.0850   1   9   0.0051   0.0078   0.0069   0.0034  -0.0054  -0.0025   0.00   22.7
2173 204565.000  -2197190.3591  -4678268.4829   3725900.0820   1   9   0.0049   0.0075   0.0069   0.0041  -0.0055  -0.0021   0.00   22.7
2173 204566.000  -2197190.3580  -4678268.4823   3725900.0835   1   9   0.0048   0.0074   0.0068   0.0042  -0.0056  -0.0031   0.00   22.6
2173 204567.000  -2197190.3601  -4678268.4822   3725900.0813   1   9   0.0046   0.0078   0.0067   0.0035  -0.0053  -0.0031   0.00   22.7
2173 204568.000  -2197190.3593  -4678268.4827   3725900.0861   1   9   0.0046   0.0075   0.0068   0.0041  -0.0054  -0.0028   0.00   22.8
2173 204569.000  -2197190.3586  -4678268.4830   3725900.0854   1   9   0.0048   0.0076   0.0068   0.0040  -0.0054  -0.0029   0.00   22.8
2173 204570.000  -2197190.3575  -4678268.4818   3725900.0848   1   9   0.0049   0.0075   0.0068   0.0039  -0.0054  -0.0025   0.00   22.9
2173 204571.000  -2197190.3570  -4678268.4804   3725900.0845   1   9   0.0044   0.0072   0.0069   0.0044  -0.0055  -0.0030   0.00   23.0
2173 204572.000  -2197190.3567  -4678268.4816   3725900.0851   1   9   0.0045   0.0073   0.0068   0.0045  -0.0054  -0.0029   0.00   23.0
2173 204573.000  -2197190.3588  -4678268.4837   3725900.0830   1   9   0.0047   0.0071   0.0070   0.0043  -0.0056  -0.0032   0.00   23.0
2173 204574.000  -2197190.3574  -4678268.4842   3725900.0860   1   9   0.0047   0.0077   0.0068   0.0034  -0.0055  -0.0027   0.00   23.1
2173 204575.000  -2197190.3583  -4678268.4832   3725900.0852   1   9   0.0047   0.0075   0.0068   0.0038  -0.0056  -0.0026   0.00   23.2
2173 204576.000  -2197190.3596  -4678268.4833   3725900.0833   1   9   0.0049   0.0077   0.0068   0.0037  -0.0054  -0.0026   0.00   23.3
2173 204577.000  -2197190.3579  -4678268.4848   3725900.0897   1   9   0.0049   0.0076   0.0069   0.0035  -0.0055  -0.0024   0.00   23.4
2173 204578.000  -2197190.3600  -4678268.4847   3725900.0852   1   9   0.0047   0.0074   0.0068   0.0041  -0.0055  -0.0029   0.00   23.5
2173 204579.000  -2197190.3573  -4678268.4838   3725900.0857   1   9   0.0050   0.0075   0.0068   0.0039  -0.0055  -0.0029   0.00   23.5
2173 204580.000  -2197190.3553  -4678268.4823   3725900.0843   1   9   0.0047   0.0076   0.0069   0.0037  -0.0054  -0.0025   0.00   23.5
2173 204581.000  -2197190.3574  -4678268.4830   3725900.0873   1   9   0.0048   0.0075   0.0067   0.0038  -0.0056  -0.0021   0.00   23.7
2173 204582.000  -2197190.3581  -4678268.4831   3725900.0848   1   9   0.0046   0.0075   0.0068   0.0039  -0.0055  -0.0024   0.00   23.8
2173 204583.000  -2197190.3598  -4678268.4826   3725900.0849   1   9   0.0045   0.0075   0.0069   0.0041  -0.0054  -0.0024   0.00   23.9
2173 204584.000  -2197190.3598  -4678268.4832   3725900.0853   1   9   0.0044   0.0073   0.0068   0.0040  -0.0056  -0.0026   0.00   24.0
2173 204585.000  -2197190.3610  -4678268.4833   3725900.0860   1   9   0.0047   0.0076   0.0068   0.0037  -0.0056  -0.0025   0.00   24.2
2173 204586.000  -2197190.3582  -4678268.4829   3725900.0860   1   9   0.0046   0.0078   0.0069   0.0035  -0.0055  -0.0024   0.00   24.4
2173 204587.000  -2197190.3580  -4678268.4851   3725900.0891   1   9   0.0048   0.0077   0.0069   0.0033  -0.0054  -0.0026   0.00   24.7
2173 204588.000  -2197190.3566  -4678268.4833   3725900.0867   1   9   0.0045   0.0075   0.0068   0.0040  -0.0054  -0.0029   0.00   24.8
2173 204589.000  -2197190.3567  -4678268.4826   3725900.0833   1   9   0.0045   0.0074   0.0069   0.0040  -0.0054  -0.0026   0.00   25.0
2173 204590.000  -2197190.3572  -4678268.4838   3725900.0869   1   9   0.0045   0.0078   0.0068   0.0033  -0.0053  -0.0028   0.00   25.1
2173 204591.000  -2197190.3581  -4678268.4838   3725900.0862   1   9   0.0047   0.0074   0.0070   0.0041  -0.0054  -0.0027   0.00   25.2
2173 204592.000  -2197190.3580  -4678268.4854   3725900.0870   1   9   0.0047   0.0073   0.0070   0.0041  -0.0055  -0.0028   0.00   25.4
2173 204593.000  -2197190.3590  -4678268.4834   3725900.0866   1   9   0.0048   0.0075   0.0069   0.0041  -0.0055  -0.0030   0.00   25.6
2173 204594.000  -2197190.3583  -4678268.4821   3725900.0863   1   9   0.0047   0.0075   0.0066   0.0039  -0.0055  -0.0029   0.00   25.7
2173 204595.000  -2197190.3592  -4678268.4843   3725900.0853   1   9   0.0050   0.0075   0.0068   0.0039  -0.0055  -0.0027   0.00   25.8
2173 204596.000  -2197190.3588  -4678268.4822   3725900.0871   1   9   0.0047   0.0077   0.0069   0.0039  -0.0055  -0.0029   0.00   26.0
2173 204597.000  -2197190.3588  -4678268.4826   3725900.0861   1   9   0.0046   0.0074   0.0069   0.0042  -0.0053  -0.0031   0.00   26.1
2173 204598.000  -2197190.3550  -4678268.4810   3725900.0835   1   9   0.0046   0.0075   0.0070   0.0037  -0.0055  -0.0025   0.00   26.3
2173 204599.000  -2197190.3595  -4678268.4857   3725900.0882   1   9   0.0048   0.0077   0.0069   0.0038  -0.0054  -0.0020   0.00   26.5
2173 204600.000  -2197190.3589  -4678268.4845   3725900.0873   1   9   0.0048   0.0075   0.0068   0.0038  -0.0056  -0.0025   0.00   26.7
2173 204601.000  -2197190.3581  -4678268.4830   3725900.0865   1   9   0.0047   0.0077   0.0069   0.0035  -0.0055  -0.0023   0.00   26.9
2173 204602.000  -2197190.3553  -4678268.4798   3725900.0842   1   9   0.0048   0.0075   0.0067   0.0038  -0.0056  -0.0026   0.00   27.1
2173 204603.000  -2197190.3577  -4678268.4849   3725900.0876   1   9   0.0042   0.0072   0.0067   0.0044  -0.0056  -0.0027   0.00   27.3
2173 204604.000  -2197190.3581  -4678268.4849   3725900.0853   1   9   0.0049   0.0075   0.0069   0.0038  -0.0055  -0.0027   0.00   27.6
2173 204605.000  -2197190.3591  -4678268.4819   3725900.0852   1   9   0.0048   0.0074   0.0069   0.0040  -0.0055  -0.0031   0.00   27.7
2173 204606.000  -2197190.3559  -4678268.4821   3725900.0872   1   9   0.0048   0.0075   0.0069   0.0036  -0.0057  -0.0027   0.00   27.9
2173 204607.000  -2197190.3579  -4678268.4826   3725900.0858   1   9   0.0049   0.0075   0.0069   0.0039  -0.0055  -0.0026   0.00   28.1
2173 204608.000  -2197190.3579  -4678268.4870   3725900.0888   1   9   0.0046   0.0075   0.0069   0.0040  -0.0055  -0.0022   0.00   28.4
2173 204609.000  -2197190.3565  -4678268.4828   3725900.0863   1   9   0.0043   0.0077   0.0068   0.0037  -0.0052  -0.0025   0.00   28.7
2173 204610.000  -2197190.3564  -4678268.4821   3725900.0840   1   9   0.0046   0.0074   0.0068   0.0040  -0.0054  -0.0031   0.00   28.9
2173 204611.000  -2197190.3585  -4678268.4836   3725900.0818   1   9   0.0047   0.0076   0.0070   0.0040  -0.0053  -0.0026   0.00   29.1
2173 204612.000  -2197190.3590  -4678268.4875   3725900.0868   1   9   0.0044   0.0072   0.0069   0.0043  -0.0055  -0.0029   0.00   29.4
2173 204613.000  -2197190.3548  -4678268.4808   3725900.0838   1   9   0.0051   0.0076   0.0070   0.0039  -0.0055  -0.0025   0.00   29.6
2173 204614.000  -2197190.3566  -4678268.4824   3725900.0874   1   9   0.0048   0.0073   0.0068   0.0042  -0.0055  -0.0029   0.00   29.9
2173 204615.000  -2197190.3572  -4678268.4850   3725900.0873   1   9   0.0045   0.0076   0.0066   0.0036  -0.0056  -0.0027   0.00   30.2
2173 204616.000  -2197190.3570  -4678268.4861   3725900.0872   1   9   0.0046   0.0074   0.0069   0.0040  -0.0053  -0.0028   0.00   30.5
2173 204617.000  -2197190.3592  -4678268.4875   3725900.0872   1   9   0.0046   0.0075   0.0069   0.0041  -0.0054  -0.0029   0.00   30.8
2173 204618.000  -2197190.3567  -4678268.4817   3725900.0844   1   9   0.0048   0.0076   0.0069   0.0038  -0.0053  -0.0030   0.00   31.1
2173 204619.000  -2197190.3543  -4678268.4827   3725900.0858   1   9   0.0046   0.0071   0.0068   0.0045  -0.0054  -0.0025   0.00   31.3
2173 204620.000  -2197190.3547  -4678268.4829   3725900.0872   1   9   0.0047   0.0074   0.0068   0.0041  -0.0054  -0.0025   0.00   31.6
2173 204621.000  -2197190.3582  -4678268.4843   3725900.0859   1   9   0.0049   0.0075   0.0068   0.0039  -0.0057  -0.0029   0.00   31.8
2173 204622.000  -2197190.3580  -4678268.4846   3725900.0869   1   9   0.0046   0.0077   0.0068   0.0034  -0.0055  -0.0028   0.00   32.0
2173 204623.000  -2197190.3573  -4678268.4828   3725900.0847   1   9   0.0047   0.0075   0.0069   0.0041  -0.0053  -0.0028   0.00   32.3
2173 204624.000  -2197190.3562  -4678268.4817   3725900.0832   1   9   0.0044   0.0072   0.0069   0.0042  -0.0056  -0.0028   0.00   32.6
2173 204625.000  -2197190.3556  -4678268.4820   3725900.0870   1   9   0.0046   0.0076   0.0069   0.0036  -0.0054  -0.0024   0.00   32.8
2173 204626.000  -2197190.3581  -4678268.4822   3725900.0848   1   9   0.0047   0.0074   0.0069   0.0042  -0.0054  -0.0029   0.00   32.9
2173 204627.000  -2197190.3565  -4678268.4832   3725900.0893   1   9   0.0043   0.0075   0.0067   0.0041  -0.0055  -0.0027   0.00   33.0
2173 204628.000  -2197190.3562  -4678268.4854   3725900.0887   1   9   0.0049   0.0075   0.0068   0.0039  -0.0054  -0.0028   0.00   33.1
2173 204629.000  -2197190.3568  -4678268.4809   3725900.0842   1   9   0.0048   0.0075   0.0069   0.0040  -0.0056  -0.0025   0.00   33.3
2173 204630.000  -2197190.3567  -4678268.4854   3725900.0861   1   9   0.0044   0.0075   0.0068   0.0041  -0.0055  -0.0028   0.00   33.4
2173 204631.000  -2197190.3580  -4678268.4803   3725900.0845   1   9   0.0047   0.0073   0.0068   0.0041  -0.0054  -0.0032   0.00   33.5
2173 204632.000  -2197190.3572  -4678268.4802   3725900.0863   1   9   0.0047   0.0077   0.0068   0.0037  -0.0054  -0.0029   0.00   33.6
2173 204633.000  -2197190.3575  -4678268.4834   3725900.0853   1   9   0.0047   0.0074   0.0069   0.0039  -0.0056  -0.0028   0.00   33.7
2173 204634.000  -2197190.3588  -4678268.4835   3725900.0865   1   9   0.0049   0.0076   0.0069   0.0038  -0.0054  -0.0028   0.00   33.8
2173 204635.000  -2197190.3573  -4678268.4830   3725900.0863   1   9   0.0045   0.0077   0.0069   0.0037  -0.0054  -0.0028   0.00   33.9
2173 204636.000  -2197190.3575  -4678268.4781   3725900.0813   1   9   0.0046   0.0073   0.0070   0.0041  -0.0054  -0.0029   0.00   34.0
2173 204637.000  -2197190.3559  -4678268.4816   3725900.0867   1   9   0.0046   0.0074   0.0068   0.0041  -0.0055  -0.0029   0.00   34.2
2173 204638.000  -2197190.3558  -4678268.4806   3725900.0855   1   9   0.0049   0.0074   0.0070   0.0041  -0.0054  -0.0027   0.00   34.3
2173 204639.000  -2197190.3586  -4678268.4811   3725900.0841   1   9   0.0049   0.0074   0.0068   0.0041  -0.0056  -0.0030   0.00   34.4
2173 204640.000  -2197190.3564  -4678268.4814   3725900.0887   1   9   0.0049   0.0075   0.0070   0.0038  -0.0054  -0.0028   0.00   34.5
2173 204641.000  -2197190.3564  -4678268.4829   3725900.0840   1   9   0.0043   0.0074   0.0068   0.0040  -0.0055  -0.0028   0.00   34.6
2173 204642.000  -2197190.3559  -4678268.4828   3725900.0875   1   9   0.0047   0.0077   0.0070   0.0034  -0.0053  -0.0025   0.00   34.7
2173 204643.000  -2197190.3554  -4678268.4794   3725900.0880   1   9   0.0047   0.0075   0.0070   0.0039  -0.0054  -0.0026   0.00   34.8
2173 204644.000  -2197190.3556  -4678268.4805   3725900.0879   1   9   0.0046   0.0075   0.0068   0.0037  -0.0055  -0.0025   0.00   35.0
2173 204645.000  -2197190.3567  -4678268.4817   3725900.0868   1   9   0.0045   0.0076   0.0070   0.0037  -0.0055  -0.0028   0.00   35.1
2173 204646.000  -2197190.3572  -4678268.4844   3725900.0905   1   9   0.0048   0.0077   0.0069   0.0034  -0.0055  -0.0027   0.00   35.3
2173 204647.000  -2197190.3557  -4678268.4795   3725900.0885   1   9   0.0049   0.0074   0.0071   0.0039  -0.0054  -0.0023   0.00   35.4
2173 204648.000  -2197190.3583  -4678268.4825   3725900.0856   1   9   0.0049   0.0076   0.0068   0.0038  -0.0054  -0.0025   0.00   35.6
2173 204649.000  -2197190.3608  -4678268.4848   3725900.0887   1   9   0.0046   0.0075   0.0067   0.0042  -0.0053  -0.0030   0.00   35.7
2173 204650.000  -2197190.3569  -4678268.4829   3725900.0876   1   9   0.0047   0.0076   0.0070   0.0038  -0.0054  -0.0026   0.00   35.7
2173 204651.000  -2197190.3562  -4678268.4827   3725900.0855   1   9   0.0047   0.0075   0.0069   0.0040  -0.0055  -0.0024   0.00   35.9
2173 204652.000  -2197190.3576  -4678268.4816   3725900.0858   1   9   0.0044   0.0074   0.0067   0.0040  -0.0056  -0.0026   0.00   36.0
2173 204653.000  -2197190.3556  -4678268.4826   3725900.0880   1   9   0.0046   0.0076   0.0069   0.0038  -0.0055  -0.0025   0.00   36.2
2173 204654.000  -2197190.3560  -4678268.4818   3725900.0870   1   9   0.0043   0.0074   0.0069   0.0040  -0.0053  -0.0026   0.00   36.4
2173 204655.000  -2197190.3557  -4678268.4815   3725900.0884   1   9   0.0048   0.0071   0.0070   0.0046  -0.0055  -0.0032   0.00   36.5
2173 204656.000  -2197190.3558  -4678268.4821   3725900.0883   1   9   0.0046   0.0078   0.0069   0.0031  -0.0055  -0.0026   0.00   36.6
2173 204657.000  -2197190.3566  -4678268.4812   3725900.0807   1   9   0.0047   0.0076   0.0068   0.0039  -0.0054  -0.0027   0.00   36.7
2173 204658.000  -2197190.3561  -4678268.4831   3725900.0855   1   9   0.0048   0.0070   0.0069   0.0046  -0.0056  -0.0030   0.00   36.9
2173 204659.000  -2197190.3577  -4678268.4814   3725900.0870   1   9   0.0050   0.0077   0.0069   0.0037  -0.0054  -0.0027   0.00   37.0
2173 204660.000  -2197190.3575  -4678268.4816   3725900.0875   1   9   0.0047   0.0075   0.0070   0.0038  -0.0055  -0.0029   0.00   37.2
2173 204661.000  -2197190.3539  -4678268.4772   3725900.0838   1   9   0.0047   0.0075   0.0069   0.0038  -0.0055  -0.0026   0.00   37.3
2173 204662.000  -2197190.3551  -4678268.4800   3725900.0847   1   9   0.0049   0.0075   0.0068   0.0038  -0.0054  -0.0024   0.00   37.4
2173 204663.000  -2197190.3545  -4678268.4778   3725900.0823   1   9   0.0045   0.0075   0.0068   0.0036  -0.0055  -0.0030   0.00   37.5
2173 204664.000  -2197190.3555  -4678268.4796   3725900.0842   1   9   0.0046   0.0074   0.0068   0.0041  -0.0055  -0.0028   0.00   37.7
2173 204665.000  -2197190.3556  -4678268.4813   3725900.0853   1   9   0.0047   0.0075   0.0070   0.0038  -0.0055  -0.0032   0.00   37.8
2173 204666.000  -2197190.3546  -4678268.4780   3725900.0851   1   9   0.0047   0.0075   0.0069   0.0038  -0.0055  -0.0030   0.00   37.9
2173 204667.000  -2197190.3542  -4678268.4814   3725900.0875   1   9   0.0045   0.0073   0.0070   0.0039  -0.0056  -0.0025   0.00   38.0
2173 204668.000  -2197190.3567  -4678268.4803   3725900.0861   1   9   0.0049   0.0076   0.0068   0.0038  -0.0052  -0.0027   0.00   38.2
2173 204669.000  -2197190.3581  -4678268.4809   3725900.0871   1   9   0.0045   0.0073   0.0069   0.0040  -0.0056  -0.0027   0.00   38.2
2173 204670.000  -2197190.3567  -4678268.4786   3725900.0830   1   9   0.0049   0.0075   0.0069   0.0039  -0.0056  -0.0032   0.00   38.2
2173 204671.000  -2197190.3567  -4678268.4810   3725900.0856   1   9   0.0047   0.0073   0.0068   0.0040  -0.0055  -0.0027   0.00   38.3
2173 204672.000  -2197190.3570  -4678268.4803   3725900.0860   1   9   0.0048   0.0074   0.0070   0.0042  -0.0054  -0.0028   0.00   38.3
2173 204673.000  -2197190.3570  -4678268.4843   3725900.0879   1   9   0.0048   0.0077   0.0068   0.0035  -0.0053  -0.0027   0.00   38.3
2173 204674.000  -2197190.3573  -4678268.4795   3725900.0852   1   9   0.0048   0.0075   0.0070   0.0039  -0.0055  -0.0024   0.00   38.4
2173 204675.000  -2197190.3569  -4678268.4818   3725900.0851   1   9   0.0045   0.0076   0.0068   0.0037  -0.0054  -0.0026   0.00   38.4
2173 204676.000  -2197190.3551  -4678268.4804   3725900.0856   1   9   0.0048   0.0075   0.0070   0.0039  -0.0054  -0.0028   0.00   38.5
2173 204677.000  -2197190.3580  -4678268.4854   3725900.0871   1   9   0.0047   0.0075   0.0070   0.0042  -0.0054  -0.0029   0.00   38.4
2173 204678.000  -2197190.3558  -4678268.4806   3725900.0872   1   9   0.0048   0.0075   0.0069   0.0038  -0.0053  -0.0028   0.00   38.5
2173 204679.000  -2197190.3568  -4678268.4801   3725900.0855   1   9   0.0045   0.0071   0.0069   0.0044  -0.0057  -0.0032   0.00   38.6
2173 204680.000  -2197190.3563  -4678268.4833   3725900.0864   1   9   0.0048   0.0075   0.0070   0.0039  -0.0055  -0.0030   0.00   38.6
2173 204681.000  -2197190.3566  -4678268.4850   3725900.0907   1   9   0.0047   0.0077   0.0071   0.0033  -0.0055  -0.0023   0.00   38.8
2173 204682.000  -2197190.3550  -4678268.4804   3725900.0864   1   9   0.0048   0.0076   0.0069   0.0036  -0.0055  -0.0020   0.00   38.9
2173 204683.000  -2197190.3577  -4678268.4796   3725900.0879   1   9   0.0047   0.0071   0.0066   0.0042  -0.0057  -0.0028   0.00   38.9
2173 204684.000  -2197190.3556  -4678268.4830   3725900.0891   1   9   0.0047   0.0073   0.0069   0.0040  -0.0055  -0.0026   0.00   39.0
2173 204685.000  -2197190.3559  -4678268.4808   3725900.0867   1   9   0.0046   0.0074   0.0069   0.0039  -0.0056  -0.0025   0.00   39.1
2173 204686.000  -2197190.3586  -4678268.4832   3725900.0877   1   9   0.0045   0.0075   0.0069   0.0037  -0.0056  -0.0028   0.00   39.0
2173 204687.000  -2197190.3540  -4678268.4802   3725900.0862   1   9   0.0047   0.0073   0.0070   0.0039  -0.0056  -0.0027   0.00   39.0
2173 204688.000  -2197190.3561  -4678268.4806   3725900.0861   1   9   0.0046   0.0073   0.0071   0.0041  -0.0055  -0.0026   0.00   39.0
2173 204689.000  -2197190.3572  -4678268.4817   3725900.0861   1   9   0.0044   0.0076   0.0069   0.0037  -0.0055  -0.0026   0.00   39.0
2173 204690.000  -2197190.3582  -4678268.4822   3725900.0894   1   9   0.0049   0.0076   0.0070   0.0037  -0.0057  -0.0017   0.00   39.1
2173 204691.000  -2197190.3565  -4678268.4815   3725900.0893   1   9   0.0047   0.0074   0.0069   0.0039  -0.0056  -0.0025   0.00   39.0
2173 204692.000  -2197190.3585  -4678268.4823   3725900.0883   1   9   0.0046   0.0074   0.0069   0.0037  -0.0056  -0.0027   0.00   38.9
2173 204693.000  -2197190.3578  -4678268.4813   3725900.0877   1   9   0.0045   0.0073   0.0068   0.0039  -0.0055  -0.0029   0.00   38.9
2173 204694.000  -2197190.3577  -4678268.4843   3725900.0885   1   9   0.0048   0.0074   0.0071   0.0040  -0.0054  -0.0027   0.00   38.8
2173 204695.000  -2197190.3587  -4678268.4789   3725900.0882   1   9   0.0047   0.0075   0.0070   0.0039  -0.0053  -0.0021   0.00   38.8
2173 204696.000  -2197190.3574  -4678268.4799   3725900.0879   1   9   0.0045   0.0071   0.0069   0.0043  -0.0055  -0.0027   0.00   38.8
2173 204697.000  -2197190.3586  -4678268.4808   3725900.0878   1   9   0.0048   0.0071   0.0069   0.0045  -0.0055  -0.0030   0.00   38.8
2173 204698.000  -2197190.3575  -4678268.4817   3725900.0897   1   9   0.0050   0.0076   0.0068   0.0035  -0.0055  -0.0029   0.00   38.7
2173 204699.000  -2197190.3603  -4678268.4836   3725900.0881   1   9   0.0045   0.0072   0.0069   0.0042  -0.0055  -0.0032   0.00   38.7
2173 204700.000  -2197190.3594  -4678268.4837   3725900.0910   1   9   0.0045   0.0072   0.0070   0.0045  -0.0054  -0.0030   0.00   38.6
2173 204701.000  -2197190.3560  -4678268.4795   3725900.0860   1   9   0.0048   0.0074   0.0067   0.0039  -0.0056  -0.0031   0.00   38.6
2173 204702.000  -2197190.3577  -4678268.4817   3725900.0893   1   9   0.0045   0.0076   0.0069   0.0036  -0.0055  -0.0025   0.00   38.6
2173 204703.000  -2197190.3581  -4678268.4819   3725900.0878   1   9   0.0048   0.0071   0.0070   0.0043  -0.0054  -0.0027   0.00   38.5
2173 204704.000  -2197190.3578  -4678268.4805   3725900.0878   1   9   0.0048   0.0072   0.0070   0.0040  -0.0056  -0.0028   0.00   38.5
2173 204705.000  -2197190.3592  -4678268.4822   3725900.0891   1   9   0.0044   0.0074   0.0069   0.0041  -0.0055  -0.0030   0.00   38.5
2173 204706.000  -2197190.3600  -4678268.4809   3725900.0890   1   9   0.0046   0.0075   0.0068   0.0038  -0.0055  -0.0027   0.00   38.5
2173 204707.000  -2197190.3567  -4678268.4799   3725900.0896   1   9   0.0047   0.0074   0.0070   0.0039  -0.0055  -0.0024   0.00   38.5
2173 204708.000  -2197190.3585  -4678268.4815   3725900.0888   1   9   0.0047   0.0075   0.0067   0.0040  -0.0055  -0.0027   0.00   38.5
2173 204709.000  -2197190.3590  -4678268.4812   3725900.0888   1   9   0.0050   0.0074   0.0068   0.0039  -0.0055  -0.0028   0.00   38.4
2173 204710.000  -2197190.3594  -4678268.4812   3725900.0912   1   9   0.0048   0.0076   0.0069   0.0036  -0.0054  -0.0019   0.00   38.4
2173 204711.000  -2197190.3589  -4678268.4807   3725900.0888   1   9   0.0049   0.0074   0.0070   0.0041  -0.0055  -0.0028   0.00   38.4
2173 204712.000  -2197190.3571  -4678268.4827   3725900.0923   1   9   0.0047   0.0074   0.0069   0.0037  -0.0054  -0.0032   0.00   38.4
2173 204713.000  -2197190.3579  -4678268.4795   3725900.0868   1   9   0.0049   0.0075   0.0068   0.0038  -0.0054  -0.0026   0.00   38.3
2173 204714.000  -2197190.3605  -4678268.4870   3725900.0899   1   9   0.0045   0.0073   0.0070   0.0044  -0.0055  -0.0028   0.00   38.3
2173 204715.000  -2197190.3602  -4678268.4829   3725900.0879   1   9   0.0045   0.0073   0.0069   0.0042  -0.0054  -0.0028   0.00   38.2
2173 204716.000  -2197190.3582  -4678268.4849   3725900.0915   1   9   0.0045   0.0074   0.0071   0.0040  -0.0054  -0.0028   0.00   38.2
2173 204717.000  -2197190.3582  -4678268.4834   3725900.0910   1   9   0.0045   0.0074   0.0071   0.0042  -0.0055  -0.0030   0.00   38.2
2173 204718.000  -2197190.3582  -4678268.4843   3725900.0901   1   9   0.0046   0.0073   0.0068   0.0043  -0.0055  -0.0033   0.00   38.2
2173 204719.000  -2197190.3583  -4678268.4819   3725900.0906   1   9   0.0048   0.0076   0.0069   0.0037  -0.0054  -0.0027   0.00   38.2
2173 204720.000  -2197190.3591  -4678268.4823   3725900.0872   1   9   0.0045   0.0072   0.0070   0.0043  -0.0056  -0.0027   0.00   38.2
2173 204721.000  -2197190.3604  -4678268.4845   3725900.0903   1   9   0.0043   0.0073   0.0069   0.0043  -0.0055  -0.0025   0.00   38.1
2173 204722.000  -2197190.3591  -4678268.4842   3725900.0905   1   9   0.0048   0.0076   0.0069   0.0037  -0.0055  -0.0027   0.00   38.1
2173 204723.000  -2197190.3609  -4678268.4851   3725900.0915   1   9   0.0051   0.0077   0.0070   0.0035  -0.0054  -0.0026   0.00   38.1
2173 204724.000  -2197190.3579  -4678268.4832   3725900.0913   1   9   0.0048   0.0075   0.0070   0.0041  -0.0055  -0.0025   0.00   38.1
2173 204725.000  -2197190.3589  -4678268.4842   3725900.0910   1   9   0.0047   0.0073   0.0070   0.0041  -0.0055  -0.0034   0.00   38.0
2173 204726.000  -2197190.3592  -4678268.4810   3725900.0869   1   9   0.0046   0.0074   0.0068   0.0041  -0.0054  -0.0028   0.00   38.0
2173 204727.000  -2197190.3589  -4678268.4831   3725900.0893   1   9   0.0047   0.0072   0.0068   0.0041  -0.0056  -0.0030   0.00   37.9
2173 204728.000  -2197190.3594  -4678268.4845   3725900.0914   1   9   0.0047   0.0074   0.0070   0.0042  -0.0054  -0.0028   0.00   37.9
2173 204729.000  -2197190.3578  -4678268.4834   3725900.0890   1   9   0.0044   0.0073   0.0069   0.0040  -0.0056  -0.0028   0.00   37.9
2173 204730.000  -2197190.3606  -4678268.4836   3725900.0904   1   9   0.0046   0.0072   0.0069   0.0044  -0.0056  -0.0027   0.00   37.8
2173 204731.000  -2197190.3596  -4678268.4843   3725900.0919   1   9   0.0049   0.0075   0.0069   0.0039  -0.0055  -0.0028   0.00   37.8
2173 204732.000  -2197190.3600  -4678268.4838   3725900.0876   1   9   0.0046   0.0073   0.0068   0.0041  -0.0055  -0.0027   0.00   37.7
2173 204733.000  -2197190.3592  -4678268.4825   3725900.0900   1   9   0.0042   0.0070   0.0069   0.0044  -0.0056  -0.0030   0.00   37.7
2173 204734.000  -2197190.3604  -4678268.4835   3725900.0877   1   9   0.0046   0.0076   0.0067   0.0039  -0.0054  -0.0029   0.00   37.6
2173 204735.000  -2197190.3588  -4678268.4821   3725900.0904   1   9   0.0044   0.0073   0.0069   0.0042  -0.0056  -0.0027   0.00   37.6
2173 204736.000  -2197190.3606  -4678268.4851   3725900.0910   1   9   0.0048   0.0073   0.0070   0.0042  -0.0054  -0.0028   0.00   37.6
2173 204737.000  -2197190.3610  -4678268.4849   3725900.0908   1   9   0.0046   0.0074   0.0069   0.0042  -0.0055  -0.0028   0.00   37.6
2173 204738.000  -2197190.3620  -4678268.4844   3725900.0895   1   9   0.0047   0.0075   0.0068   0.0039  -0.0056  -0.0030   0.00   37.5
2173 204739.000  -2197190.3588  -4678268.4834   3725900.0888   1   9   0.0047   0.0074   0.0070   0.0039  -0.0055  -0.0026   0.00   37.4
2173 204740.000  -2197190.3586  -4678268.4838   3725900.0888   1   9   0.0043   0.0073   0.0069   0.0041  -0.0055  -0.0031   0.00   37.3
2173 204741.000  -2197190.3585  -4678268.4831   3725900.0892   1   9   0.0048   0.0076   0.0069   0.0037  -0.0055  -0.0022   0.00   37.2
2173 204742.000  -2197190.3603  -4678268.4857   3725900.0902   1   9   0.0046   0.0073   0.0068   0.0040  -0.0057  -0.0031   0.00   37.0
2173 204743.000  -2197190.3597  -4678268.4837   3725900.0887   1   9   0.0049   0.0079   0.0067   0.0034  -0.0053  -0.0025   0.00   36.9
2173 204744.000  -2197190.3601  -4678268.4839   3725900.0888   1   9   0.0048   0.0074   0.0069   0.0041  -0.0056  -0.0025   0.00   36.8
2173 204745.000  -2197190.3611  -4678268.4830   3725900.0897   1   9   0.0043   0.0072   0.0069   0.0041  -0.0056  -0.0024   0.00   36.8
2173 204746.000  -2197190.3598  -4678268.4826   3725900.0886   1   9   0.0047   0.0075   0.0069   0.0037  -0.0055  -0.0032   0.00   36.7
2173 204747.000  -2197190.3598  -4678268.4841   3725900.0889   1   9   0.0046   0.0075   0.0068   0.0037  -0.0056  -0.0028   0.00   36.7
2173 204748.000  -2197190.3617  -4678268.4855   3725900.0904   1   9   0.0044   0.0072   0.0069   0.0043  -0.0054  -0.0034   0.00   36.7
2173 204749.000  -2197190.3595  -4678268.4823   3725900.0890   1   9   0.0048   0.0077   0.0069   0.0033  -0.0055  -0.0031   0.00   36.7
2173 204750.000  -2197190.3603  -4678268.4813   3725900.0896   1   9   0.0045   0.0077   0.0068   0.0035  -0.0054  -0.0027   0.00   36.7
2173 204751.000  -2197190.3610  -4678268.4856   3725900.0902   1   9   0.0048   0.0074   0.0070   0.0038  -0.0056  -0.0025   0.00   36.7
2173 204752.000  -2197190.3590  -4678268.4836   3725900.0875   1   9   0.0047   0.0074   0.0071   0.0040  -0.0057  -0.0026   0.00   36.6
2173 204753.000  -2197190.3584  -4678268.4829   3725900.0882   1   9   0.0051   0.0076   0.0070   0.0038  -0.0054  -0.0025   0.00   36.6
2173 204754.000  -2197190.3586  -4678268.4801   3725900.0898   1   9   0.0048   0.0075   0.0069   0.0036  -0.0055  -0.0028   0.00   36.6
2173 204755.000  -2197190.3590  -4678268.4849   3725900.0916   1   9   0.0046   0.0076   0.0069   0.0037  -0.0054  -0.0030   0.00   36.6
2173 204756.000  -2197190.3599  -4678268.4838   3725900.0923   1   9   0.0047   0.0073   0.0069   0.0042  -0.0054  -0.0031   0.00   36.6
2173 204757.000  -2197190.3597  -4678268.4835   3725900.0889   1   9   0.0047   0.0075   0.0071   0.0038  -0.0055  -0.0021   0.00   36.6
2173 204758.000  -2197190.3606  -4678268.4844   3725900.0893   1   9   0.0046   0.0075   0.0070   0.0036  -0.0056  -0.0021   0.00   36.6
2173 204759.000  -2197190.3604  -4678268.4833   3725900.0897   1   9   0.0043   0.0075   0.0069   0.0036  -0.0055  -0.0028   0.00   36.6
2173 204760.000  -2197190.3616  -4678268.4850   3725900.0900   1   9   0.0048   0.0076   0.0070   0.0037  -0.0053  -0.0030   0.00   36.6
2173 204761.000  -2197190.3605  -4678268.4826   3725900.0899   1   9   0.0046   0.0076   0.0070   0.0035  -0.0054  -0.0027   0.00   36.6
2173 204762.000  -2197190.3590  -4678268.4811   3725900.0863   1   9   0.0051   0.0076   0.0069   0.0036  -0.0056  -0.0021   0.00   36.6
2173 204763.000  -2197190.3613  -4678268.4845   3725900.0897   1   9   0.0045   0.0073   0.0071   0.0045  -0.0054  -0.0030   0.00   36.7
2173 204764.000  -2197190.3601  -4678268.4833   3725900.0881   1   9   0.0044   0.0074   0.0069   0.0041  -0.0055  -0.0028   0.00   36.7
2173 204765.000  -2197190.3629  -4678268.4853   3725900.0895   1   9   0.0047   0.0074   0.0067   0.0037  -0.0054  -0.0028   0.00   36.8
2173 204766.000  -2197190.3626  -4678268.4849   3725900.0875   1   9   0.0047   0.0072   0.0070   0.0041  -0.0056  -0.0030   0.00   36.8
2173 204767.000  -2197190.3605  -4678268.4848   3725900.0904   1   9   0.0043   0.0074   0.0069   0.0040  -0.0056  -0.0029   0.00   37.0
2173 204768.000  -2197190.3592  -4678268.4801   3725900.0872   1   9   0.0049   0.0073   0.0070   0.0039  -0.0056  -0.0026   0.00   37.1
2173 204769.000  -2197190.3599  -4678268.4825   3725900.0871   1   9   0.0046   0.0074   0.0070   0.0038  -0.0055  -0.0026   0.00   37.2
2173 204770.000  -2197190.3624  -4678268.4863   3725900.0892   1   9   0.0047   0.0072   0.0069   0.0043  -0.0056  -0.0029   0.00   37.3
2173 204771.000  -2197190.3617  -4678268.4835   3725900.0873   1   9   0.0045   0.0073   0.0067   0.0041  -0.0054  -0.0032   0.00   37.3
2173 204772.000  -2197190.3604  -4678268.4832   3725900.0875   1   9   0.0047   0.0073   0.0070   0.0042  -0.0056  -0.0026   0.00   37.4
2173 204773.000  -2197190.3594  -4678268.4843   3725900.0886   1   9   0.0044   0.0076   0.0069   0.0038  -0.0055  -0.0025   0.00   37.5
2173 204774.000  -2197190.3598  -4678268.4840   3725900.0878   1   9   0.0049   0.0075   0.0072   0.0038  -0.0054  -0.0027   0.00   37.6
2173 204775.000  -2197190.3625  -4678268.4868   3725900.0915   1   9   0.0048   0.0076   0.0070   0.0040  -0.0055  -0.0027   0.00   37.7
2173 204776.000  -2197190.3612  -4678268.4840   3725900.0878   1   9   0.0044   0.0074   0.0070   0.0040  -0.0055  -0.0019   0.00   37.8
2173 204777.000  -2197190.3626  -4678268.4851   3725900.0893   1   9   0.0047   0.0076   0.0070   0.0038  -0.0055  -0.0029   0.00   37.9
2173 204778.000  -2197190.3619  -4678268.4819   3725900.0878   1   9   0.0043   0.0074   0.0069   0.0039  -0.0055  -0.0024   0.00   38.0
2173 204779.000  -2197190.3602  -4678268.4850   3725900.0887   1   9   0.0044   0.0072   0.0070   0.0042  -0.0055  -0.0031   0.00   38.1
2173 204780.000  -2197190.3605  -4678268.4835   3725900.0897   1   9   0.0045   0.0076   0.0070   0.0036  -0.0055  -0.0028   0.00   38.2
2173 204781.000  -2197190.3626  -4678268.4872   3725900.0907   1   9   0.0048   0.0075   0.0067   0.0039  -0.0054  -0.0031   0.00   38.3
2173 204782.000  -2197190.3600  -4678268.4821   3725900.0866   1   9   0.0048   0.0075   0.0070   0.0039  -0.0055  -0.0030   0.00   38.4
2173 204783.000  -2197190.3616  -4678268.4840   3725900.0890   1   9   0.0046   0.0074   0.0067   0.0041  -0.0055  -0.0029   0.00   38.5
2173 204784.000  -2197190.3622  -4678268.4839   3725900.0866   1   9   0.0045   0.0077   0.0071   0.0036  -0.0054  -0.0026   0.00   38.6
2173 204785.000  -2197190.3601  -4678268.4834   3725900.0880   1   9   0.0046   0.0074   0.0069   0.0040  -0.0054  -0.0032   0.00   38.7
2173 204786.000  -2197190.3590  -4678268.4815   3725900.0880   1   9   0.0047   0.0073   0.0071   0.0042  -0.0053  -0.0026   0.00   38.8
2173 204787.000  -2197190.3623  -4678268.4847   3725900.0882   1   9   0.0049   0.0072   0.0070   0.0042  -0.0057  -0.0029   0.00   38.8
2173 204788.000  -2197190.3612  -4678268.4836   3725900.0863   1   9   0.0048   0.0076   0.0068   0.0038  -0.0054  -0.0030   0.00   38.9
2173 204789.000  -2197190.3603  -4678268.4847   3725900.0874   1   9   0.0050   0.0076   0.0069   0.0038  -0.0054  -0.0025   0.00   39.0
2173 204790.000  -2197190.3573  -4678268.4795   3725900.0886   1   9   0.0047   0.0076   0.0069   0.0036  -0.0055  -0.0024   0.00   39.2
2173 204791.000  -2197190.3611  -4678268.4835   3725900.0870   1   9   0.0047   0.0077   0.0069   0.0033  -0.0054  -0.0025   0.00   39.3
2173 204792.000  -2197190.3617  -4678268.4813   3725900.0851   1   9   0.0044   0.0075   0.0070   0.0038  -0.0054  -0.0026   0.00   39.4
2173 204793.000  -2197190.3599  -4678268.4823   3725900.0846   1   9   0.0047   0.0075   0.0069   0.0041  -0.0055  -0.0031   0.00   39.5
2173 204794.000  -2197190.3582  -4678268.4772   3725900.0843   1   9   0.0050   0.0078   0.0068   0.0034  -0.0052  -0.0025   0.00   39.6
2173 204795.000  -2197190.3586  -4678268.4799   3725900.0868   1   9   0.0042   0.0074   0.0068   0.0041  -0.0055  -0.0028   0.00   39.7
2173 204796.000  -2197190.3602  -4678268.4815   3725900.0858   1   9   0.0046   0.0073   0.0069   0.0039  -0.0055  -0.0026   0.00   39.8
2173 204797.000  -2197190.3579  -4678268.4813   3725900.0878   1   9   0.0043   0.0072   0.0071   0.0044  -0.0055  -0.0029   0.00   39.9
2173 204798.000  -2197190.3598  -4678268.4823   3725900.0876   1   9   0.0048   0.0075   0.0070   0.0036  -0.0056  -0.0027   0.00   40.0
2173 204799.000  -2197190.3594  -4678268.4809   3725900.0876   1   9   0.0045   0.0073   0.0070   0.0041  -0.0055  -0.0029   0.00   40.2
2173 204800.000  -2197190.3583  -4678268.4786   3725900.0875   1   9   0.0046   0.0077   0.0070   0.0036  -0.0055  -0.0025   0.00   40.3
2173 204801.000  -2197190.3600  -4678268.4825   3725900.0889   1   9   0.0047   0.0076   0.0069   0.0039  -0.0053  -0.0023   0.00   40.4
2173 204802.000  -2197190.3611  -4678268.4841   3725900.0876   1   9   0.0045   0.0074   0.0070   0.0039  -0.0055  -0.0028   0.00   40.5
2173 204803.000  -2197190.3588  -4678268.4796   3725900.0887   1   9   0.0046   0.0076   0.0068   0.0035  -0.0055  -0.0029   0.00   40.6
2173 204804.000  -2197190.3581  -4678268.4791   3725900.0876   1   9   0.0046   0.0073   0.0069   0.0042  -0.0054  -0.0030   0.00   40.7
2173 204805.000  -2197190.3571  -4678268.4779   3725900.0862   1   9   0.0050   0.0073   0.0070   0.0038  -0.0056  -0.0029   0.00   40.8
2173 204806.000  -2197190.3594  -4678268.4824   3725900.0901   1   9   0.0044   0.0074   0.0069   0.0039  -0.0056  -0.0024   0.00   40.9
2173 204807.000  -2197190.3615  -4678268.4828   3725900.0868   1   9   0.0045   0.0074   0.0070   0.0038  -0.0055  -0.0028   0.00   40.9
2173 204808.000  -2197190.3602  -4678268.4817   3725900.0871   1   9   0.0049   0.0072   0.0070   0.0040  -0.0057  -0.0028   0.00   41.0
2173 204809.000  -2197190.3588  -4678268.4793   3725900.0887   1   9   0.0044   0.0073   0.0068   0.0041  -0.0055  -0.0032   0.00   41.1
2173 204810.000  -2197190.3586  -4678268.4804   3725900.0883   1   9   0.0045   0.0072   0.0069   0.0043  -0.0054  -0.0031   0.00   41.3
2173 204811.000  -2197190.3585  -4678268.4799   3725900.0878   1   9   0.0045   0.0075   0.0069   0.0038  -0.0055  -0.0025   0.00   41.4
2173 204812.000  -2197190.3574  -4678268.4798   3725900.0887   1   9   0.0046   0.0075   0.0070   0.0039  -0.0055  -0.0026   0.00   41.5
2173 204813.000  -2197190.3574  -4678268.4804   3725900.0897   1   9   0.0045   0.0074   0.0069   0.0040  -0.0056  -0.0032   0.00   41.7
2173 204814.000  -2197190.3596  -4678268.4811   3725900.0897   1   9   0.0047   0.0076   0.0070   0.0035  -0.0056  -0.0023   0.00   41.8
2173 204815.000  -2197190.3578  -4678268.4798   3725900.0891   1   9   0.0048   0.0074   0.0070   0.0035  -0.0055  -0.0025   0.00   41.9
2173 204816.000  -2197190.3573  -4678268.4835   3725900.0913   1   9   0.0048   0.0074   0.0069   0.0041  -0.0054  -0.0030   0.00   42.0
2173 204817.000  -2197190.3592  -4678268.4812   3725900.0905   1   9   0.0048   0.0073   0.0070   0.0042  -0.0057  -0.0032   0.00   42.1
2173 204818.000  -2197190.3570  -4678268.4808   3725900.0908   1   9   0.0047   0.0075   0.0071   0.0038  -0.0055  -0.0029   0.00   42.3
2173 204819.000  -2197190.3555  -4678268.4818   3725900.0919   1   9   0.0044   0.0074   0.0069   0.0038  -0.0055  -0.0030   0.00   42.5
2173 204820.000  -2197190.3600  -4678268.4829   3725900.0913   1   9   0.0047   0.0075   0.0069   0.0038  -0.0053  -0.0025   0.00   42.6
2173 204821.000  -2197190.3577  -4678268.4827   3725900.0929   1   9   0.0044   0.0073   0.0069   0.0043  -0.0055  -0.0031   0.00   42.7
2173 204822.000  -2197190.3569  -4678268.4820   3725900.0902   1   9   0.0045   0.0074   0.0070   0.0038  -0.0054  -0.0031   0.00   42.9
2173 204823.000  -2197190.3567  -4678268.4809   3725900.0916   1   9   0.0047   0.0072   0.0068   0.0043  -0.0056  -0.0030   0.00   43.1
2173 204824.000  -2197190.3584  -4678268.4810   3725900.0906   1   9   0.0046   0.0076   0.0069   0.0038  -0.0053  -0.0026   0.00   43.3
2173 204825.000  -2197190.3583  -4678268.4826   3725900.0913   1   9   0.0046   0.0074   0.0070   0.0038  -0.0056  -0.0023   0.00   43.5
2173 204826.000  -2197190.3617  -4678268.4862   3725900.0956   1   9   0.0048   0.0072   0.0069   0.0043  -0.0057  -0.0031   0.00   43.6
2173 204827.000  -2197190.3591  -4678268.4867   3725900.0960   1   9   0.0049   0.0076   0.0070   0.0035  -0.0057  -0.0023   0.00   43.8
2173 204828.000  -2197190.3582  -4678268.4841   3725900.0928   1   9   0.0044   0.0078   0.0070   0.0032  -0.0055  -0.0020   0.00   43.9
2173 204829.000  -2197190.3573  -4678268.4825   3725900.0945   1   9   0.0046   0.0076   0.0069   0.0034  -0.0055  -0.0024   0.00   44.2
2173 204830.000  -2197190.3582  -4678268.4800   3725900.0959   1   9   0.0045   0.0074   0.0068   0.0042  -0.0055  -0.0028   0.00   44.4
2173 204831.000  -2197190.3561  -4678268.4810   3725900.0916   1   9   0.0042   0.0073   0.0071   0.0041  -0.0055  -0.0028   0.00   44.6
2173 204832.000  -2197190.3569  -4678268.4800   3725900.0903   1   9   0.0048   0.0075   0.0068   0.0038  -0.0054  -0.0030   0.00   44.9
2173 204833.000  -2197190.3604  -4678268.4826   3725900.0934   1   9   0.0043   0.0075   0.0068   0.0033  -0.0055  -0.0024   0.00   45.1
2173 204834.000  -2197190.3580  -4678268.4817   3725900.0925   1   9   0.0045   0.0074   0.0070   0.0038  -0.0054  -0.0030   0.00   45.3
2173 204835.000  -2197190.3589  -4678268.4838   3725900.0942   1   9   0.0048   0.0073   0.0068   0.0042  -0.0054  -0.0030   0.00   45.6
2173 204836.000  -2197190.3618  -4678268.4841   3725900.0935   1   9   0.0041   0.0075   0.0069   0.0039  -0.0054  -0.0029   0.00   45.8
2173 204837.000  -2197190.3574  -4678268.4814   3725900.0930   1   9   0.0049   0.0077   0.0069   0.0033  -0.0055  -0.0023   0.00   46.0
2173 204838.000  -2197190.3584  -4678268.4798   3725900.0929   1   9   0.0047   0.0074   0.0069   0.0037  -0.0056  -0.0026   0.00   46.2
2173 204839.000  -2197190.3619  -4678268.4846   3725900.0939   1   9   0.0048   0.0077   0.0071   0.0036  -0.0053  -0.0027   0.00   46.5
2173 204840.000  -2197190.3607  -4678268.4822   3725900.0909   1   9   0.0048   0.0076   0.0069   0.0036  -0.0055  -0.0030   0.00   46.7
2173 204841.000  -2197190.3617  -4678268.4820   3725900.0920   1   9   0.0048   0.0075   0.0070   0.0039  -0.0055  -0.0032   0.00   47.0
2173 204842.000  -2197190.3603  -4678268.4827   3725900.0960   1   9   0.0048   0.0076   0.0069   0.0038  -0.0055  -0.0026   0.00   47.3
2173 204843.000  -2197190.3608  -4678268.4825   3725900.0917   1   9   0.0048   0.0078   0.0070   0.0032  -0.0055  -0.0026   0.00   47.6
2173 204844.000  -2197190.3596  -4678268.4813   3725900.0919   1   9   0.0047   0.0076   0.0070   0.0036  -0.0054  -0.0030   0.00   48.0
2173 204845.000  -2197190.3590  -4678268.4804   3725900.0921   1   9   0.0049   0.0075   0.0068   0.0037  -0.0055  -0.0028   0.00   48.3
2173 204846.000  -2197190.3609  -4678268.4809   3725900.0899   1   9   0.0047   0.0077   0.0070   0.0035  -0.0053  -0.0023   0.00   48.6
2173 204847.000  -2197190.3602  -4678268.4815   3725900.0928   1   9   0.0048   0.0076   0.0069   0.0039  -0.0053  -0.0027   0.00   48.9
2173 204848.000  -2197190.3617  -4678268.4838   3725900.0926   1   9   0.0046   0.0073   0.0069   0.0041  -0.0056  -0.0026   0.00   49.3
2173 204849.000  -2197190.3597  -4678268.4804   3725900.0909   1   9   0.0042   0.0072   0.0071   0.0043  -0.0055  -0.0028   0.00   49.6
2173 204850.000  -2197190.3606  -4678268.4807   3725900.0937   1   9   0.0047   0.0073   0.0070   0.0041  -0.0054  -0.0026   0.00   50.0
2173 204851.000  -2197190.3597  -4678268.4783   3725900.0927   1   9   0.0047   0.0073   0.0071   0.0042  -0.0056  -0.0030   0.00   50.4
2173 204852.000  -2197190.3624  -4678268.4799   3725900.0886   1   9   0.0044   0.0074   0.0069   0.0039  -0.0053  -0.0024   0.00   50.7
2173 204853.000  -2197190.3618  -4678268.4802   3725900.0898   1   9   0.0044   0.0074   0.0071   0.0040  -0.0055  -0.0026   0.00   51.0
2173 204854.000  -2197190.3590  -4678268.4777   3725900.0908   1   9   0.0042   0.0073   0.0070   0.0042  -0.0054  -0.0028   0.00   51.3
2173 204855.000  -2197190.3611  -4678268.4779   3725900.0898   1   9   0.0043   0.0071   0.0069   0.0041  -0.0058  -0.0029   0.00   51.6
2173 204856.000  -2197190.3600  -4678268.4791   3725900.0910   1   9   0.0049   0.0076   0.0068   0.0034  -0.0055  -0.0026   0.00   51.9
2173 204857.000  -2197190.3570  -4678268.4758   3725900.0879   1   9   0.0047   0.0078   0.0069   0.0033  -0.0054  -0.0029   0.00   52.2
2173 204858.000  -2197190.3615  -4678268.4789   3725900.0901   1   9   0.0044   0.0072   0.0071   0.0042  -0.0055  -0.0027   0.00   52.5
2173 204859.000  -2197190.3602  -4678268.4783   3725900.0888   1   9   0.0049   0.0075   0.0070   0.0038  -0.0055  -0.0026   0.00   52.9
2173 204860.000  -2197190.3603  -4678268.4787   3725900.0909   1   9   0.0041   0.0073   0.0069   0.0043  -0.0055  -0.0025   0.00   53.2
2173 204861.000  -2197190.3592  -4678268.4757   3725900.0872   1   9   0.0045   0.0078   0.0069   0.0034  -0.0055  -0.0026   0.00   53.5
2173 204862.000  -2197190.3563  -4678268.4760   3725900.0895   1   9   0.0046   0.0074   0.0071   0.0038  -0.0056  -0.0026   0.00   53.8
2173 204863.000  -2197190.3580  -4678268.4752   3725900.0884   1   9   0.0044   0.0074   0.0068   0.0039  -0.0055  -0.0028   0.00   54.1
2173 204864.000  -2197190.3586  -4678268.4777   3725900.0899   1   9   0.0045   0.0072   0.0070   0.0044  -0.0056  -0.0028   0.00   54.4
2173 204865.000  -2197190.3584  -4678268.4779   3725900.0872   1   9   0.0046   0.0072   0.0070   0.0045  -0.0055  -0.0031   0.00   54.6
2173 204866.000  -2197190.3565  -4678268.4738   3725900.0893   1   9   0.0046   0.0075   0.0071   0.0039  -0.0055  -0.0029   0.00   55.0
2173 204867.000  -2197190.3597  -4678268.4767   3725900.0912   1   9   0.0049   0.0077   0.0069   0.0033  -0.0054  -0.0025   0.00   55.3
2173 204868.000  -2197190.3582  -4678268.4743   3725900.0862   1   9   0.0045   0.0072   0.0070   0.0042  -0.0055  -0.0033   0.00   55.5
2173 204869.000  -2197190.3580  -4678268.4753   3725900.0875   1   9   0.0045   0.0076   0.0069   0.0037  -0.0054  -0.0023   0.00   55.7
2173 204870.000  -2197190.3576  -4678268.4767   3725900.0875   1   9   0.0048   0.0075   0.0070   0.0039  -0.0054  -0.0028   0.00   55.9
2173 204871.000  -2197190.3574  -4678268.4747   3725900.0829   1   9   0.0045   0.0073   0.0069   0.0042  -0.0056  -0.0030   0.00   56.1
2173 204872.000  -2197190.3580  -4678268.4745   3725900.0870   1   9   0.0043   0.0075   0.0071   0.0037  -0.0054  -0.0029   0.00   56.3
2173 204873.000  -2197190.3556  -4678268.4711   3725900.0847   1   9   0.0047   0.0074   0.0070   0.0039  -0.0054  -0.0029   0.00   56.5
2173 204874.000  -2197190.3559  -4678268.4716   3725900.0861   1   9   0.0045   0.0075   0.0071   0.0037  -0.0054  -0.0025   0.00   56.7
2173 204875.000  -2197190.3574  -4678268.4728   3725900.0829   1   9   0.0046   0.0073   0.0070   0.0040  -0.0057  -0.0023   0.00   56.8
2173 204876.000  -2197190.3570  -4678268.4695   3725900.0820   1   9   0.0045   0.0075   0.0069   0.0037  -0.0055  -0.0028   0.00   56.9
2173 204877.000  -2197190.3573  -4678268.4726   3725900.0826   1   9   0.0043   0.0072   0.0071   0.0044  -0.0055  -0.0032   0.00   57.0
2173 204878.000  -2197190.3544  -4678268.4692   3725900.0830   1   9   0.0042   0.0072   0.0070   0.0041  -0.0054  -0.0031   0.00   57.3
2173 204879.000  -2197190.3588  -4678268.4730   3725900.0850   1   9   0.0045   0.0072   0.0069   0.0043  -0.0054  -0.0031   0.00   57.5
2173 204880.000  -2197190.3578  -4678268.4704   3725900.0836   1   9   0.0047   0.0075   0.0069   0.0037  -0.0056  -0.0031   0.00   57.6
2173 204881.000  -2197190.3562  -4678268.4711   3725900.0839   1   9   0.0047   0.0072   0.0071   0.0041  -0.0056  -0.0032   0.00   57.8
2173 204882.000  -2197190.3554  -4678268.4712   3725900.0826   1   9   0.0048   0.0074   0.0071   0.0040  -0.0056  -0.0028   0.00   57.8
2173 204883.000  -2197190.3532  -4678268.4681   3725900.0846   1   9   0.0046   0.0075   0.0069   0.0038  -0.0055  -0.0027   0.00   58.1
2173 204884.000  -2197190.3544  -4678268.4719   3725900.0859   1   9   0.0046   0.0076   0.0068   0.0040  -0.0054  -0.0030   0.00   58.1
2173 204885.000  -2197190.3550  -4678268.4692   3725900.0823   1   9   0.0048   0.0076   0.0069   0.0038  -0.0055  -0.0028   0.00   58.3
2173 204886.000  -2197190.3559  -4678268.4709   3725900.0822   1   9   0.0046   0.0076   0.0070   0.0039  -0.0054  -0.0027   0.00   58.3
2173 204887.000  -2197190.3552  -4678268.4705   3725900.0837   1   9   0.0045   0.0075   0.0068   0.0036  -0.0055  -0.0025   0.00   58.4
2173 204888.000  -2197190.3567  -4678268.4738   3725900.0858   1   9   0.0043   0.0073   0.0069   0.0040  -0.0056  -0.0034   0.00   58.5
2173 204889.000  -2197190.3557  -4678268.4706   3725900.0810   1   9   0.0047   0.0073   0.0070   0.0041  -0.0056  -0.0029   0.00   58.6
2173 204890.000  -2197190.3548  -4678268.4673   3725900.0810   1   9   0.0046   0.0072   0.0070   0.0041  -0.0056  -0.0025   0.00   58.7
2173 204891.000  -2197190.3548  -4678268.4703   3725900.0848   1   9   0.0044   0.0074   0.0070   0.0039  -0.0056  -0.0027   0.00   58.8
2173 204892.000  -2197190.3559  -4678268.4674   3725900.0829   1   9   0.0049   0.0074   0.0072   0.0039  -0.0054  -0.0025   0.00   58.9
2173 204893.000  -2197190.3536  -4678268.4701   3725900.0823   1   9   0.0045   0.0070   0.0068   0.0046  -0.0056  -0.0030   0.00   59.0
2173 204894.000  -2197190.3567  -4678268.4683   3725900.0860   1   9   0.0047   0.0073   0.0069   0.0041  -0.0056  -0.0027   0.00   59.0
2173 204895.000  -2197190.3551  -4678268.4713   3725900.0864   1   9   0.0042   0.0075   0.0070   0.0037  -0.0054  -0.0031   0.00   59.0
2173 204896.000  -2197190.3548  -4678268.4683   3725900.0816   1   9   0.0047   0.0076   0.0067   0.0034  -0.0055  -0.0019   0.00   59.1
2173 204897.000  -2197190.3563  -4678268.4679   3725900.0828   1   9   0.0048   0.0076   0.0069   0.0035  -0.0055  -0.0029   0.00   59.2
2173 204898.000  -2197190.3569  -4678268.4741   3725900.0869   1   9   0.0046   0.0073   0.0069   0.0042  -0.0055  -0.0028   0.00   59.4
2173 204899.000  -2197190.3559  -4678268.4653   3725900.0804   1   9   0.0048   0.0077   0.0068   0.0036  -0.0055  -0.0027   0.00   59.4
2173 204900.000  -2197190.3548  -4678268.4661   3725900.0841   1   9   0.0044   0.0075   0.0071   0.0038  -0.0055  -0.0027   0.00   59.5
2173 204901.000  -2197190.3554  -4678268.4697   3725900.0854   1   9   0.0047   0.0074   0.0070   0.0041  -0.0055  -0.0031   0.00   59.6
2173 204902.000  -2197190.3554  -4678268.4688   3725900.0857   1   9   0.0045   0.0073   0.0070   0.0042  -0.0054  -0.0029   0.00   59.7
2173 204903.000  -2197190.3574  -4678268.4687   3725900.0835   1   9   0.0046   0.0070   0.0069   0.0045  -0.0057  -0.0034   0.00   59.8
2173 204904.000  -2197190.3561  -4678268.4696   3725900.0864   1   9   0.0045   0.0073   0.0069   0.0041  -0.0055  -0.0028   0.00   59.9
2173 204905.000  -2197190.3553  -4678268.4684   3725900.0840   1   9   0.0044   0.0074   0.0071   0.0040  -0.0056  -0.0029   0.00   60.1
2173 204906.000  -2197190.3552  -4678268.4736   3725900.0881   1   9   0.0048   0.0073   0.0069   0.0040  -0.0056  -0.0028   0.00   60.3
2173 204907.000  -2197190.3552  -4678268.4713   3725900.0850   1   9   0.0048   0.0075   0.0069   0.0038  -0.0056  -0.0030   0.00   60.5
2173 204908.000  -2197190.3545  -4678268.4722   3725900.0881   1   9   0.0048   0.0077   0.0070   0.0034  -0.0053  -0.0021   0.00   60.8
