% program   : rnx2rtkp ver.2.4.3 b31
% inp file  : ngs/21_09_01_08_42_12_pamm.obs
% inp file  : ngs/21_09_01_08_42_12_pamm_P1.obs
% inp file  : ngs/21_09_01_08_42_12_brdc.nav
% obs start : 2021/09/01 08:00:00.0 GPST (week2173 288000.0s)
% obs end   : 2021/09/01 08:59:59.0 GPST (week2173 291599.0s)
% ref pos   :   764706.4610  -4697806.9090   4231878.2190
%
% (x/y/z-ecef=WGS84,Q=1:fix,2:float,3:sbas,4:dgps,5:single,6:ppp,ns=# of satellites)
%  GPST              x-ecef(m)      y-ecef(m)      z-ecef(m)   Q  ns   sdx(m)   sdy(m)   sdz(m)  sdxy(m)  sdyz(m)  sdzx(m) age(s)  ratio
2173 290507.000    813988.0572  -4734634.6449   4181862.1200   2   8   0.3822   0.9644   1.1501  -0.3413  -0.9255   0.3522 -30.00    1.0
2173 290508.000    813988.0669  -4734634.6594   4181862.0086   2   8   0.2720   0.6865   0.8178  -0.2434  -0.6585   0.2511 -29.00    1.0
2173 290509.000    813988.0833  -4734634.5739   4181861.8391   2   8   0.2227   0.5621   0.6695  -0.1994  -0.5391   0.2056 -28.00    1.0
2173 290510.000    813988.1400  -4734634.6641   4181861.9344   2   8   0.1932   0.4876   0.5808  -0.1730  -0.4677   0.1783 -27.00    1.0
2173 290511.000    813988.1557  -4734634.6580   4181861.9232   2   8   0.1731   0.4367   0.5202  -0.1549  -0.4188   0.1597 -26.00    1.1
2173 290512.000    813988.1552  -4734634.6338   4181861.9293   2   8   0.1581   0.3990   0.4753  -0.1416  -0.3827   0.1459 -25.00    1.1
2173 290513.000    813988.1480  -4734634.6117   4181861.9216   2   8   0.1465   0.3696   0.4404  -0.1312  -0.3545   0.1351 -24.00    1.2
2173 290514.000    813988.1487  -4734634.5986   4181861.9076   2   8   0.1371   0.3459   0.4121  -0.1228  -0.3318   0.1264 -23.00    1.2
2173 290515.000    813988.1395  -4734634.5862   4181861.8832   2   8   0.1294   0.3262   0.3887  -0.1158  -0.3129   0.1192 -22.00    1.3
2173 290516.000    813988.1428  -4734634.5699   4181861.8750   2   8   0.1228   0.3095   0.3688  -0.1099  -0.2968   0.1131 -21.00    1.3
2173 290517.000    813988.1461  -4734634.5962   4181861.8942   2   8   0.1171   0.2951   0.3516  -0.1048  -0.2830   0.1079 -20.00    1.4
2173 290518.000    813988.1467  -4734634.6040   4181861.8838   2   8   0.1121   0.2826   0.3366  -0.1004  -0.2709   0.1033 -19.00    1.4
2173 290519.000    813988.1503  -4734634.6167   4181861.8901   2   8   0.1077   0.2714   0.3233  -0.0964  -0.2602   0.0992 -18.00    1.5
2173 290520.000    813988.1455  -4734634.6039   4181861.8822   2   8   0.1038   0.2615   0.3114  -0.0929  -0.2507   0.0956 -17.00    1.5
2173 290521.000    813988.1387  -4734634.6019   4181861.8813   2   8   0.1003   0.2526   0.3006  -0.0898  -0.2421   0.0924 -16.00    1.6
2173 290522.000    813988.1381  -4734634.6021   4181861.8976   2   8   0.0971   0.2445   0.2909  -0.0869  -0.2342   0.0894 -15.00    1.7
2173 290523.000    813988.1361  -4734634.6244   4181861.9383   2   8   0.0941   0.2370   0.2820  -0.0843  -0.2271   0.0867 -14.00    1.7
2173 290524.000    813988.1413  -4734634.6457   4181861.9852   2   8   0.0915   0.2303   0.2738  -0.0820  -0.2205   0.0843 -13.00    1.8
2173 290525.000    813988.1461  -4734634.6428   4181861.9945   2   8   0.0890   0.2240   0.2662  -0.0798  -0.2145   0.0820 -12.00    1.8
2173 290526.000    813988.1489  -4734634.6594   4181862.0093   2   8   0.0867   0.2182   0.2592  -0.0777  -0.2088   0.0799 -11.00    1.8
2173 290527.000    813988.1429  -4734634.6561   4181861.9971   2   8   0.0846   0.2128   0.2527  -0.0758  -0.2036   0.0779 -10.00    1.9
2173 290528.000    813988.1448  -4734634.6572   4181861.9896   2   8   0.0826   0.2077   0.2465  -0.0741  -0.1987   0.0760  -9.00    2.0
2173 290529.000    813988.1463  -4734634.6664   4181861.9885   2   8   0.0808   0.2030   0.2408  -0.0724  -0.1941   0.0743  -8.00    2.0
2173 290530.000    813988.1447  -4734634.6611   4181861.9771   2   8   0.0790   0.1986   0.2354  -0.0709  -0.1898   0.0727  -7.00    2.1
2173 290531.000    813988.1442  -4734634.6608   4181861.9728   2   8   0.0774   0.1944   0.2303  -0.0694  -0.1857   0.0712  -6.00    2.0
2173 290532.000    813988.1409  -4734634.6550   4181861.9739   2   8   0.0759   0.1905   0.2254  -0.0680  -0.1818   0.0697  -5.00    2.0
2173 290533.000    813988.1385  -4734634.6455   4181861.9636   2   8   0.0744   0.1867   0.2208  -0.0667  -0.1782   0.0683  -4.00    2.0
2173 290534.000    813988.1355  -4734634.6406   4181861.9476   2   8   0.0731   0.1832   0.2164  -0.0654  -0.1747   0.0670  -3.00    2.0
2173 290535.000    813988.1319  -4734634.6323   4181861.9320   2   8   0.0718   0.1798   0.2123  -0.0643  -0.1713   0.0657  -2.00    2.0
2173 290536.000    813988.1279  -4734634.6151   4181861.9149   2   8   0.0706   0.1767   0.2083  -0.0631  -0.1682   0.0645  -1.00    2.0
2173 290537.000    813988.1257  -4734634.6010   4181861.8915   2   8   0.0694   0.1736   0.2045  -0.0620  -0.1652   0.0634   0.00    2.0
2173 290538.000    813988.3114  -4734634.8121   4181862.4729   2   8   0.3822   0.9630   1.1459  -0.3422  -0.9229   0.3517   0.00    1.1
2173 290539.000    813988.2027  -4734634.7319   4181862.3362   2   8   0.3822   0.9630   1.1458  -0.3422  -0.9228   0.3517   0.00    1.1
2173 290540.000    813988.1131  -4734634.4800   4181861.9890   2   8   0.3822   0.9630   1.1457  -0.3423  -0.9228   0.3517   0.00    1.1
2173 290541.000    813988.0700  -4734634.5971   4181862.5192   2   8   0.3822   0.9630   1.1456  -0.3423  -0.9227   0.3517   0.00    1.1
2173 290542.000    813988.1221  -4734635.1064   4181862.8496   2   8   0.3822   0.9630   1.1456  -0.3424  -0.9227   0.3517   0.00    1.0
2173 290543.000    813988.2594  -4734635.7845   4181863.4158   2   8   0.3822   0.9630   1.1455  -0.3424  -0.9227   0.3517   0.00    1.1
2173 290544.000    813988.2247  -4734635.7151   4181863.5292   2   8   0.3823   0.9630   1.1454  -0.3424  -0.9226   0.3517   0.00    1.1
2173 290545.000    813988.2658  -4734635.4606   4181863.2918   2   8   0.3823   0.9630   1.1453  -0.3425  -0.9226   0.3517   0.00    1.1
2173 290546.000    813988.2849  -4734635.4637   4181863.2251   2   8   0.3823   0.9630   1.1453  -0.3425  -0.9225   0.3517   0.00    1.0
2173 290547.000    813988.1895  -4734635.1375   4181862.8555   2   8   0.3823   0.9630   1.1452  -0.3426  -0.9225   0.3517   0.00    1.0
2173 290548.000    813988.1981  -4734635.1287   4181862.9708   2   8   0.3823   0.9630   1.1451  -0.3426  -0.9225   0.3517   0.00    1.0
2173 290549.000    813988.2182  -4734635.1272   4181862.9481   2   8   0.3823   0.9630   1.1450  -0.3426  -0.9224   0.3516   0.00    1.2
2173 290550.000    813988.1654  -4734635.1215   4181862.9831   2   8   0.3824   0.9630   1.1450  -0.3427  -0.9224   0.3516   0.00    1.1
2173 290551.000    813988.1637  -4734634.8836   4181862.7536   2   8   0.3824   0.9630   1.1449  -0.3427  -0.9223   0.3516   0.00    1.2
2173 290552.000    813988.1727  -4734634.9392   4181863.1472   2   8   0.3824   0.9630   1.1448  -0.3427  -0.9223   0.3516   0.00    1.1
2173 290553.000    813988.2668  -4734634.8283   4181862.8392   2   8   0.3824   0.9630   1.1447  -0.3428  -0.9222   0.3516   0.00    1.0
2173 290554.000    813988.2519  -4734634.5084   4181862.6173   2   8   0.3824   0.9630   1.1447  -0.3428  -0.9222   0.3516   0.00    1.0
2173 290555.000    813988.1005  -4734634.6424   4181862.4596   2   8   0.3824   0.9630   1.1446  -0.3429  -0.9222   0.3516   0.00    1.1
2173 290556.000    813988.2437  -4734634.6455   4181862.7286   2   8   0.3825   0.9630   1.1445  -0.3429  -0.9221   0.3516   0.00    1.2
2173 290557.000    813988.1560  -4734634.6865   4181862.3858   2   8   0.3825   0.9630   1.1444  -0.3429  -0.9221   0.3516   0.00    1.1
2173 290558.000    813988.0883  -4734634.6962   4181862.6628   2   8   0.3825   0.9630   1.1444  -0.3430  -0.9220   0.3516   0.00    1.0
2173 290559.000    813988.1305  -4734634.7229   4181862.6783   2   8   0.3825   0.9630   1.1443  -0.3430  -0.9220   0.3516   0.00    1.0
2173 290560.000    813988.0708  -4734634.4628   4181862.6228   2   8   0.3825   0.9630   1.1442  -0.3430  -0.9220   0.3516   0.00    1.1
2173 290561.000    813988.1366  -4734634.4301   4181862.5302   2   8   0.3825   0.9630   1.1441  -0.3431  -0.9219   0.3515   0.00    1.0
2173 290562.000    813988.0572  -4734634.1055   4181862.2560   2   8   0.3826   0.9630   1.1440  -0.3431  -0.9219   0.3515   0.00    1.0
2173 290563.000    813988.0412  -4734634.0612   4181862.2988   2   8   0.3826   0.9630   1.1440  -0.3432  -0.9218   0.3515   0.00    1.1
2173 290564.000    813988.0882  -4734633.9623   4181861.8102   2   8   0.3826   0.9630   1.1439  -0.3432  -0.9218   0.3515   0.00    1.1
2173 290565.000    813988.1513  -4734633.8169   4181861.5202   2   8   0.3826   0.9630   1.1438  -0.3432  -0.9217   0.3515   0.00    1.0
2173 290566.000    813988.1250  -4734634.0189   4181861.8618   2   8   0.3826   0.9629   1.1437  -0.3433  -0.9217   0.3515   0.00    1.1
2173 290567.000    813987.9534  -4734634.0174   4181861.8759   2   8   0.3826   0.9629   1.1436  -0.3433  -0.9217   0.3515   0.00    1.2
2173 290568.000    813987.9572  -4734633.8976   4181861.8180   2   8   0.3827   0.9629   1.1436  -0.3434  -0.9216   0.3515   0.00    1.2
2173 290569.000    813987.9110  -4734633.7936   4181861.8631   2   8   0.3827   0.9629   1.1435  -0.3434  -0.9216   0.3515   0.00    1.1
2173 290570.000    813987.9411  -4734633.8058   4181861.5035   2   8   0.3827   0.9629   1.1434  -0.3434  -0.9215   0.3515   0.00    1.1
2173 290571.000    813988.1012  -4734634.2055   4181861.8451   2   8   0.3827   0.9629   1.1433  -0.3435  -0.9215   0.3515   0.00    1.2
2173 290572.000    813988.0840  -4734633.9108   4181861.6520   2   8   0.3827   0.9629   1.1433  -0.3435  -0.9214   0.3515   0.00    1.1
2173 290573.000    813988.1926  -4734633.7854   4181861.2766   2   8   0.3827   0.9629   1.1432  -0.3435  -0.9214   0.3514   0.00    1.3
2173 290574.000    813988.1190  -4734634.2040   4181862.0203   2   8   0.3828   0.9629   1.1431  -0.3436  -0.9213   0.3514   0.00    1.2
2173 290575.000    813988.0437  -4734634.0174   4181862.1089   2   8   0.3828   0.9629   1.1430  -0.3436  -0.9213   0.3514   0.00    1.1
2173 290576.000    813987.9981  -4734633.9125   4181861.9138   2   8   0.2721   0.6846   0.8111  -0.2449  -0.6545   0.2503   1.00    1.2
2173 290577.000    813988.0226  -4734633.9480   4181861.8454   2   8   0.2225   0.5598   0.6628  -0.2005  -0.5350   0.2048   2.00    1.2
2173 290578.000    813988.0352  -4734633.9320   4181861.7774   2   8   0.1929   0.4851   0.5739  -0.1738  -0.4634   0.1775   3.00    1.2
2173 290579.000    813988.0601  -4734633.9610   4181861.7955   2   8   0.1726   0.4340   0.5131  -0.1556  -0.4144   0.1588   4.00    1.2
2173 290580.000    813988.0599  -4734633.9681   4181861.7681   2   8   0.1577   0.3962   0.4682  -0.1420  -0.3781   0.1449   5.00    1.3
2173 290581.000    813988.0594  -4734633.9351   4181861.7070   2   8   0.1460   0.3668   0.4332  -0.1315  -0.3499   0.1341   6.00    1.3
2173 290582.000    813988.0508  -4734633.9076   4181861.6639   2   8   0.1367   0.3431   0.4051  -0.1231  -0.3272   0.1254   7.00    1.3
2173 290583.000    813988.0619  -4734633.9066   4181861.6703   2   8   0.1289   0.3235   0.3817  -0.1160  -0.3084   0.1182   8.00    1.2
2173 290584.000    813988.0708  -4734633.8819   4181861.6416   2   8   0.1223   0.3069   0.3621  -0.1101  -0.2925   0.1121   9.00    1.2
2173 290585.000    813988.0806  -4734633.8679   4181861.6260   2   8   0.1167   0.2926   0.3451  -0.1050  -0.2788   0.1069  10.00    1.2
2173 290586.000    813988.0768  -4734633.8562   4181861.6214   2   8   0.1118   0.2802   0.3304  -0.1005  -0.2669   0.1023  11.00    1.2
2173 290587.000    813988.0801  -4734633.8198   4181861.5905   2   8   0.1075   0.2693   0.3175  -0.0966  -0.2565   0.0983  12.00    1.2
2173 290588.000    813988.0831  -4734633.8072   4181861.5901   2   8   0.1037   0.2596   0.3061  -0.0931  -0.2472   0.0947  13.00    1.2
2173 290589.000    813988.0915  -4734633.7801   4181861.5713   2   8   0.1002   0.2509   0.2958  -0.0900  -0.2389   0.0915  14.00    1.2
2173 290590.000    813988.0905  -4734633.7392   4181861.5181   2   8   0.0971   0.2431   0.2866  -0.0871  -0.2314   0.0886  15.00    1.2
2173 290591.000    813988.0935  -4734633.7066   4181861.4958   2   8   0.0944   0.2360   0.2783  -0.0846  -0.2246   0.0859  16.00    1.2
2173 290592.000    813988.0921  -4734633.6740   4181861.4614   2   8   0.0918   0.2296   0.2707  -0.0822  -0.2185   0.0835  17.00    1.2
