% program   : rnx2rtkp ver.2.4.3 b31
% inp file  : ngs/21_08_31_22_24_11_kybo.obs
% inp file  : ngs/21_08_31_22_24_11_kybo_SW.obs
% inp file  : ngs/21_08_31_22_24_11_brdc.nav
% obs start : 2021/08/31 22:00:00.0 GPST (week2173 252000.0s)
% obs end   : 2021/08/31 22:59:59.0 GPST (week2173 255599.0s)
% ref pos   :   461901.7728  -5001589.4069   3917701.5854
%
% (x/y/z-ecef=WGS84,Q=1:fix,2:float,3:sbas,4:dgps,5:single,6:ppp,ns=# of satellites)
%  GPST              x-ecef(m)      y-ecef(m)      z-ecef(m)   Q  ns   sdx(m)   sdy(m)   sdz(m)  sdxy(m)  sdyz(m)  sdzx(m) age(s)  ratio
2173 253426.000    456195.2793  -4939807.2382   3995772.3900   2   8   0.4973   0.8222   0.7239  -0.2768  -0.4288   0.3795 -30.00    1.3
2173 253427.000    456195.3978  -4939807.3532   3995772.4197   2   8   0.3547   0.5856   0.5165  -0.1971  -0.3042   0.2713 -29.00    1.4
2173 253428.000    456195.4692  -4939807.4027   3995772.4191   2   8   0.2906   0.4796   0.4232  -0.1614  -0.2489   0.2224 -28.00    1.4
2173 253429.000    456195.4644  -4939807.4815   3995772.4312   2   8   0.2522   0.4161   0.3672  -0.1400  -0.2159   0.1930 -27.00    1.5
2173 253430.000    456195.4327  -4939807.4627   3995772.3746   2   8   0.2258   0.3726   0.3289  -0.1254  -0.1933   0.1729 -26.00    1.5
2173 253431.000    456195.4358  -4939807.4532   3995772.3658   2   8   0.2063   0.3404   0.3006  -0.1145  -0.1767   0.1580 -25.00    1.6
2173 253432.000    456195.4165  -4939807.4955   3995772.3801   2   8   0.1912   0.3154   0.2785  -0.1061  -0.1637   0.1464 -24.00    1.7
2173 253433.000    456195.4335  -4939807.5150   3995772.3828   2   8   0.1789   0.2952   0.2606  -0.0993  -0.1532   0.1370 -23.00    1.7
2173 253434.000    456195.4280  -4939807.5276   3995772.3626   2   8   0.1688   0.2784   0.2458  -0.0937  -0.1445   0.1292 -22.00    1.8
2173 253435.000    456195.4267  -4939807.5760   3995772.3866   2   8   0.1602   0.2642   0.2333  -0.0889  -0.1371   0.1226 -21.00    1.9
2173 253436.000    456195.4308  -4939807.6003   3995772.3917   2   8   0.1527   0.2519   0.2225  -0.0848  -0.1308   0.1169 -20.00    1.9
2173 253437.000    456195.4294  -4939807.6302   3995772.3978   2   8   0.1462   0.2412   0.2130  -0.0812  -0.1252   0.1120 -19.00    2.0
2173 253438.000    456195.4348  -4939807.6581   3995772.4051   2   8   0.1405   0.2317   0.2047  -0.0780  -0.1203   0.1076 -18.00    2.0
2173 253439.000    456195.4283  -4939807.6761   3995772.4136   2   8   0.1354   0.2233   0.1972  -0.0751  -0.1159   0.1037 -17.00    2.1
2173 253440.000    456195.4250  -4939807.7080   3995772.4148   2   8   0.1308   0.2157   0.1905  -0.0726  -0.1120   0.1002 -16.00    2.0
2173 253441.000    456195.4176  -4939807.7163   3995772.4328   2   8   0.1266   0.2088   0.1845  -0.0703  -0.1084   0.0970 -15.00    2.0
2173 253442.000    456195.4225  -4939807.7182   3995772.4333   2   8   0.1229   0.2025   0.1789  -0.0682  -0.1051   0.0941 -14.00    2.0
2173 253443.000    456195.4176  -4939807.7358   3995772.4368   2   8   0.1194   0.1967   0.1738  -0.0662  -0.1021   0.0914 -13.00    2.0
2173 253444.000    456195.4285  -4939807.7410   3995772.4570   2   8   0.1162   0.1914   0.1692  -0.0644  -0.0994   0.0890 -12.00    2.0
2173 253445.000    456195.4356  -4939807.7659   3995772.4572   2   8   0.1132   0.1865   0.1648  -0.0628  -0.0968   0.0867 -11.00    2.0
2173 253446.000    456195.4328  -4939807.7753   3995772.4743   2   8   0.1105   0.1819   0.1608  -0.0613  -0.0945   0.0846 -10.00    2.0
2173 253447.000    456195.4271  -4939807.7654   3995772.4709   2   8   0.1079   0.1777   0.1571  -0.0598  -0.0923   0.0826  -9.00    2.0
2173 253448.000    456195.4285  -4939807.7766   3995772.4741   2   8   0.1055   0.1737   0.1536  -0.0585  -0.0902   0.0808  -8.00    2.0
2173 253449.000    456195.4279  -4939807.7779   3995772.4703   2   8   0.1033   0.1700   0.1503  -0.0573  -0.0883   0.0791  -7.00    2.0
2173 253450.000    456195.4355  -4939807.7868   3995772.4780   2   8   0.1011   0.1665   0.1472  -0.0561  -0.0864   0.0775  -6.00    2.0
2173 253451.000    456195.4362  -4939807.8016   3995772.4770   2   8   0.0992   0.1632   0.1443  -0.0550  -0.0847   0.0760  -5.00    2.1
2173 253452.000    456195.4297  -4939807.8227   3995772.4771   2   8   0.0973   0.1601   0.1415  -0.0539  -0.0831   0.0745  -4.00    2.1
2173 253453.000    456195.4198  -4939807.8227   3995772.4816   2   8   0.0955   0.1572   0.1389  -0.0530  -0.0816   0.0731  -3.00    2.3
2173 253454.000    456195.4206  -4939807.8260   3995772.4739   2   8   0.0939   0.1544   0.1364  -0.0520  -0.0802   0.0718  -2.00    2.4
2173 253455.000    456195.4143  -4939807.8276   3995772.4754   2   8   0.0922   0.1517   0.1341  -0.0512  -0.0788   0.0706  -1.00    2.5
2173 253456.000    456195.4159  -4939807.8443   3995772.4692   2   8   0.0908   0.1492   0.1319  -0.0503  -0.0775   0.0695   0.00    2.6
2173 253457.000    456195.4148  -4939807.8398   3995772.4669   2   8   0.0893   0.1469   0.1298  -0.0495  -0.0763   0.0684   0.00    2.8
2173 253458.000    456195.4155  -4939807.8512   3995772.4619   2   8   0.0880   0.1446   0.1277  -0.0488  -0.0752   0.0673   0.00    2.8
2173 253459.000    456195.4128  -4939807.8582   3995772.4673   2   8   0.0867   0.1424   0.1258  -0.0480  -0.0741   0.0663   0.00    2.9
2173 253460.000    456195.4109  -4939807.8604   3995772.4667   2   8   0.0854   0.1404   0.1240  -0.0473  -0.0730   0.0653   0.00    3.0
2173 253461.000    456195.3846  -4939808.0319   3995772.0832   1   8   0.0051   0.0083   0.0072  -0.0027  -0.0044   0.0039   0.00    3.0
2173 253462.000    456195.3828  -4939808.0385   3995772.0829   1   8   0.0049   0.0084   0.0073  -0.0028  -0.0042   0.0039   0.00    3.1
2173 253463.000    456195.3870  -4939808.0364   3995772.0846   1   8   0.0051   0.0083   0.0074  -0.0028  -0.0043   0.0038   0.00    3.1
2173 253464.000    456195.3844  -4939808.0302   3995772.0817   1   8   0.0049   0.0083   0.0073  -0.0027  -0.0042   0.0038   0.00    3.1
2173 253465.000    456195.3885  -4939808.0315   3995772.0826   1   8   0.0049   0.0084   0.0073  -0.0027  -0.0043   0.0038   0.00    3.1
2173 253466.000    456195.4111  -4939807.8819   3995772.4571   2   8   0.0789   0.1295   0.1143  -0.0437  -0.0675   0.0602   0.00    3.0
2173 253467.000    456195.4080  -4939807.8793   3995772.4619   2   8   0.0779   0.1280   0.1129  -0.0432  -0.0667   0.0594   0.00    2.9
2173 253468.000    456195.4037  -4939807.8840   3995772.4619   2   8   0.0770   0.1264   0.1115  -0.0427  -0.0659   0.0587   0.00    2.8
2173 253469.000    456195.4060  -4939807.9047   3995772.4763   2   8   0.0761   0.1249   0.1101  -0.0422  -0.0651   0.0580   0.00    2.7
2173 253470.000    456195.4110  -4939807.9190   3995772.4803   2   8   0.0753   0.1235   0.1088  -0.0417  -0.0644   0.0573   0.00    2.7
2173 253471.000    456195.4055  -4939807.9186   3995772.4836   2   8   0.0744   0.1221   0.1076  -0.0413  -0.0637   0.0566   0.00    2.7
2173 253472.000    456195.4025  -4939807.9173   3995772.4791   2   8   0.0736   0.1208   0.1064  -0.0408  -0.0630   0.0560   0.00    2.7
2173 253473.000    456195.3976  -4939807.9212   3995772.4754   2   8   0.0729   0.1195   0.1052  -0.0404  -0.0624   0.0554   0.00    2.7
2173 253474.000    456195.3893  -4939807.9279   3995772.4719   2   8   0.0721   0.1182   0.1040  -0.0400  -0.0617   0.0548   0.00    2.8
2173 253475.000    456195.3880  -4939807.9292   3995772.4675   2   8   0.0714   0.1170   0.1029  -0.0396  -0.0611   0.0542   0.00    2.8
2173 253476.000    456195.3867  -4939807.9391   3995772.4626   2   8   0.0707   0.1158   0.1018  -0.0392  -0.0605   0.0536   0.00    2.9
2173 253477.000    456195.3840  -4939807.9504   3995772.4642   2   8   0.0700   0.1146   0.1007  -0.0388  -0.0599   0.0530   0.00    2.9
2173 253478.000    456195.3828  -4939807.9589   3995772.4576   2   8   0.0693   0.1135   0.0997  -0.0384  -0.0594   0.0525   0.00    3.0
2173 253479.000    456195.3892  -4939807.9622   3995772.4593   2   8   0.0686   0.1124   0.0987  -0.0381  -0.0588   0.0519   0.00    3.0
2173 253480.000    456195.3883  -4939808.0336   3995772.0880   1   8   0.0051   0.0084   0.0073  -0.0032  -0.0043   0.0037   0.00    3.0
2173 253481.000    456195.3877  -4939808.0304   3995772.0863   1   8   0.0048   0.0082   0.0073  -0.0028  -0.0043   0.0038   0.00    3.1
2173 253482.000    456195.3886  -4939808.0343   3995772.0902   1   8   0.0051   0.0084   0.0074  -0.0029  -0.0043   0.0038   0.00    3.1
2173 253483.000    456195.3878  -4939808.0357   3995772.0895   1   8   0.0051   0.0083   0.0072  -0.0025  -0.0043   0.0039   0.00    3.2
2173 253484.000    456195.3889  -4939808.0394   3995772.0942   1   8   0.0049   0.0083   0.0073  -0.0028  -0.0043   0.0041   0.00    3.3
2173 253485.000    456195.3891  -4939808.0403   3995772.0915   1   8   0.0050   0.0083   0.0073  -0.0027  -0.0043   0.0038   0.00    3.3
2173 253486.000    456195.3871  -4939808.0338   3995772.0908   1   8   0.0049   0.0083   0.0073  -0.0029  -0.0043   0.0038   0.00    3.4
2173 253487.000    456195.3863  -4939808.0364   3995772.0922   1   8   0.0052   0.0083   0.0072  -0.0027  -0.0043   0.0039   0.00    3.4
2173 253488.000    456195.3872  -4939808.0393   3995772.0894   1   8   0.0052   0.0083   0.0074  -0.0029  -0.0043   0.0038   0.00    3.5
2173 253489.000    456195.3861  -4939808.0378   3995772.0905   1   8   0.0048   0.0082   0.0073  -0.0022  -0.0044   0.0038   0.00    3.5
2173 253490.000    456195.3850  -4939808.0390   3995772.0871   1   8   0.0052   0.0083   0.0073  -0.0025  -0.0043   0.0037   0.00    3.6
2173 253491.000    456195.3869  -4939808.0395   3995772.0898   1   8   0.0052   0.0084   0.0072  -0.0030  -0.0043   0.0039   0.00    3.6
2173 253492.000    456195.3887  -4939808.0396   3995772.0888   1   8   0.0048   0.0081   0.0073  -0.0026  -0.0042   0.0039   0.00    3.6
2173 253493.000    456195.3879  -4939808.0421   3995772.0912   1   8   0.0050   0.0083   0.0073  -0.0026  -0.0043   0.0038   0.00    3.6
2173 253494.000    456195.3874  -4939808.0431   3995772.0895   1   8   0.0051   0.0083   0.0074  -0.0029  -0.0042   0.0038   0.00    3.6
2173 253495.000    456195.3894  -4939808.0415   3995772.0931   1   8   0.0051   0.0082   0.0073  -0.0028  -0.0044   0.0038   0.00    3.7
2173 253496.000    456195.3843  -4939808.0460   3995772.0909   1   8   0.0053   0.0083   0.0073  -0.0029  -0.0043   0.0039   0.00    3.7
2173 253497.000    456195.3877  -4939808.0447   3995772.0888   1   8   0.0047   0.0083   0.0073  -0.0026  -0.0042   0.0039   0.00    3.7
2173 253498.000    456195.3882  -4939808.0447   3995772.0911   1   8   0.0052   0.0083   0.0075  -0.0027  -0.0043   0.0038   0.00    3.7
2173 253499.000    456195.3880  -4939808.0490   3995772.0943   1   8   0.0050   0.0083   0.0073  -0.0027  -0.0044   0.0038   0.00    3.7
2173 253500.000    456195.3876  -4939808.0470   3995772.0900   1   8   0.0050   0.0083   0.0073  -0.0024  -0.0044   0.0039   0.00    3.8
2173 253501.000    456195.3882  -4939808.0452   3995772.0930   1   8   0.0049   0.0083   0.0072  -0.0027  -0.0044   0.0039   0.00    3.8
2173 253502.000    456195.3863  -4939808.0450   3995772.0948   1   8   0.0048   0.0083   0.0073  -0.0027  -0.0042   0.0038   0.00    3.8
2173 253503.000    456195.3843  -4939808.0451   3995772.0938   1   8   0.0052   0.0084   0.0073  -0.0029  -0.0042   0.0040   0.00    3.8
2173 253504.000    456195.3850  -4939808.0454   3995772.0945   1   8   0.0049   0.0082   0.0073  -0.0024  -0.0043   0.0038   0.00    3.8
2173 253505.000    456195.3871  -4939808.0452   3995772.0950   1   8   0.0052   0.0082   0.0073  -0.0028  -0.0043   0.0038   0.00    3.9
2173 253506.000    456195.3873  -4939808.0465   3995772.0947   1   8   0.0050   0.0083   0.0072  -0.0026  -0.0045   0.0036   0.00    3.9
2173 253507.000    456195.3881  -4939808.0440   3995772.0931   1   8   0.0050   0.0082   0.0073  -0.0027  -0.0043   0.0038   0.00    3.9
2173 253508.000    456195.3881  -4939808.0506   3995772.0982   1   8   0.0049   0.0082   0.0073  -0.0028  -0.0043   0.0038   0.00    3.9
2173 253509.000    456195.3863  -4939808.0503   3995772.0946   1   8   0.0049   0.0083   0.0073  -0.0027  -0.0044   0.0041   0.00    3.9
2173 253510.000    456195.3869  -4939808.0522   3995772.0965   1   8   0.0051   0.0083   0.0074  -0.0026  -0.0044   0.0037   0.00    3.9
2173 253511.000    456195.3851  -4939808.0495   3995772.0935   1   8   0.0051   0.0084   0.0073  -0.0029  -0.0044   0.0040   0.00    4.0
2173 253512.000    456195.3866  -4939808.0386   3995772.0898   1   8   0.0051   0.0084   0.0073  -0.0031  -0.0043   0.0040   0.00    4.0
2173 253513.000    456195.3864  -4939808.0391   3995772.0912   1   8   0.0049   0.0083   0.0074  -0.0030  -0.0042   0.0039   0.00    4.0
2173 253514.000    456195.3787  -4939808.0179   3995772.0889   1   8   0.0051   0.0083   0.0073  -0.0027  -0.0043   0.0038   0.00    4.0
2173 253515.000    456195.3792  -4939808.0221   3995772.0914   1   8   0.0051   0.0082   0.0072  -0.0028  -0.0043   0.0039   0.00    4.0
2173 253516.000    456195.3767  -4939808.0202   3995772.0906   1   8   0.0050   0.0081   0.0074  -0.0027  -0.0042   0.0039   0.00    4.0
2173 253517.000    456195.3788  -4939808.0235   3995772.0930   1   8   0.0048   0.0083   0.0073  -0.0025  -0.0042   0.0039   0.00    4.1
2173 253518.000    456195.3799  -4939808.0219   3995772.0877   1   8   0.0049   0.0083   0.0073  -0.0030  -0.0043   0.0038   0.00    4.1
2173 253519.000    456195.3812  -4939808.0272   3995772.0917   1   8   0.0050   0.0083   0.0072  -0.0033  -0.0042   0.0039   0.00    4.1
2173 253520.000    456195.3813  -4939808.0236   3995772.0920   1   8   0.0051   0.0083   0.0072  -0.0025  -0.0042   0.0038   0.00    4.1
2173 253521.000    456195.3796  -4939808.0275   3995772.0896   1   8   0.0051   0.0081   0.0073  -0.0026  -0.0042   0.0038   0.00    4.1
2173 253522.000    456195.3794  -4939808.0281   3995772.0892   1   8   0.0051   0.0084   0.0072  -0.0029  -0.0043   0.0038   0.00    4.1
2173 253523.000    456195.3798  -4939808.0238   3995772.0903   1   8   0.0051   0.0082   0.0073  -0.0026  -0.0044   0.0039   0.00    4.1
2173 253524.000    456195.3794  -4939808.0261   3995772.0866   1   8   0.0048   0.0083   0.0073  -0.0026  -0.0042   0.0040   0.00    4.1
2173 253525.000    456195.3792  -4939808.0261   3995772.0891   1   8   0.0052   0.0083   0.0073  -0.0027  -0.0044   0.0038   0.00    4.1
2173 253526.000    456195.3788  -4939808.0212   3995772.0906   1   8   0.0050   0.0083   0.0072  -0.0030  -0.0043   0.0039   0.00    4.1
2173 253527.000    456195.3777  -4939808.0224   3995772.0922   1   8   0.0048   0.0083   0.0074  -0.0027  -0.0042   0.0038   0.00    4.1
2173 253528.000    456195.3792  -4939808.0280   3995772.0917   1   8   0.0049   0.0082   0.0073  -0.0025  -0.0044   0.0038   0.00    4.1
2173 253529.000    456195.3786  -4939808.0298   3995772.0936   1   8   0.0052   0.0083   0.0073  -0.0029  -0.0042   0.0039   0.00    4.1
2173 253530.000    456195.3798  -4939808.0321   3995772.0956   1   8   0.0048   0.0083   0.0072  -0.0028  -0.0042   0.0040   0.00    4.1
2173 253531.000    456195.3826  -4939808.0329   3995772.0975   1   8   0.0048   0.0082   0.0072  -0.0026  -0.0043   0.0039   0.00    4.1
2173 253532.000    456195.3771  -4939808.0284   3995772.0908   1   8   0.0049   0.0082   0.0072  -0.0025  -0.0043   0.0038   0.00    4.1
2173 253533.000    456195.3789  -4939808.0294   3995772.0959   1   8   0.0051   0.0083   0.0073  -0.0030  -0.0042   0.0040   0.00    4.1
2173 253534.000    456195.3814  -4939808.0341   3995772.0988   1   8   0.0050   0.0083   0.0071  -0.0027  -0.0043   0.0038   0.00    4.0
2173 253535.000    456195.3804  -4939808.0302   3995772.0964   1   8   0.0050   0.0083   0.0072  -0.0030  -0.0044   0.0039   0.00    4.0
2173 253536.000    456195.3804  -4939808.0303   3995772.0976   1   8   0.0050   0.0083   0.0073  -0.0029  -0.0041   0.0041   0.00    4.0
2173 253537.000    456195.3808  -4939808.0301   3995772.0987   1   8   0.0049   0.0083   0.0072  -0.0026  -0.0044   0.0037   0.00    4.0
2173 253538.000    456195.3809  -4939808.0286   3995772.0947   1   8   0.0051   0.0082   0.0072  -0.0030  -0.0043   0.0039   0.00    4.0
2173 253539.000    456195.3799  -4939808.0300   3995772.0906   1   8   0.0050   0.0083   0.0073  -0.0031  -0.0042   0.0039   0.00    4.0
2173 253540.000    456195.3788  -4939808.0301   3995772.0950   1   8   0.0052   0.0083   0.0072  -0.0027  -0.0043   0.0040   0.00    4.0
2173 253541.000    456195.3770  -4939808.0279   3995772.0919   1   8   0.0051   0.0084   0.0073  -0.0031  -0.0043   0.0040   0.00    4.0
2173 253542.000    456195.3801  -4939808.0281   3995772.0948   1   8   0.0049   0.0083   0.0072  -0.0028  -0.0043   0.0040   0.00    4.0
2173 253543.000    456195.3806  -4939808.0294   3995772.0961   1   8   0.0050   0.0083   0.0072  -0.0027  -0.0042   0.0038   0.00    4.0
2173 253544.000    456195.3790  -4939808.0301   3995772.0947   1   8   0.0048   0.0082   0.0072  -0.0027  -0.0043   0.0038   0.00    4.0
2173 253545.000    456195.3807  -4939808.0287   3995772.0950   1   8   0.0051   0.0083   0.0072  -0.0024  -0.0044   0.0039   0.00    4.0
2173 253546.000    456195.3805  -4939808.0288   3995772.0944   1   8   0.0048   0.0083   0.0073  -0.0028  -0.0043   0.0038   0.00    4.0
2173 253547.000    456195.3804  -4939808.0246   3995772.0940   1   8   0.0052   0.0082   0.0073  -0.0023  -0.0043   0.0038   0.00    3.9
2173 253548.000    456195.3812  -4939808.0237   3995772.0932   1   8   0.0052   0.0083   0.0073  -0.0027  -0.0043   0.0035   0.00    3.9
2173 253549.000    456195.3808  -4939808.0264   3995772.0907   1   8   0.0050   0.0083   0.0072  -0.0026  -0.0043   0.0037   0.00    3.9
2173 253550.000    456195.3815  -4939808.0278   3995772.0936   1   8   0.0049   0.0082   0.0073  -0.0024  -0.0043   0.0040   0.00    3.9
2173 253551.000    456195.3829  -4939808.0296   3995772.0955   1   8   0.0051   0.0083   0.0072  -0.0032  -0.0042   0.0040   0.00    3.9
2173 253552.000    456195.3773  -4939808.0310   3995772.0912   1   8   0.0051   0.0083   0.0073  -0.0029  -0.0043   0.0038   0.00    3.9
2173 253553.000    456195.3757  -4939808.0312   3995772.0920   1   8   0.0050   0.0083   0.0072  -0.0029  -0.0043   0.0038   0.00    3.9
2173 253554.000    456195.3790  -4939808.0334   3995772.0933   1   8   0.0050   0.0083   0.0072  -0.0025  -0.0044   0.0039   0.00    3.9
2173 253555.000    456195.3805  -4939808.0347   3995772.0951   1   8   0.0049   0.0083   0.0072  -0.0027  -0.0042   0.0039   0.00    3.9
2173 253556.000    456195.3800  -4939808.0299   3995772.0914   1   8   0.0053   0.0083   0.0073  -0.0029  -0.0043   0.0040   0.00    3.9
2173 253557.000    456195.3833  -4939808.0350   3995772.0958   1   8   0.0050   0.0083   0.0072  -0.0029  -0.0044   0.0039   0.00    3.9
2173 253558.000    456195.3810  -4939808.0321   3995772.0941   1   8   0.0049   0.0082   0.0073  -0.0027  -0.0043   0.0040   0.00    3.9
2173 253559.000    456195.3803  -4939808.0296   3995772.0931   1   8   0.0049   0.0084   0.0073  -0.0028  -0.0043   0.0040   0.00    3.9
2173 253560.000    456195.3830  -4939808.0285   3995772.0959   1   8   0.0050   0.0083   0.0072  -0.0028  -0.0042   0.0037   0.00    3.8
2173 253561.000    456195.3834  -4939808.0271   3995772.0954   1   8   0.0052   0.0083   0.0073  -0.0029  -0.0043   0.0038   0.00    3.8
2173 253562.000    456195.3809  -4939808.0268   3995772.0942   1   8   0.0050   0.0083   0.0074  -0.0026  -0.0043   0.0037   0.00    3.8
2173 253563.000    456195.3823  -4939808.0278   3995772.0925   1   8   0.0050   0.0083   0.0072  -0.0031  -0.0043   0.0040   0.00    3.8
2173 253564.000    456195.3861  -4939808.0268   3995772.0953   1   8   0.0052   0.0082   0.0075  -0.0025  -0.0043   0.0037   0.00    3.8
2173 253565.000    456195.3836  -4939808.0271   3995772.0957   1   8   0.0051   0.0081   0.0071  -0.0026  -0.0043   0.0038   0.00    3.8
2173 253566.000    456195.3832  -4939808.0241   3995772.0935   1   8   0.0051   0.0083   0.0072  -0.0028  -0.0042   0.0040   0.00    3.8
2173 253567.000    456195.3849  -4939808.0275   3995772.0926   1   8   0.0051   0.0082   0.0073  -0.0027  -0.0043   0.0039   0.00    3.8
2173 253568.000    456195.3598  -4939807.9971   3995772.0838   1   8   0.0051   0.0083   0.0073  -0.0034  -0.0042   0.0040   0.00    3.7
2173 253569.000    456195.3598  -4939807.9958   3995772.0789   1   8   0.0051   0.0083   0.0072  -0.0026  -0.0044   0.0037   0.00    3.6
2173 253570.000    456195.3593  -4939808.0013   3995772.0844   1   8   0.0050   0.0082   0.0071  -0.0028  -0.0043   0.0037   0.00    3.5
2173 253571.000    456195.3569  -4939807.9976   3995772.0839   1   8   0.0049   0.0083   0.0073  -0.0025  -0.0043   0.0038   0.00    3.5
2173 253572.000    456195.3591  -4939808.0031   3995772.0855   1   8   0.0051   0.0082   0.0073  -0.0026  -0.0043   0.0038   0.00    3.4
2173 253573.000    456195.3567  -4939808.0034   3995772.0833   1   8   0.0051   0.0082   0.0073  -0.0024  -0.0042   0.0040   0.00    3.4
2173 253574.000    456195.3583  -4939808.0052   3995772.0841   1   8   0.0049   0.0081   0.0073  -0.0024  -0.0044   0.0038   0.00    3.3
2173 253575.000    456195.3582  -4939808.0087   3995772.0847   1   8   0.0050   0.0082   0.0070  -0.0028  -0.0043   0.0040   0.00    3.2
2173 253576.000    456195.3535  -4939808.0013   3995772.0914   1   8   0.0052   0.0083   0.0073  -0.0028  -0.0042   0.0038   0.00    3.2
2173 253577.000    456195.3485  -4939807.9987   3995772.0918   1   8   0.0052   0.0083   0.0073  -0.0030  -0.0043   0.0039   0.00    3.2
2173 253578.000    456195.3523  -4939808.0018   3995772.0937   1   8   0.0053   0.0084   0.0073  -0.0027  -0.0044   0.0037   0.00    3.1
2173 253579.000    456195.3523  -4939807.9979   3995772.0912   1   8   0.0049   0.0083   0.0072  -0.0028  -0.0041   0.0038   0.00    3.1
2173 253580.000    456195.3515  -4939807.9954   3995772.0911   1   8   0.0050   0.0082   0.0072  -0.0025  -0.0043   0.0040   0.00    3.1
2173 253581.000    456195.3525  -4939807.9975   3995772.0914   1   8   0.0052   0.0083   0.0072  -0.0027  -0.0043   0.0038   0.00    3.0
2173 253582.000    456195.3512  -4939807.9974   3995772.0932   1   8   0.0052   0.0083   0.0073  -0.0029  -0.0043   0.0038   0.00    3.0
2173 253583.000    456195.3226  -4939808.0118   3995772.4408   2   8   0.0384   0.0586   0.0464  -0.0211  -0.0330   0.0227   0.00    3.0
2173 253584.000    456195.3266  -4939808.0122   3995772.4484   2   8   0.0382   0.0583   0.0461  -0.0210  -0.0329   0.0225   0.00    3.0
2173 253585.000    456195.3293  -4939808.0108   3995772.4512   2   8   0.0381   0.0581   0.0459  -0.0209  -0.0328   0.0223   0.00    2.9
2173 253586.000    456195.3322  -4939808.0086   3995772.4553   2   8   0.0380   0.0578   0.0456  -0.0208  -0.0326   0.0221   0.00    2.9
2173 253587.000    456195.3358  -4939808.0050   3995772.4595   2   8   0.0378   0.0575   0.0453  -0.0207  -0.0325   0.0220   0.00    2.9
2173 253588.000    456195.3374  -4939808.0045   3995772.4654   2   8   0.0377   0.0573   0.0451  -0.0206  -0.0324   0.0218   0.00    2.9
2173 253589.000    456195.3437  -4939808.0079   3995772.4728   2   8   0.0376   0.0570   0.0448  -0.0206  -0.0322   0.0217   0.00    2.9
2173 253590.000    456195.3462  -4939808.0062   3995772.4772   2   8   0.0374   0.0567   0.0446  -0.0206  -0.0321   0.0215   0.00    2.8
2173 253591.000    456195.3487  -4939808.0047   3995772.4825   2   8   0.0373   0.0565   0.0443  -0.0204  -0.0320   0.0214   0.00    2.8
2173 253592.000    456195.3511  -4939808.0063   3995772.4876   2   8   0.0372   0.0562   0.0441  -0.0203  -0.0319   0.0212   0.00    2.8
2173 253593.000    456195.3546  -4939808.0084   3995772.4937   2   8   0.0371   0.0559   0.0438  -0.0202  -0.0317   0.0211   0.00    2.8
2173 253594.000    456195.3575  -4939808.0118   3995772.5026   2   8   0.0369   0.0557   0.0436  -0.0202  -0.0316   0.0209   0.00    2.7
2173 253595.000    456195.3614  -4939808.0095   3995772.5082   2   8   0.0368   0.0554   0.0433  -0.0200  -0.0315   0.0208   0.00    2.7
2173 253596.000    456195.3636  -4939808.0118   3995772.5106   2   8   0.0367   0.0552   0.0431  -0.0201  -0.0313   0.0207   0.00    2.7
2173 253597.000    456195.3645  -4939808.0083   3995772.5141   2   8   0.0365   0.0549   0.0429  -0.0199  -0.0312   0.0205   0.00    2.7
2173 253598.000    456195.3639  -4939808.0083   3995772.5163   2   8   0.0364   0.0547   0.0426  -0.0199  -0.0311   0.0203   0.00    2.7
2173 253599.000    456195.3689  -4939808.0123   3995772.5212   2   8   0.0363   0.0544   0.0424  -0.0197  -0.0310   0.0202   0.00    2.7
2173 253600.000    456195.3686  -4939808.0081   3995772.5184   2   8   0.0362   0.0542   0.0421  -0.0197  -0.0308   0.0201   0.00    2.6
2173 253601.000    456195.3677  -4939808.0064   3995772.5194   2   8   0.0360   0.0539   0.0419  -0.0196  -0.0307   0.0199   0.00    2.6
2173 253602.000    456195.3705  -4939808.0088   3995772.5259   2   8   0.0359   0.0537   0.0417  -0.0195  -0.0306   0.0198   0.00    2.6
2173 253603.000    456195.3740  -4939808.0089   3995772.5268   2   8   0.0358   0.0534   0.0414  -0.0194  -0.0305   0.0196   0.00    2.6
2173 253604.000    456195.3738  -4939808.0111   3995772.5243   2   8   0.0357   0.0532   0.0412  -0.0194  -0.0303   0.0195   0.00    2.5
2173 253605.000    456195.3774  -4939808.0129   3995772.5318   2   8   0.0356   0.0530   0.0410  -0.0193  -0.0302   0.0194   0.00    2.5
2173 253606.000    456195.3794  -4939808.0127   3995772.5312   2   8   0.0355   0.0527   0.0408  -0.0192  -0.0301   0.0193   0.00    2.5
2173 253607.000    456195.3819  -4939808.0139   3995772.5340   2   8   0.0354   0.0525   0.0405  -0.0191  -0.0300   0.0191   0.00    2.5
2173 253608.000    456195.3823  -4939808.0131   3995772.5343   2   8   0.0352   0.0523   0.0403  -0.0190  -0.0299   0.0190   0.00    2.4
2173 253609.000    456195.3856  -4939808.0144   3995772.5337   2   8   0.0351   0.0520   0.0401  -0.0189  -0.0297   0.0188   0.00    2.4
2173 253610.000    456195.3885  -4939808.0128   3995772.5352   2   8   0.0350   0.0518   0.0399  -0.0189  -0.0296   0.0187   0.00    2.4
2173 253611.000    456195.3870  -4939808.0102   3995772.5343   2   8   0.0349   0.0516   0.0397  -0.0189  -0.0295   0.0185   0.00    2.4
2173 253612.000    456195.3903  -4939808.0127   3995772.5388   2   8   0.0348   0.0514   0.0395  -0.0187  -0.0294   0.0184   0.00    2.4
2173 253613.000    456195.3891  -4939808.0112   3995772.5313   2   8   0.0347   0.0511   0.0392  -0.0186  -0.0293   0.0183   0.00    2.3
2173 253614.000    456195.3948  -4939808.0136   3995772.5373   2   8   0.0346   0.0509   0.0391  -0.0186  -0.0292   0.0182   0.00    2.3
2173 253615.000    456195.3918  -4939808.0127   3995772.5335   2   8   0.0345   0.0507   0.0388  -0.0185  -0.0290   0.0180   0.00    2.3
2173 253616.000    456195.3966  -4939808.0167   3995772.5368   2   8   0.0344   0.0505   0.0386  -0.0185  -0.0289   0.0180   0.00    2.3
2173 253617.000    456195.3991  -4939808.0138   3995772.5396   2   8   0.0343   0.0502   0.0384  -0.0184  -0.0288   0.0178   0.00    2.3
2173 253618.000    456195.4006  -4939808.0174   3995772.5395   2   8   0.0342   0.0500   0.0382  -0.0183  -0.0287   0.0177   0.00    2.3
2173 253619.000    456195.3997  -4939808.0143   3995772.5397   2   8   0.0341   0.0498   0.0380  -0.0182  -0.0286   0.0175   0.00    2.2
2173 253620.000    456195.3991  -4939808.0131   3995772.5380   2   8   0.0340   0.0496   0.0379  -0.0182  -0.0285   0.0175   0.00    2.2
2173 253621.000    456195.4046  -4939808.0154   3995772.5426   2   8   0.0339   0.0494   0.0377  -0.0181  -0.0284   0.0173   0.00    2.2
2173 253622.000    456195.4016  -4939808.0123   3995772.5356   2   8   0.0338   0.0492   0.0374  -0.0180  -0.0283   0.0172   0.00    2.2
2173 253623.000    456195.4053  -4939808.0125   3995772.5361   2   8   0.0337   0.0490   0.0373  -0.0180  -0.0282   0.0171   0.00    2.2
2173 253624.000    456195.4055  -4939808.0036   3995772.5284   2   8   0.0336   0.0488   0.0371  -0.0179  -0.0281   0.0169   0.00    2.2
2173 253625.000    456195.4054  -4939808.0013   3995772.5256   2   8   0.0335   0.0485   0.0369  -0.0178  -0.0280   0.0168   0.00    2.2
2173 253626.000    456195.4025  -4939807.9950   3995772.5170   2   8   0.0334   0.0483   0.0367  -0.0178  -0.0279   0.0167   0.00    2.2
2173 253627.000    456195.4063  -4939807.9928   3995772.5109   2   8   0.0333   0.0481   0.0365  -0.0177  -0.0277   0.0166   0.00    2.2
2173 253628.000    456195.4043  -4939807.9941   3995772.5111   2   8   0.0332   0.0479   0.0363  -0.0176  -0.0276   0.0164   0.00    2.1
2173 253629.000    456195.4048  -4939807.9928   3995772.5066   2   8   0.0331   0.0477   0.0361  -0.0175  -0.0275   0.0164   0.00    2.1
2173 253630.000    456195.4027  -4939807.9910   3995772.5040   2   8   0.0330   0.0475   0.0359  -0.0174  -0.0274   0.0163   0.00    2.1
2173 253631.000    456195.4029  -4939807.9905   3995772.5009   2   8   0.0329   0.0473   0.0358  -0.0174  -0.0273   0.0162   0.00    2.1
2173 253632.000    456195.4032  -4939807.9885   3995772.4980   2   8   0.0328   0.0471   0.0356  -0.0174  -0.0272   0.0160   0.00    2.1
2173 253633.000    456195.4025  -4939807.9877   3995772.4958   2   8   0.0327   0.0469   0.0354  -0.0173  -0.0271   0.0159   0.00    2.1
2173 253634.000    456195.4023  -4939807.9806   3995772.4905   2   8   0.0326   0.0467   0.0352  -0.0172  -0.0270   0.0157   0.00    2.1
2173 253635.000    456195.3937  -4939807.9804   3995772.4716   2   8   0.0325   0.0466   0.0351  -0.0172  -0.0269   0.0157   0.00    2.1
2173 253636.000    456195.3961  -4939807.9751   3995772.4710   2   8   0.0324   0.0464   0.0349  -0.0171  -0.0268   0.0155   0.00    2.1
2173 253637.000    456195.3967  -4939807.9702   3995772.4694   2   8   0.0324   0.0462   0.0347  -0.0170  -0.0267   0.0154   0.00    2.1
2173 253638.000    456195.4002  -4939807.9665   3995772.4675   2   8   0.0323   0.0460   0.0345  -0.0170  -0.0266   0.0154   0.00    2.0
2173 253639.000    456195.3975  -4939807.9615   3995772.4628   2   8   0.0322   0.0458   0.0343  -0.0169  -0.0265   0.0152   0.00    2.0
2173 253640.000    456195.3993  -4939807.9612   3995772.4635   2   8   0.0321   0.0456   0.0342  -0.0168  -0.0264   0.0152   0.00    2.0
2173 253641.000    456195.4016  -4939807.9555   3995772.4585   2   8   0.0320   0.0454   0.0340  -0.0168  -0.0263   0.0150   0.00    2.0
2173 253642.000    456195.4016  -4939807.9554   3995772.4606   2   8   0.0319   0.0452   0.0339  -0.0167  -0.0262   0.0149   0.00    2.0
2173 253643.000    456195.3997  -4939807.9496   3995772.4568   2   8   0.0319   0.0451   0.0337  -0.0167  -0.0261   0.0148   0.00    2.0
2173 253644.000    456195.4010  -4939807.9490   3995772.4546   2   8   0.0317   0.0449   0.0335  -0.0166  -0.0260   0.0147   0.00    2.0
2173 253645.000    456195.4020  -4939807.9483   3995772.4525   2   8   0.0317   0.0447   0.0334  -0.0165  -0.0259   0.0146   0.00    2.0
2173 253646.000    456195.4018  -4939807.9433   3995772.4474   2   8   0.0316   0.0445   0.0332  -0.0164  -0.0258   0.0145   0.00    2.0
2173 253647.000    456195.4016  -4939807.9421   3995772.4464   2   8   0.0315   0.0443   0.0331  -0.0164  -0.0257   0.0144   0.00    2.0
2173 253648.000    456195.4031  -4939807.9406   3995772.4441   2   8   0.0314   0.0441   0.0329  -0.0163  -0.0256   0.0143   0.00    2.0
2173 253649.000    456195.4005  -4939807.9415   3995772.4398   2   8   0.0313   0.0440   0.0328  -0.0163  -0.0255   0.0142   0.00    2.0
2173 253650.000    456195.3995  -4939807.9336   3995772.4346   2   8   0.0313   0.0438   0.0326  -0.0162  -0.0254   0.0141   0.00    1.9
2173 253651.000    456195.4038  -4939807.9380   3995772.4381   2   8   0.0312   0.0436   0.0324  -0.0162  -0.0253   0.0140   0.00    1.9
2173 253652.000    456195.4028  -4939807.9351   3995772.4336   2   8   0.0311   0.0435   0.0323  -0.0161  -0.0252   0.0139   0.00    1.9
2173 253653.000    456195.4023  -4939807.9322   3995772.4346   2   8   0.0311   0.0433   0.0322  -0.0160  -0.0251   0.0138   0.00    1.9
2173 253654.000    456195.4039  -4939807.9324   3995772.4314   2   8   0.0309   0.0431   0.0320  -0.0159  -0.0251   0.0137   0.00    1.9
2173 253655.000    456195.4048  -4939807.9329   3995772.4299   2   8   0.0309   0.0429   0.0318  -0.0159  -0.0250   0.0136   0.00    1.9
2173 253656.000    456195.4038  -4939807.9316   3995772.4286   2   8   0.0308   0.0428   0.0317  -0.0159  -0.0249   0.0135   0.00    1.9
2173 253657.000    456195.4045  -4939807.9263   3995772.4251   2   8   0.0307   0.0426   0.0316  -0.0159  -0.0248   0.0134   0.00    1.9
2173 253658.000    456195.4055  -4939807.9270   3995772.4254   2   8   0.0306   0.0424   0.0314  -0.0157  -0.0247   0.0133   0.00    1.9
2173 253659.000    456195.4090  -4939807.9275   3995772.4267   2   8   0.0305   0.0422   0.0313  -0.0157  -0.0246   0.0133   0.00    1.9
2173 253660.000    456195.4077  -4939807.9250   3995772.4246   2   8   0.0304   0.0421   0.0311  -0.0156  -0.0245   0.0131   0.00    1.9
2173 253661.000    456195.4053  -4939807.9202   3995772.4231   2   8   0.0304   0.0419   0.0310  -0.0155  -0.0244   0.0131   0.00    1.9
2173 253662.000    456195.4067  -4939807.9193   3995772.4206   2   8   0.0303   0.0418   0.0309  -0.0156  -0.0243   0.0129   0.00    1.9
2173 253663.000    456195.4094  -4939807.9238   3995772.4238   2   8   0.0303   0.0416   0.0307  -0.0155  -0.0242   0.0128   0.00    1.9
2173 253664.000    456195.4064  -4939807.9182   3995772.4202   2   8   0.0302   0.0414   0.0306  -0.0154  -0.0242   0.0128   0.00    1.8
2173 253665.000    456195.4098  -4939807.9207   3995772.4210   2   8   0.0301   0.0413   0.0304  -0.0154  -0.0241   0.0127   0.00    1.8
2173 253666.000    456195.4097  -4939807.9207   3995772.4185   2   8   0.0300   0.0411   0.0303  -0.0153  -0.0240   0.0126   0.00    1.8
2173 253667.000    456195.4063  -4939807.9146   3995772.4127   2   8   0.0299   0.0409   0.0302  -0.0153  -0.0239   0.0125   0.00    1.8
2173 253668.000    456195.4070  -4939807.9166   3995772.4115   2   8   0.0299   0.0408   0.0300  -0.0153  -0.0238   0.0124   0.00    1.8
2173 253669.000    456195.4064  -4939807.9183   3995772.4111   2   8   0.0298   0.0407   0.0299  -0.0151  -0.0237   0.0123   0.00    1.8
2173 253670.000    456195.4077  -4939807.9260   3995772.4106   2   8   0.0297   0.0405   0.0298  -0.0151  -0.0237   0.0122   0.00    1.8
2173 253671.000    456195.4080  -4939807.9171   3995772.4095   2   8   0.0297   0.0404   0.0297  -0.0151  -0.0236   0.0122   0.00    1.8
2173 253672.000    456195.4076  -4939807.9185   3995772.4035   2   8   0.0296   0.0402   0.0295  -0.0150  -0.0235   0.0121   0.00    1.8
2173 253673.000    456195.4046  -4939807.9132   3995772.3969   2   8   0.0295   0.0401   0.0294  -0.0149  -0.0234   0.0120   0.00    1.8
2173 253674.000    456195.4086  -4939807.9183   3995772.4024   2   8   0.0295   0.0399   0.0292  -0.0150  -0.0233   0.0119   0.00    1.8
2173 253675.000    456195.4091  -4939807.9163   3995772.3983   2   8   0.0294   0.0398   0.0291  -0.0149  -0.0232   0.0118   0.00    1.8
2173 253676.000    456195.4069  -4939807.9155   3995772.3977   2   8   0.0294   0.0396   0.0290  -0.0148  -0.0232   0.0117   0.00    1.8
2173 253677.000    456195.4118  -4939807.9233   3995772.3956   2   8   0.0293   0.0395   0.0289  -0.0148  -0.0230   0.0117   0.00    1.8
2173 253678.000    456195.4092  -4939807.9232   3995772.3957   2   8   0.0292   0.0393   0.0288  -0.0147  -0.0229   0.0115   0.00    1.8
2173 253679.000    456195.4094  -4939807.9202   3995772.3920   2   8   0.0291   0.0392   0.0286  -0.0147  -0.0229   0.0114   0.00    1.8
2173 253680.000    456195.4123  -4939807.9136   3995772.3872   2   8   0.0291   0.0390   0.0285  -0.0146  -0.0228   0.0114   0.00    1.8
2173 253681.000    456195.4127  -4939807.9136   3995772.3866   2   8   0.0289   0.0389   0.0284  -0.0145  -0.0227   0.0113   0.00    1.8
2173 253682.000    456195.4131  -4939807.9152   3995772.3887   2   8   0.0290   0.0387   0.0283  -0.0145  -0.0226   0.0112   0.00    1.8
2173 253683.000    456195.4099  -4939807.9080   3995772.3829   2   8   0.0288   0.0386   0.0281  -0.0144  -0.0226   0.0112   0.00    1.8
2173 253684.000    456195.4119  -4939807.9131   3995772.3834   2   8   0.0288   0.0384   0.0280  -0.0143  -0.0225   0.0111   0.00    1.7
2173 253685.000    456195.4128  -4939807.9151   3995772.3853   2   8   0.0288   0.0383   0.0279  -0.0143  -0.0224   0.0109   0.00    1.7
2173 253686.000    456195.4116  -4939807.9105   3995772.3801   2   8   0.0287   0.0382   0.0278  -0.0144  -0.0223   0.0109   0.00    1.7
2173 253687.000    456195.4159  -4939807.9087   3995772.3718   2   8   0.0286   0.0380   0.0277  -0.0142  -0.0222   0.0108   0.00    1.7
2173 253688.000    456195.4103  -4939807.9089   3995772.3769   2   8   0.0286   0.0379   0.0276  -0.0143  -0.0222   0.0108   0.00    1.7
2173 253689.000    456195.4106  -4939807.9024   3995772.3699   2   8   0.0285   0.0377   0.0274  -0.0142  -0.0221   0.0107   0.00    1.7
2173 253690.000    456195.4121  -4939807.9003   3995772.3667   2   8   0.0284   0.0376   0.0274  -0.0141  -0.0220   0.0105   0.00    1.7
2173 253691.000    456195.4132  -4939807.9034   3995772.3661   2   8   0.0284   0.0375   0.0273  -0.0140  -0.0220   0.0105   0.00    1.7
2173 253692.000    456195.4156  -4939807.9008   3995772.3643   2   8   0.0284   0.0374   0.0271  -0.0140  -0.0218   0.0105   0.00    1.7
2173 253693.000    456195.4167  -4939807.9002   3995772.3647   2   8   0.0283   0.0372   0.0270  -0.0140  -0.0218   0.0104   0.00    1.7
2173 253694.000    456195.4149  -4939807.8996   3995772.3609   2   8   0.0282   0.0371   0.0269  -0.0140  -0.0217   0.0103   0.00    1.7
2173 253695.000    456195.4150  -4939807.8968   3995772.3574   2   8   0.0281   0.0369   0.0268  -0.0139  -0.0217   0.0102   0.00    1.7
2173 253696.000    456195.4154  -4939807.9225   3995772.3646   2   8   0.0281   0.0368   0.0267  -0.0138  -0.0216   0.0102   0.00    1.7
2173 253697.000    456195.4144  -4939807.9237   3995772.3624   2   8   0.0280   0.0367   0.0266  -0.0137  -0.0215   0.0101   0.00    1.7
2173 253698.000    456195.4148  -4939807.9230   3995772.3611   2   8   0.0279   0.0366   0.0265  -0.0138  -0.0214   0.0100   0.00    1.7
2173 253699.000    456195.4143  -4939807.9209   3995772.3570   2   8   0.0279   0.0365   0.0263  -0.0137  -0.0213   0.0099   0.00    1.7
2173 253700.000    456195.4154  -4939807.9227   3995772.3554   2   8   0.0278   0.0363   0.0262  -0.0136  -0.0213   0.0098   0.00    1.7
2173 253701.000    456195.4140  -4939807.9198   3995772.3516   2   8   0.0278   0.0362   0.0262  -0.0135  -0.0212   0.0098   0.00    1.7
2173 253702.000    456195.4159  -4939807.9218   3995772.3503   2   8   0.0277   0.0360   0.0260  -0.0136  -0.0211   0.0098   0.00    1.7
2173 253703.000    456195.4148  -4939807.9186   3995772.3466   2   8   0.0277   0.0359   0.0259  -0.0135  -0.0210   0.0096   0.00    1.7
2173 253704.000    456195.4161  -4939807.9231   3995772.3468   2   8   0.0276   0.0358   0.0258  -0.0135  -0.0210   0.0096   0.00    1.7
2173 253705.000    456195.4141  -4939807.9151   3995772.3398   2   8   0.0275   0.0356   0.0257  -0.0134  -0.0209   0.0094   0.00    1.7
2173 253706.000    456195.4137  -4939807.9188   3995772.3370   2   8   0.0275   0.0355   0.0256  -0.0134  -0.0208   0.0095   0.00    1.7
2173 253707.000    456195.4119  -4939807.9189   3995772.3308   2   8   0.0275   0.0354   0.0255  -0.0134  -0.0208   0.0093   0.00    1.7
2173 253708.000    456195.4103  -4939807.9170   3995772.3302   2   8   0.0274   0.0353   0.0254  -0.0133  -0.0207   0.0093   0.00    1.7
2173 253709.000    456195.4112  -4939807.9176   3995772.3261   2   8   0.0273   0.0352   0.0253  -0.0132  -0.0206   0.0092   0.00    1.7
2173 253710.000    456195.4133  -4939807.9150   3995772.3238   2   8   0.0273   0.0350   0.0252  -0.0131  -0.0206   0.0091   0.00    1.7
2173 253711.000    456195.4101  -4939807.9146   3995772.3208   2   8   0.0272   0.0349   0.0251  -0.0132  -0.0205   0.0091   0.00    1.7
2173 253712.000    456195.4131  -4939807.9141   3995772.3211   2   8   0.0272   0.0348   0.0250  -0.0131  -0.0204   0.0090   0.00    1.7
2173 253713.000    456195.4120  -4939807.9145   3995772.3186   2   8   0.0271   0.0347   0.0250  -0.0131  -0.0204   0.0089   0.00    1.7
2173 253714.000    456195.4146  -4939807.9143   3995772.3206   2   8   0.0270   0.0346   0.0249  -0.0131  -0.0203   0.0088   0.00    1.7
2173 253715.000    456195.4118  -4939807.9119   3995772.3136   2   8   0.0270   0.0344   0.0248  -0.0129  -0.0203   0.0087   0.00    1.7
2173 253716.000    456195.4124  -4939807.9128   3995772.3159   2   8   0.0270   0.0343   0.0247  -0.0129  -0.0202   0.0087   0.00    1.7
2173 253717.000    456195.4109  -4939807.9094   3995772.3108   2   8   0.0269   0.0342   0.0246  -0.0130  -0.0201   0.0086   0.00    1.7
2173 253718.000    456195.4120  -4939807.9114   3995772.3118   2   8   0.0268   0.0341   0.0244  -0.0129  -0.0200   0.0087   0.00    1.7
2173 253719.000    456195.4111  -4939807.9080   3995772.3087   2   8   0.0267   0.0340   0.0244  -0.0128  -0.0200   0.0085   0.00    1.7
2173 253720.000    456195.4111  -4939807.9109   3995772.3100   2   8   0.0267   0.0339   0.0243  -0.0128  -0.0199   0.0085   0.00    1.7
2173 253721.000    456195.4104  -4939807.9109   3995772.3097   2   8   0.0267   0.0337   0.0242  -0.0127  -0.0198   0.0083   0.00    1.7
2173 253722.000    456195.4078  -4939807.9110   3995772.3055   2   8   0.0267   0.0336   0.0242  -0.0128  -0.0197   0.0083   0.00    1.7
2173 253723.000    456195.4085  -4939807.9084   3995772.3054   2   8   0.0266   0.0335   0.0240  -0.0127  -0.0197   0.0082   0.00    1.7
2173 253724.000    456195.4081  -4939807.9044   3995772.3016   2   8   0.0265   0.0334   0.0239  -0.0126  -0.0197   0.0082   0.00    1.8
2173 253725.000    456195.4083  -4939807.9046   3995772.3029   2   8   0.0265   0.0333   0.0238  -0.0126  -0.0196   0.0081   0.00    1.8
2173 253726.000    456195.4106  -4939807.9092   3995772.3028   2   8   0.0264   0.0332   0.0238  -0.0125  -0.0195   0.0080   0.00    1.8
2173 253727.000    456195.4098  -4939807.9023   3995772.3017   2   8   0.0263   0.0331   0.0237  -0.0125  -0.0194   0.0080   0.00    1.8
2173 253728.000    456195.4092  -4939807.8985   3995772.3004   2   8   0.0263   0.0330   0.0236  -0.0125  -0.0194   0.0080   0.00    1.8
2173 253729.000    456195.4063  -4939807.8993   3995772.2970   2   8   0.0263   0.0329   0.0235  -0.0125  -0.0193   0.0079   0.00    1.8
2173 253730.000    456195.4051  -4939807.8978   3995772.2954   2   8   0.0263   0.0328   0.0234  -0.0125  -0.0193   0.0077   0.00    1.8
2173 253731.000    456195.4067  -4939807.8967   3995772.2988   2   8   0.0261   0.0326   0.0233  -0.0123  -0.0192   0.0078   0.00    1.8
2173 253732.000    456195.4077  -4939807.8955   3995772.2952   2   8   0.0261   0.0325   0.0233  -0.0124  -0.0191   0.0077   0.00    1.8
2173 253733.000    456195.4060  -4939807.8934   3995772.2937   2   8   0.0261   0.0324   0.0231  -0.0123  -0.0191   0.0076   0.00    1.8
2173 253734.000    456195.4059  -4939807.8955   3995772.2928   2   8   0.0260   0.0323   0.0231  -0.0122  -0.0190   0.0075   0.00    1.8
2173 253735.000    456195.4033  -4939807.8932   3995772.2879   2   8   0.0260   0.0322   0.0230  -0.0123  -0.0189   0.0075   0.00    1.8
2173 253736.000    456195.4087  -4939807.9015   3995772.3122   2   8   0.0259   0.0321   0.0229  -0.0121  -0.0189   0.0074   0.00    1.8
2173 253737.000    456195.4058  -4939807.9002   3995772.3123   2   8   0.0259   0.0320   0.0228  -0.0121  -0.0188   0.0074   0.00    1.8
2173 253738.000    456195.4003  -4939807.8900   3995772.3068   2   8   0.0258   0.0319   0.0228  -0.0121  -0.0188   0.0073   0.00    1.8
2173 253739.000    456195.3985  -4939807.8866   3995772.2987   2   8   0.0258   0.0318   0.0227  -0.0121  -0.0187   0.0071   0.00    1.8
2173 253740.000    456195.3959  -4939807.8798   3995772.2984   2   8   0.0258   0.0317   0.0226  -0.0120  -0.0187   0.0071   0.00    1.8
2173 253741.000    456195.3933  -4939807.8692   3995772.2927   2   8   0.0257   0.0316   0.0225  -0.0119  -0.0186   0.0072   0.00    1.8
2173 253742.000    456195.3936  -4939807.8682   3995772.2905   2   8   0.0256   0.0315   0.0224  -0.0120  -0.0185   0.0072   0.00    1.8
2173 253743.000    456195.3897  -4939807.8613   3995772.2844   2   8   0.0257   0.0314   0.0224  -0.0120  -0.0185   0.0069   0.00    1.8
2173 253744.000    456195.3858  -4939807.8514   3995772.2801   2   8   0.0256   0.0313   0.0223  -0.0118  -0.0184   0.0069   0.00    1.8
2173 253745.000    456195.3858  -4939807.8503   3995772.2808   2   8   0.0255   0.0312   0.0222  -0.0118  -0.0184   0.0069   0.00    1.9
2173 253746.000    456195.3852  -4939807.8446   3995772.2771   2   8   0.0255   0.0311   0.0221  -0.0118  -0.0183   0.0068   0.00    1.9
2173 253747.000    456195.3807  -4939807.8373   3995772.2714   2   8   0.0254   0.0310   0.0220  -0.0118  -0.0183   0.0068   0.00    1.9
2173 253748.000    456195.3739  -4939807.8333   3995772.2723   2   8   0.0254   0.0309   0.0220  -0.0117  -0.0182   0.0066   0.00    1.9
2173 253749.000    456195.3716  -4939807.8295   3995772.2717   2   8   0.0253   0.0308   0.0219  -0.0117  -0.0181   0.0065   0.00    1.9
2173 253750.000    456195.3664  -4939807.8206   3995772.2648   2   8   0.0253   0.0307   0.0218  -0.0117  -0.0181   0.0066   0.00    1.9
2173 253751.000    456195.3639  -4939807.8249   3995772.2642   2   8   0.0253   0.0306   0.0218  -0.0115  -0.0180   0.0064   0.00    1.9
2173 253752.000    456195.3585  -4939807.8175   3995772.2598   2   8   0.0252   0.0305   0.0217  -0.0116  -0.0180   0.0065   0.00    1.9
2173 253753.000    456195.3566  -4939807.8100   3995772.2554   2   8   0.0252   0.0304   0.0216  -0.0116  -0.0179   0.0064   0.00    1.9
2173 253754.000    456195.3539  -4939807.8087   3995772.2484   2   8   0.0251   0.0303   0.0216  -0.0116  -0.0179   0.0064   0.00    2.0
2173 253755.000    456195.3502  -4939807.8037   3995772.2443   2   8   0.0251   0.0303   0.0215  -0.0116  -0.0178   0.0063   0.00    2.0
2173 253756.000    456195.3603  -4939807.8157   3995772.2482   2   8   0.0251   0.0302   0.0214  -0.0115  -0.0178   0.0061   0.00    2.0
2173 253757.000    456195.3586  -4939807.8122   3995772.2417   2   8   0.0250   0.0301   0.0213  -0.0114  -0.0177   0.0061   0.00    2.0
2173 253758.000    456195.3561  -4939807.8105   3995772.2398   2   8   0.0250   0.0300   0.0213  -0.0114  -0.0176   0.0062   0.00    2.0
2173 253759.000    456195.3554  -4939807.8085   3995772.2423   2   8   0.0249   0.0299   0.0212  -0.0114  -0.0176   0.0060   0.00    2.0
2173 253760.000    456195.3544  -4939807.8098   3995772.2429   2   8   0.0249   0.0298   0.0211  -0.0114  -0.0175   0.0061   0.00    2.0
2173 253761.000    456195.3496  -4939807.8037   3995772.2378   2   8   0.0248   0.0297   0.0211  -0.0114  -0.0175   0.0058   0.00    2.0
2173 253762.000    456195.3455  -4939807.7984   3995772.2311   2   8   0.0248   0.0296   0.0210  -0.0113  -0.0174   0.0059   0.00    2.0
2173 253763.000    456195.3447  -4939807.7976   3995772.2273   2   8   0.0248   0.0295   0.0209  -0.0112  -0.0174   0.0056   0.00    2.0
2173 253764.000    456195.3428  -4939807.7996   3995772.2267   2   8   0.0247   0.0294   0.0209  -0.0112  -0.0173   0.0057   0.00    2.0
2173 253765.000    456195.3395  -4939807.7930   3995772.2234   2   8   0.0246   0.0293   0.0207  -0.0111  -0.0173   0.0058   0.00    2.1
2173 253766.000    456195.3419  -4939807.7933   3995772.2244   2   8   0.0246   0.0292   0.0207  -0.0111  -0.0172   0.0056   0.00    2.1
2173 253767.000    456195.3369  -4939807.7863   3995772.2196   2   8   0.0245   0.0291   0.0207  -0.0111  -0.0172   0.0055   0.00    2.1
2173 253768.000    456195.3349  -4939807.7829   3995772.2145   2   8   0.0245   0.0291   0.0206  -0.0112  -0.0171   0.0057   0.00    2.1
2173 253769.000    456195.3353  -4939807.7817   3995772.2154   2   8   0.0245   0.0290   0.0206  -0.0109  -0.0171   0.0054   0.00    2.1
2173 253770.000    456195.3298  -4939807.7738   3995772.2110   2   8   0.0245   0.0289   0.0204  -0.0110  -0.0170   0.0054   0.00    2.1
2173 253771.000    456195.3265  -4939807.7657   3995772.2055   2   8   0.0245   0.0288   0.0204  -0.0111  -0.0170   0.0053   0.00    2.1
2173 253772.000    456195.3241  -4939807.7655   3995772.2036   2   8   0.0244   0.0287   0.0203  -0.0110  -0.0169   0.0054   0.00    2.1
2173 253773.000    456195.3213  -4939807.7632   3995772.2003   2   8   0.0244   0.0287   0.0203  -0.0109  -0.0169   0.0053   0.00    2.1
2173 253774.000    456195.3187  -4939807.7585   3995772.1977   2   8   0.0243   0.0286   0.0202  -0.0109  -0.0168   0.0053   0.00    2.2
2173 253775.000    456195.3171  -4939807.7561   3995772.1972   2   8   0.0243   0.0285   0.0202  -0.0109  -0.0168   0.0050   0.00    2.2
2173 253776.000    456195.3131  -4939807.7504   3995772.1928   2   8   0.0242   0.0284   0.0201  -0.0108  -0.0167   0.0051   0.00    2.2
2173 253777.000    456195.3088  -4939807.7495   3995772.1907   2   8   0.0242   0.0283   0.0200  -0.0109  -0.0167   0.0052   0.00    2.2
2173 253778.000    456195.3086  -4939807.7464   3995772.1872   2   8   0.0242   0.0282   0.0200  -0.0107  -0.0166   0.0049   0.00    2.2
2173 253779.000    456195.3065  -4939807.7435   3995772.1861   2   8   0.0241   0.0281   0.0199  -0.0108  -0.0166   0.0049   0.00    2.2
2173 253780.000    456195.3005  -4939807.7376   3995772.1822   2   8   0.0241   0.0281   0.0198  -0.0108  -0.0165   0.0049   0.00    2.2
2173 253781.000    456195.2985  -4939807.7361   3995772.1774   2   8   0.0240   0.0280   0.0197  -0.0107  -0.0165   0.0048   0.00    2.3
2173 253782.000    456195.2975  -4939807.7333   3995772.1789   2   8   0.0240   0.0279   0.0197  -0.0108  -0.0164   0.0048   0.00    2.3
2173 253783.000    456195.2926  -4939807.7315   3995772.1764   2   8   0.0239   0.0278   0.0196  -0.0107  -0.0164   0.0050   0.00    2.3
2173 253784.000    456195.2911  -4939807.7264   3995772.1726   2   8   0.0239   0.0278   0.0195  -0.0106  -0.0164   0.0047   0.00    2.3
2173 253785.000    456195.2870  -4939807.7224   3995772.1675   2   8   0.0239   0.0277   0.0196  -0.0106  -0.0163   0.0046   0.00    2.3
2173 253786.000    456195.2838  -4939807.7196   3995772.1665   2   8   0.0239   0.0276   0.0195  -0.0106  -0.0163   0.0043   0.00    2.3
2173 253787.000    456195.2798  -4939807.7177   3995772.1599   2   8   0.0238   0.0275   0.0195  -0.0105  -0.0162   0.0043   0.00    2.3
2173 253788.000    456195.2786  -4939807.7150   3995772.1595   2   8   0.0238   0.0275   0.0194  -0.0105  -0.0162   0.0043   0.00    2.3
2173 253789.000    456195.2768  -4939807.7123   3995772.1571   2   8   0.0237   0.0273   0.0193  -0.0106  -0.0161   0.0043   0.00    2.3
2173 253790.000    456195.2744  -4939807.7080   3995772.1552   2   8   0.0237   0.0272   0.0193  -0.0105  -0.0161   0.0042   0.00    2.3
2173 253791.000    456195.2737  -4939807.7074   3995772.1580   2   8   0.0236   0.0272   0.0192  -0.0104  -0.0160   0.0041   0.00    2.3
2173 253792.000    456195.2745  -4939807.6946   3995772.1501   2   8   0.0235   0.0271   0.0191  -0.0104  -0.0159   0.0041   0.00    2.3
2173 253793.000    456195.2691  -4939807.6873   3995772.1475   2   8   0.0236   0.0270   0.0191  -0.0104  -0.0159   0.0040   0.00    2.3
2173 253794.000    456195.2697  -4939807.6863   3995772.1482   2   8   0.0236   0.0270   0.0190  -0.0103  -0.0159   0.0040   0.00    2.3
2173 253795.000    456195.2669  -4939807.6813   3995772.1453   2   8   0.0235   0.0269   0.0190  -0.0103  -0.0158   0.0040   0.00    2.3
2173 253796.000    456195.2656  -4939807.6805   3995772.1397   2   8   0.0234   0.0268   0.0189  -0.0103  -0.0158   0.0040   0.00    2.3
2173 253797.000    456195.2629  -4939807.6753   3995772.1358   2   8   0.0234   0.0267   0.0189  -0.0102  -0.0157   0.0039   0.00    2.3
2173 253798.000    456195.2614  -4939807.6698   3995772.1336   2   8   0.0234   0.0267   0.0188  -0.0102  -0.0157   0.0038   0.00    2.3
2173 253799.000    456195.2589  -4939807.6683   3995772.1325   2   8   0.0233   0.0266   0.0188  -0.0102  -0.0157   0.0036   0.00    2.3
2173 253800.000    456195.2588  -4939807.6661   3995772.1308   2   8   0.0234   0.0265   0.0187  -0.0102  -0.0156   0.0037   0.00    2.3
2173 253801.000    456195.2554  -4939807.6607   3995772.1268   2   8   0.0233   0.0265   0.0187  -0.0101  -0.0156   0.0037   0.00    2.3
2173 253802.000    456195.2541  -4939807.6519   3995772.1242   2   8   0.0233   0.0264   0.0186  -0.0101  -0.0155   0.0035   0.00    2.2
2173 253803.000    456195.2513  -4939807.6487   3995772.1238   2   8   0.0233   0.0263   0.0186  -0.0101  -0.0155   0.0036   0.00    2.2
2173 253804.000    456195.2502  -4939807.6448   3995772.1178   2   8   0.0232   0.0262   0.0185  -0.0101  -0.0154   0.0036   0.00    2.2
2173 253805.000    456195.2491  -4939807.6412   3995772.1161   2   8   0.0231   0.0261   0.0184  -0.0101  -0.0154   0.0036   0.00    2.2
2173 253806.000    456195.2496  -4939807.6411   3995772.1154   2   8   0.0232   0.0261   0.0183  -0.0101  -0.0154   0.0032   0.00    2.2
2173 253807.000    456195.2472  -4939807.6347   3995772.1064   2   8   0.0231   0.0260   0.0183  -0.0101  -0.0153   0.0032   0.00    2.2
2173 253808.000    456195.2440  -4939807.6293   3995772.1071   2   8   0.0231   0.0259   0.0183  -0.0100  -0.0153   0.0031   0.00    2.2
2173 253809.000    456195.2422  -4939807.6283   3995772.1075   2   8   0.0231   0.0259   0.0182  -0.0100  -0.0152   0.0032   0.00    2.2
2173 253810.000    456195.2394  -4939807.6207   3995772.1031   2   8   0.0229   0.0258   0.0182  -0.0100  -0.0152   0.0032   0.00    2.2
2173 253811.000    456195.2392  -4939807.6193   3995772.1023   2   8   0.0229   0.0257   0.0182  -0.0099  -0.0152   0.0031   0.00    2.2
2173 253812.000    456195.2383  -4939807.6194   3995772.0995   2   8   0.0229   0.0257   0.0181  -0.0098  -0.0151   0.0030   0.00    2.2
2173 253813.000    456195.2367  -4939807.6170   3995772.0991   2   8   0.0229   0.0256   0.0180  -0.0099  -0.0151   0.0027   0.00    2.2
2173 253814.000    456195.2355  -4939807.6140   3995772.0986   2   8   0.0229   0.0256   0.0180  -0.0099  -0.0150   0.0028   0.00    2.2
2173 253815.000    456195.2342  -4939807.6132   3995772.0978   2   8   0.0228   0.0255   0.0179  -0.0097  -0.0150   0.0028   0.00    2.2
2173 253816.000    456195.2284  -4939807.6045   3995772.0950   2   8   0.0228   0.0254   0.0179  -0.0098  -0.0150   0.0027   0.00    2.2
2173 253817.000    456195.2287  -4939807.6048   3995772.0941   2   8   0.0228   0.0253   0.0178  -0.0098  -0.0149   0.0029   0.00    2.1
2173 253818.000    456195.2319  -4939807.6110   3995772.0947   2   8   0.0227   0.0252   0.0178  -0.0097  -0.0149   0.0024   0.00    2.2
2173 253819.000    456195.2286  -4939807.6085   3995772.0878   2   8   0.0227   0.0252   0.0177  -0.0099  -0.0148   0.0027   0.00    2.2
2173 253820.000    456195.2251  -4939807.6126   3995772.0886   2   8   0.0227   0.0252   0.0177  -0.0098  -0.0148   0.0026   0.00    2.2
2173 253821.000    456195.2214  -4939807.6088   3995772.0796   2   8   0.0227   0.0251   0.0177  -0.0097  -0.0147   0.0022   0.00    2.2
2173 253822.000    456195.2186  -4939807.6076   3995772.0765   2   8   0.0226   0.0250   0.0176  -0.0098  -0.0147   0.0025   0.00    2.2
2173 253823.000    456195.2176  -4939807.6101   3995772.0696   2   8   0.0226   0.0250   0.0176  -0.0098  -0.0146   0.0024   0.00    2.2
2173 253824.000    456195.2139  -4939807.6032   3995772.0656   2   8   0.0225   0.0248   0.0175  -0.0095  -0.0147   0.0021   0.00    2.2
2173 253825.000    456195.2089  -4939807.6049   3995772.0599   2   8   0.0225   0.0248   0.0174  -0.0097  -0.0146   0.0021   0.00    2.2
2173 253826.000    456195.2079  -4939807.5990   3995772.0558   2   8   0.0225   0.0248   0.0174  -0.0095  -0.0146   0.0016   0.00    2.2
2173 253827.000    456195.2064  -4939807.6000   3995772.0503   2   8   0.0224   0.0247   0.0174  -0.0094  -0.0145   0.0018   0.00    2.2
2173 253828.000    456195.2017  -4939807.5961   3995772.0456   2   8   0.0224   0.0246   0.0174  -0.0095  -0.0145   0.0021   0.00    2.2
2173 253829.000    456195.2010  -4939807.5936   3995772.0429   2   8   0.0224   0.0245   0.0172  -0.0095  -0.0145   0.0017   0.00    2.2
2173 253830.000    456195.2005  -4939807.5942   3995772.0448   2   8   0.0223   0.0244   0.0173  -0.0094  -0.0144   0.0021   0.00    2.2
2173 253831.000    456195.1966  -4939807.5891   3995772.0396   2   8   0.0223   0.0244   0.0172  -0.0094  -0.0144   0.0017   0.00    2.2
2173 253832.000    456195.1938  -4939807.5892   3995772.0375   2   8   0.0223   0.0244   0.0171  -0.0096  -0.0144   0.0017   0.00    2.2
2173 253833.000    456195.1942  -4939807.5855   3995772.0365   2   8   0.0222   0.0243   0.0171  -0.0096  -0.0143   0.0018   0.00    2.2
2173 253834.000    456195.1874  -4939807.5837   3995772.0301   2   8   0.0222   0.0243   0.0171  -0.0094  -0.0142   0.0018   0.00    2.2
2173 253835.000    456195.1863  -4939807.5775   3995772.0231   2   8   0.0223   0.0242   0.0170  -0.0093  -0.0142   0.0013   0.00    2.2
2173 253836.000    456195.1838  -4939807.5758   3995772.0183   2   8   0.0222   0.0241   0.0170  -0.0094  -0.0142   0.0018   0.00    2.2
2173 253837.000    456195.1828  -4939807.5718   3995772.0181   2   8   0.0221   0.0241   0.0169  -0.0094  -0.0142   0.0011   0.00    2.2
2173 253838.000    456195.1805  -4939807.5696   3995772.0082   2   8   0.0221   0.0240   0.0169  -0.0093  -0.0141   0.0012   0.00    2.2
2173 253839.000    456195.1786  -4939807.5701   3995772.0009   2   8   0.0220   0.0239   0.0168  -0.0094  -0.0141   0.0012   0.00    2.2
2173 253840.000    456195.1766  -4939807.5636   3995771.9948   2   8   0.0220   0.0239   0.0168  -0.0092  -0.0141  -0.0008   0.00    2.2
2173 253841.000    456195.1737  -4939807.5633   3995771.9897   2   8   0.0220   0.0238   0.0168  -0.0092  -0.0140   0.0013   0.00    2.2
2173 253842.000    456195.1702  -4939807.5594   3995771.9848   2   8   0.0220   0.0238   0.0168  -0.0092  -0.0140  -0.0010   0.00    2.2
2173 253843.000    456195.1674  -4939807.5607   3995771.9795   2   8   0.0220   0.0237   0.0167  -0.0092  -0.0140  -0.0013   0.00    2.2
2173 253844.000    456195.1636  -4939807.5594   3995771.9728   2   8   0.0219   0.0236   0.0167  -0.0091  -0.0139   0.0010   0.00    2.2
2173 253845.000    456195.1633  -4939807.5561   3995771.9725   2   8   0.0219   0.0236   0.0166  -0.0091  -0.0139  -0.0008   0.00    2.2
2173 253846.000    456195.1587  -4939807.5521   3995771.9688   2   8   0.0219   0.0235   0.0166  -0.0092  -0.0138  -0.0002   0.00    2.2
2173 253847.000    456195.1567  -4939807.5538   3995771.9651   2   8   0.0218   0.0235   0.0165  -0.0091  -0.0138  -0.0006   0.00    2.3
2173 253848.000    456195.1596  -4939807.5438   3995771.9588   2   8   0.0219   0.0234   0.0165  -0.0091  -0.0138  -0.0013   0.00    2.3
2173 253849.000    456195.1548  -4939807.5412   3995771.9529   2   8   0.0218   0.0234   0.0165  -0.0090  -0.0138  -0.0012   0.00    2.3
2173 253850.000    456195.1538  -4939807.5430   3995771.9465   2   8   0.0217   0.0234   0.0164  -0.0091  -0.0137  -0.0009   0.00    2.3
2173 253851.000    456195.1507  -4939807.5363   3995771.9406   2   8   0.0217   0.0232   0.0164  -0.0090  -0.0136  -0.0007   0.00    2.3
2173 253852.000    456195.1481  -4939807.5334   3995771.9347   2   8   0.0217   0.0232   0.0164  -0.0091  -0.0136  -0.0017   0.00    2.3
2173 253853.000    456195.1433  -4939807.5321   3995771.9282   2   8   0.0217   0.0232   0.0164  -0.0091  -0.0136  -0.0015   0.00    2.3
2173 253854.000    456195.1387  -4939807.5293   3995771.9233   2   8   0.0217   0.0231   0.0163  -0.0090  -0.0136  -0.0023   0.00    2.3
2173 253855.000    456195.1384  -4939807.5216   3995771.9169   2   8   0.0216   0.0230   0.0162  -0.0090  -0.0135  -0.0013   0.00    2.3
2173 253856.000    456195.1349  -4939807.5187   3995771.9097   2   8   0.0216   0.0230   0.0162  -0.0090  -0.0135  -0.0020   0.00    2.3
2173 253857.000    456195.1295  -4939807.5132   3995771.9039   2   8   0.0215   0.0229   0.0161  -0.0090  -0.0134  -0.0016   0.00    2.3
2173 253858.000    456195.1291  -4939807.5122   3995771.9030   2   8   0.0215   0.0229   0.0161  -0.0089  -0.0134  -0.0018   0.00    2.3
