% program   : rnx2rtkp ver.2.4.3 b31
% inp file  : ngs/21_09_01_12_13_08_gacc.obs
% inp file  : ngs/21_09_01_12_13_08_gacc_P1.obs
% inp file  : ngs/21_09_01_12_13_08_brdc.nav
% obs start : 2021/09/01 12:00:00.0 GPST (week2173 302400.0s)
% obs end   : 2021/09/01 12:59:59.0 GPST (week2173 305999.0s)
% ref pos   :   707044.5370  -5282210.9460   3492594.8140
%
% (x/y/z-ecef=WGS84,Q=1:fix,2:float,3:sbas,4:dgps,5:single,6:ppp,ns=# of satellites)
%  GPST              x-ecef(m)      y-ecef(m)      z-ecef(m)   Q  ns   sdx(m)   sdy(m)   sdz(m)  sdxy(m)  sdyz(m)  sdzx(m) age(s)  ratio
2173 303163.000    728280.0592  -5271276.9483   3504619.8713   2   7   0.4726   1.0322   0.7221  -0.3909  -0.6551   0.1031 -30.00    2.5
2173 303164.000    728279.6598  -5271277.0627   3504619.8442   1   7   0.0219   0.0436   0.0421  -0.0125  -0.0320  -0.0113 -29.00    3.1
2173 303165.000    728279.6591  -5271277.0638   3504619.8432   1   7   0.0212   0.0422   0.0407  -0.0121  -0.0309  -0.0109 -28.00    3.2
2173 303166.000    728280.0676  -5271277.4888   3504620.0549   2   7   0.2391   0.5230   0.3647  -0.1986  -0.3315   0.0537 -27.00    2.7
2173 303167.000    728280.1004  -5271277.5338   3504620.1158   2   7   0.2142   0.4684   0.3266  -0.1779  -0.2969   0.0480 -26.00    2.4
2173 303168.000    728280.1210  -5271277.6176   3504620.1662   2   7   0.1957   0.4280   0.2985  -0.1625  -0.2712   0.0439 -25.00    2.2
2173 303169.000    728280.1369  -5271277.6713   3504620.1811   2   7   0.1813   0.3965   0.2765  -0.1506  -0.2513   0.0406 -24.00    2.0
2173 303170.000    728280.1205  -5271277.6721   3504620.1691   2   7   0.1697   0.3711   0.2588  -0.1410  -0.2352   0.0380 -23.00    2.2
2173 303171.000    728280.1060  -5271277.6827   3504620.1817   2   7   0.1601   0.3501   0.2441  -0.1330  -0.2218   0.0359 -22.00    2.2
2173 303172.000    728280.0921  -5271277.6802   3504620.1951   2   7   0.1519   0.3322   0.2316  -0.1262  -0.2104   0.0341 -21.00    2.3
2173 303173.000    728280.0649  -5271277.6891   3504620.2407   2   7   0.1448   0.3168   0.2209  -0.1204  -0.2007   0.0325 -20.00    2.4
2173 303174.000    728280.0553  -5271277.7289   3504620.2796   2   7   0.1387   0.3034   0.2114  -0.1153  -0.1921   0.0312 -19.00    2.4
2173 303175.000    728280.0486  -5271277.7316   3504620.2922   2   7   0.1333   0.2915   0.2031  -0.1108  -0.1846   0.0300 -18.00    2.5
2173 303176.000    728280.0487  -5271277.7293   3504620.2961   2   7   0.1284   0.2809   0.1957  -0.1068  -0.1778   0.0290 -17.00    2.5
2173 303177.000    728280.0440  -5271277.7406   3504620.3293   2   7   0.1240   0.2713   0.1889  -0.1032  -0.1717   0.0281 -16.00    2.5
2173 303178.000    728280.0560  -5271277.7658   3504620.3407   2   7   0.1201   0.2627   0.1829  -0.0999  -0.1662   0.0273 -15.00    2.5
2173 303179.000    728280.0659  -5271277.7773   3504620.3490   2   7   0.1165   0.2548   0.1773  -0.0970  -0.1612   0.0266 -14.00    2.6
2173 303180.000    728280.0610  -5271277.7442   3504620.3484   2   7   0.1132   0.2476   0.1722  -0.0942  -0.1566   0.0259 -13.00    2.7
2173 303181.000    728280.0615  -5271277.7468   3504620.3623   2   7   0.1101   0.2409   0.1675  -0.0917  -0.1524   0.0253 -12.00    2.8
2173 303182.000    728280.0560  -5271277.7387   3504620.3612   2   7   0.1073   0.2348   0.1632  -0.0894  -0.1485   0.0247 -11.00    3.0
2173 303183.000    728279.6629  -5271277.0457   3504619.8234   1   7   0.0090   0.0184   0.0161  -0.0056  -0.0128  -0.0037 -10.00    3.1
2173 303184.000    728279.6626  -5271277.0423   3504619.8221   1   7   0.0084   0.0172   0.0148  -0.0053  -0.0119  -0.0034  -9.00    3.3
2173 303185.000    728279.6636  -5271277.0425   3504619.8230   1   7   0.0078   0.0161   0.0136  -0.0050  -0.0111  -0.0028  -8.00    3.3
2173 303186.000    728279.6649  -5271277.0378   3504619.8195   1   7   0.0072   0.0151   0.0124  -0.0048  -0.0102  -0.0025  -7.00    3.4
2173 303187.000    728279.6648  -5271277.0359   3504619.8189   1   7   0.0066   0.0141   0.0113  -0.0045  -0.0095  -0.0021  -6.00    3.4
2173 303188.000    728279.6661  -5271277.0379   3504619.8197   1   7   0.0061   0.0132   0.0102  -0.0043  -0.0087  -0.0013  -5.00    3.3
2173 303189.000    728279.6693  -5271277.0371   3504619.8182   1   7   0.0057   0.0123   0.0092  -0.0042  -0.0081   0.0006  -4.00    3.3
2173 303190.000    728279.6678  -5271277.0366   3504619.8164   1   7   0.0052   0.0116   0.0084  -0.0041  -0.0075  -0.0008  -3.00    3.2
2173 303191.000    728279.6702  -5271277.0365   3504619.8128   1   7   0.0049   0.0110   0.0077  -0.0041  -0.0071   0.0017  -2.00    3.2
2173 303192.000    728279.6697  -5271277.0372   3504619.8164   1   7   0.0050   0.0106   0.0076  -0.0043  -0.0066  -0.0015  -1.00    3.1
2173 303193.000    728279.6704  -5271277.0368   3504619.8169   1   7   0.0048   0.0105   0.0072  -0.0039  -0.0066   0.0006   0.00    3.1
2173 303194.000    728279.9646  -5271276.9623   3504620.5476   2   7   0.4723   1.0336   0.7194  -0.3935  -0.6529   0.1067   0.00    2.4
2173 303195.000    728279.9730  -5271276.7535   3504620.5648   2   7   0.4723   1.0336   0.7194  -0.3936  -0.6528   0.1068   0.00    1.6
2173 303196.000    728280.0313  -5271277.3442   3504620.8329   2   7   0.4723   1.0337   0.7193  -0.3937  -0.6528   0.1069   0.00    1.9
2173 303197.000    728279.8233  -5271276.7334   3504620.3863   2   7   0.4723   1.0338   0.7193  -0.3938  -0.6527   0.1070   0.00    2.8
2173 303198.000    728280.0286  -5271277.3519   3504620.3100   2   7   0.4723   1.0339   0.7192  -0.3939  -0.6527   0.1071   0.00    2.8
2173 303199.000    728279.6718  -5271277.0415   3504619.8162   1   7   0.0048   0.0105   0.0073  -0.0040  -0.0066   0.0011   0.00    3.1
2173 303200.000    728279.9135  -5271277.3296   3504620.2503   2   7   0.4723   1.0341   0.7191  -0.3940  -0.6526   0.1073   0.00    2.7
2173 303201.000    728279.9196  -5271277.4715   3504620.5154   2   7   0.4723   1.0342   0.7191  -0.3941  -0.6526   0.1074   0.00    2.5
2173 303202.000    728279.6673  -5271277.0265   3504619.8120   1   7   0.0048   0.0105   0.0073  -0.0040  -0.0066   0.0011   0.00    3.8
2173 303203.000    728279.6725  -5271277.0308   3504619.8109   1   7   0.0048   0.0105   0.0072  -0.0040  -0.0066   0.0012   0.00    3.1
2173 303204.000    728279.6729  -5271277.0359   3504619.8173   1   7   0.0048   0.0105   0.0072  -0.0040  -0.0066   0.0012   0.00    3.6
2173 303205.000    728279.6715  -5271277.0363   3504619.8146   1   7   0.0048   0.0105   0.0072  -0.0040  -0.0066   0.0012   0.00    3.3
2173 303206.000    728279.6705  -5271277.0286   3504619.8145   1   7   0.0048   0.0105   0.0072  -0.0040  -0.0066   0.0012   0.00    3.4
2173 303207.000    728279.6699  -5271277.0272   3504619.8119   1   7   0.0048   0.0105   0.0072  -0.0040  -0.0066   0.0012   0.00    3.0
2173 303208.000    728279.6728  -5271277.0335   3504619.8158   1   7   0.0048   0.0105   0.0072  -0.0040  -0.0066   0.0012   0.00    3.1
2173 303209.000    728279.6733  -5271277.0343   3504619.8118   1   7   0.0048   0.0105   0.0072  -0.0040  -0.0066   0.0012   0.00    3.3
2173 303210.000    728279.6709  -5271277.0313   3504619.8128   1   7   0.0048   0.0105   0.0072  -0.0040  -0.0066   0.0012   0.00    3.3
2173 303211.000    728279.6746  -5271277.0372   3504619.8155   1   7   0.0048   0.0105   0.0072  -0.0040  -0.0066   0.0012   0.00    3.5
2173 303212.000    728279.6728  -5271277.0376   3504619.8154   1   7   0.0048   0.0105   0.0072  -0.0040  -0.0066   0.0012   0.00    4.0
2173 303213.000    728279.6718  -5271277.0355   3504619.8151   1   7   0.0048   0.0105   0.0072  -0.0040  -0.0066   0.0012   0.00    3.1
2173 303214.000    728279.6703  -5271277.0304   3504619.8115   1   7   0.0048   0.0105   0.0072  -0.0040  -0.0066   0.0012   0.00    3.9
2173 303215.000    728279.6673  -5271277.0286   3504619.8118   1   7   0.0048   0.0105   0.0072  -0.0040  -0.0066   0.0012   0.00    3.4
2173 303216.000    728279.6699  -5271277.0290   3504619.8095   1   7   0.0048   0.0105   0.0072  -0.0040  -0.0066   0.0012   0.00    3.1
2173 303217.000    728279.6702  -5271277.0280   3504619.8122   1   7   0.0048   0.0105   0.0072  -0.0040  -0.0066   0.0012   0.00    3.6
2173 303218.000    728279.6719  -5271277.0310   3504619.8130   1   7   0.0048   0.0105   0.0072  -0.0040  -0.0066   0.0012   0.00    3.1
2173 303219.000    728279.6715  -5271277.0339   3504619.8137   1   7   0.0048   0.0105   0.0072  -0.0040  -0.0066   0.0012   0.00    3.6
2173 303220.000    728279.6672  -5271277.0209   3504619.8114   1   7   0.0048   0.0105   0.0072  -0.0040  -0.0066   0.0012   0.00    3.5
2173 303221.000    728278.9339  -5271276.2972   3504619.9099   2   7   0.4725   1.0359   0.7182  -0.3959  -0.6517   0.1092   0.00    2.8
2173 303222.000    728279.6711  -5271277.0350   3504619.8144   1   7   0.0048   0.0105   0.0072  -0.0040  -0.0066   0.0012   0.00    3.5
2173 303223.000    728279.6674  -5271277.0259   3504619.8109   1   7   0.0048   0.0105   0.0072  -0.0040  -0.0066   0.0012   0.00    3.4
2173 303224.000    728279.6670  -5271277.0276   3504619.8119   1   7   0.0048   0.0105   0.0072  -0.0040  -0.0066   0.0012   0.00    3.6
2173 303225.000    728279.2924  -5271277.2030   3504619.7041   2   7   0.4725   1.0362   0.7180  -0.3962  -0.6515   0.1096   0.00    2.8
2173 303226.000    728279.6691  -5271277.0341   3504619.8139   1   7   0.0048   0.0105   0.0072  -0.0040  -0.0066   0.0012   0.00    3.4
2173 303227.000    728279.6701  -5271277.0331   3504619.8124   1   7   0.0048   0.0105   0.0072  -0.0040  -0.0066   0.0012   0.00    4.3
2173 303228.000    728279.6671  -5271277.0256   3504619.8099   1   7   0.0048   0.0105   0.0072  -0.0040  -0.0066   0.0012   0.00    3.6
2173 303229.000    728279.6715  -5271277.0288   3504619.8107   1   7   0.0048   0.0105   0.0072  -0.0040  -0.0066   0.0012   0.00    3.2
2173 303230.000    728279.7172  -5271276.7554   3504619.8307   2   7   0.4726   1.0366   0.7177  -0.3967  -0.6513   0.1100   0.00    2.6
2173 303231.000    728279.7788  -5271276.8763   3504619.8993   2   7   0.4726   1.0367   0.7177  -0.3968  -0.6513   0.1101   0.00    2.6
2173 303232.000    728279.6708  -5271277.0309   3504619.8134   1   7   0.0048   0.0105   0.0072  -0.0040  -0.0066   0.0012   0.00    3.0
2173 303233.000    728279.1805  -5271275.9775   3504619.6442   2   7   0.4726   1.0369   0.7176  -0.3969  -0.6512   0.1103   0.00    2.5
2173 303234.000    728279.2608  -5271276.0874   3504619.8636   2   7   0.4726   1.0370   0.7176  -0.3970  -0.6512   0.1104   0.00    2.4
2173 303235.000    728279.2984  -5271276.1052   3504619.8602   2   7   0.4726   1.0371   0.7175  -0.3971  -0.6511   0.1104   0.00    2.8
2173 303236.000    728279.6702  -5271277.0267   3504619.8100   1   7   0.0048   0.0105   0.0072  -0.0041  -0.0066   0.0012   0.00    3.2
2173 303237.000    728279.6686  -5271277.0268   3504619.8094   1   7   0.0048   0.0105   0.0072  -0.0041  -0.0066   0.0012   0.00    3.0
2173 303238.000    728279.6708  -5271277.0276   3504619.8104   1   7   0.0048   0.0105   0.0072  -0.0041  -0.0066   0.0012   0.00    3.8
2173 303239.000    728279.6729  -5271277.0364   3504619.8123   1   7   0.0048   0.0105   0.0072  -0.0041  -0.0066   0.0012   0.00    3.0
2173 303240.000    728279.3425  -5271275.7241   3504619.4988   2   7   0.4727   1.0375   0.7173  -0.3976  -0.6509   0.1109   0.00    2.1
2173 303241.000    728279.6706  -5271277.0282   3504619.8083   1   7   0.0048   0.0105   0.0072  -0.0041  -0.0066   0.0012   0.00    3.1
2173 303242.000    728279.3751  -5271276.4559   3504619.8554   2   7   0.4727   1.0377   0.7172  -0.3977  -0.6508   0.1111   0.00    2.6
2173 303243.000    728279.5827  -5271276.8086   3504619.8808   2   7   0.4727   1.0378   0.7172  -0.3978  -0.6508   0.1112   0.00    2.6
2173 303244.000    728279.6062  -5271277.2109   3504620.1077   2   7   0.4727   1.0379   0.7171  -0.3979  -0.6507   0.1112   0.00    2.7
2173 303245.000    728279.8125  -5271277.5186   3504620.3611   2   7   0.4727   1.0379   0.7171  -0.3980  -0.6507   0.1113   0.00    2.7
2173 303246.000    728280.0107  -5271277.8031   3504620.4669   2   7   0.4727   1.0380   0.7170  -0.3981  -0.6506   0.1114   0.00    2.1
2173 303247.000    728280.0522  -5271277.9855   3504620.3204   2   7   0.4727   1.0381   0.7170  -0.3982  -0.6506   0.1115   0.00    2.9
2173 303248.000    728279.6807  -5271277.0530   3504619.8194   1   6   0.0053   0.0115   0.0075  -0.0052  -0.0072   0.0024   0.00    6.3
2173 303249.000    728279.6773  -5271277.0509   3504619.8194   1   6   0.0053   0.0115   0.0075  -0.0052  -0.0072   0.0024   0.00    5.9
2173 303250.000    728279.6779  -5271277.0525   3504619.8204   1   6   0.0053   0.0115   0.0075  -0.0052  -0.0072   0.0024   0.00    7.2
2173 303251.000    728279.6779  -5271277.0509   3504619.8187   1   6   0.0053   0.0115   0.0075  -0.0052  -0.0072   0.0024   0.00    4.4
2173 303252.000    728279.6767  -5271277.0515   3504619.8193   1   6   0.0053   0.0115   0.0075  -0.0052  -0.0072   0.0024   0.00    5.6
2173 303253.000    728279.8862  -5271277.2287   3504620.6874   2   7   0.4728   1.0387   0.7167  -0.3987  -0.6503   0.1120   0.00    2.5
2173 303254.000    728279.4268  -5271275.9747   3504620.0170   2   7   0.4693   1.0346   0.7158  -0.3921  -0.6478   0.1027   0.00    2.2
2173 303255.000    728279.4560  -5271276.5112   3504620.3739   2   7   0.4680   1.0331   0.7154  -0.3896  -0.6468   0.0991   0.00    2.5
2173 303256.000    728279.2773  -5271276.2655   3504620.0540   2   7   0.4673   1.0324   0.7152  -0.3884  -0.6463   0.0972   0.00    2.9
2173 303257.000    728279.5910  -5271276.1585   3504620.0462   2   7   0.4669   1.0320   0.7150  -0.3877  -0.6459   0.0960   0.00    1.9
2173 303258.000    728279.5494  -5271276.6397   3504620.1409   2   7   0.4667   1.0318   0.7149  -0.3872  -0.6457   0.0953   0.00    2.6
2173 303259.000    728279.5671  -5271276.7586   3504620.1244   2   7   0.4665   1.0316   0.7148  -0.3869  -0.6455   0.0947   0.00    2.3
2173 303260.000    728279.8945  -5271276.6218   3504619.8706   2   7   0.4663   1.0315   0.7148  -0.3867  -0.6453   0.0944   0.00    1.7
2173 303261.000    728279.7622  -5271276.8037   3504620.2254   2   7   0.4662   1.0314   0.7147  -0.3865  -0.6452   0.0941   0.00    2.1
2173 303262.000    728279.8142  -5271277.1161   3504620.1931   2   7   0.4661   1.0314   0.7146  -0.3864  -0.6451   0.0939   0.00    2.6
2173 303263.000    728279.6946  -5271276.9026   3504620.2038   2   7   0.4660   1.0314   0.7145  -0.3864  -0.6450   0.0938   0.00    2.4
2173 303264.000    728279.6693  -5271277.0393   3504619.8179   1   7   0.0048   0.0106   0.0072  -0.0041  -0.0066   0.0012   0.00    3.2
2173 303265.000    728279.4954  -5271276.6502   3504619.8357   2   7   0.4659   1.0314   0.7144  -0.3863  -0.6448   0.0936   0.00    2.9
2173 303266.000    728279.6712  -5271277.0382   3504619.8177   1   7   0.0048   0.0106   0.0072  -0.0041  -0.0066   0.0012   0.00    3.1
2173 303267.000    728279.5872  -5271276.6873   3504619.6808   2   7   0.4659   1.0315   0.7143  -0.3863  -0.6446   0.0935   0.00    2.1
2173 303268.000    728279.6750  -5271277.0466   3504619.8220   1   6   0.0053   0.0115   0.0075  -0.0052  -0.0072   0.0024   0.00    8.6
2173 303269.000    728279.6779  -5271277.0612   3504619.8267   1   6   0.0053   0.0115   0.0075  -0.0052  -0.0072   0.0024   0.00    5.8
2173 303270.000    728279.6801  -5271277.0587   3504619.8268   1   6   0.0053   0.0115   0.0075  -0.0052  -0.0072   0.0024   0.00    4.0
2173 303271.000    728279.6734  -5271277.0468   3504619.8220   1   6   0.0053   0.0116   0.0075  -0.0053  -0.0072   0.0024   0.00    6.5
2173 303272.000    728279.6732  -5271277.0451   3504619.8225   1   6   0.0053   0.0116   0.0075  -0.0053  -0.0072   0.0024   0.00    4.6
2173 303273.000    728279.6741  -5271277.0473   3504619.8252   1   6   0.0053   0.0116   0.0075  -0.0053  -0.0072   0.0024   0.00    5.6
2173 303274.000    728279.6727  -5271277.0458   3504619.8238   1   6   0.0053   0.0116   0.0075  -0.0053  -0.0072   0.0024   0.00    4.0
2173 303275.000    728279.6716  -5271277.0454   3504619.8222   1   6   0.0053   0.0116   0.0075  -0.0053  -0.0072   0.0024   0.00    7.3
2173 303276.000    728279.6732  -5271277.0473   3504619.8227   1   6   0.0053   0.0116   0.0075  -0.0053  -0.0072   0.0024   0.00    4.9
2173 303277.000    728279.6716  -5271277.0441   3504619.8215   1   6   0.0053   0.0116   0.0075  -0.0053  -0.0072   0.0024   0.00    3.7
2173 303278.000    728279.6705  -5271277.0430   3504619.8238   1   6   0.0053   0.0116   0.0075  -0.0053  -0.0072   0.0024   0.00    3.1
2173 303279.000    728279.6710  -5271277.0398   3504619.8204   1   6   0.0053   0.0116   0.0075  -0.0053  -0.0072   0.0024   0.00    5.5
2173 303280.000    728279.6728  -5271277.0468   3504619.8219   1   6   0.0063   0.0133   0.0079  -0.0070  -0.0083   0.0038   0.00    5.0
2173 303281.000    728279.6748  -5271277.0479   3504619.8226   1   6   0.0063   0.0133   0.0079  -0.0070  -0.0083   0.0038   0.00    6.2
2173 303282.000    728279.6753  -5271277.0497   3504619.8228   1   6   0.0063   0.0133   0.0079  -0.0070  -0.0083   0.0038   0.00    6.4
2173 303283.000    728279.6759  -5271277.0477   3504619.8233   1   6   0.0063   0.0133   0.0079  -0.0070  -0.0083   0.0038   0.00    5.7
2173 303284.000    728279.6726  -5271277.0429   3504619.8219   1   6   0.0063   0.0133   0.0079  -0.0070  -0.0083   0.0038   0.00    6.5
2173 303285.000    728279.6741  -5271277.0484   3504619.8258   1   6   0.0063   0.0133   0.0079  -0.0070  -0.0083   0.0038   0.00    8.3
2173 303286.000    728279.6728  -5271277.0425   3504619.8224   1   6   0.0063   0.0133   0.0079  -0.0070  -0.0083   0.0038   0.00    8.1
2173 303287.000    728279.6751  -5271277.0511   3504619.8249   1   6   0.0063   0.0133   0.0079  -0.0070  -0.0083   0.0038   0.00    5.4
2173 303288.000    728279.6730  -5271277.0468   3504619.8250   1   6   0.0063   0.0133   0.0079  -0.0070  -0.0083   0.0038   0.00    5.6
2173 303289.000    728279.6718  -5271277.0401   3504619.8207   1   6   0.0063   0.0133   0.0079  -0.0070  -0.0083   0.0038   0.00    7.1
2173 303290.000    728279.6715  -5271277.0415   3504619.8229   1   6   0.0063   0.0133   0.0079  -0.0070  -0.0083   0.0038   0.00    9.2
2173 303291.000    728279.6729  -5271277.0465   3504619.8224   1   6   0.0063   0.0133   0.0079  -0.0070  -0.0083   0.0038   0.00    8.7
2173 303292.000    728279.6736  -5271277.0499   3504619.8244   1   6   0.0063   0.0133   0.0079  -0.0070  -0.0083   0.0038   0.00    9.0
2173 303293.000    728279.6735  -5271277.0469   3504619.8228   1   6   0.0063   0.0133   0.0079  -0.0070  -0.0083   0.0038   0.00    7.1
2173 303294.000    728279.6757  -5271277.0501   3504619.8236   1   6   0.0063   0.0133   0.0079  -0.0070  -0.0083   0.0038   0.00    8.3
2173 303295.000    728279.6741  -5271277.0460   3504619.8239   1   6   0.0063   0.0133   0.0079  -0.0070  -0.0083   0.0038   0.00    8.7
2173 303296.000    728279.6730  -5271277.0424   3504619.8234   1   6   0.0063   0.0133   0.0079  -0.0070  -0.0083   0.0038   0.00    4.9
2173 303297.000    728279.6737  -5271277.0476   3504619.8211   1   6   0.0063   0.0133   0.0079  -0.0071  -0.0083   0.0038   0.00    7.0
2173 303298.000    728279.6727  -5271277.0469   3504619.8221   1   6   0.0063   0.0133   0.0079  -0.0071  -0.0083   0.0038   0.00    6.3
2173 303299.000    728279.6723  -5271277.0527   3504619.8234   1   6   0.0063   0.0133   0.0079  -0.0071  -0.0083   0.0038   0.00    5.2
2173 303300.000    728279.6762  -5271277.0614   3504619.8277   1   6   0.0063   0.0133   0.0079  -0.0071  -0.0083   0.0038   0.00    3.2
2173 303301.000    728279.6741  -5271277.0490   3504619.8230   1   6   0.0063   0.0133   0.0079  -0.0071  -0.0083   0.0038   0.00    3.2
2173 303302.000    728279.6767  -5271277.0529   3504619.8233   1   6   0.0063   0.0133   0.0079  -0.0071  -0.0083   0.0038   0.00    3.2
2173 303303.000    728280.0241  -5271278.6791   3504621.1361   2   6   0.6222   1.3128   0.7821  -0.6959  -0.8208   0.3767   0.00    3.0
2173 303304.000    728280.1298  -5271279.1771   3504621.2022   2   6   0.6222   1.3129   0.7820  -0.6960  -0.8208   0.3768   0.00    2.7
2173 303305.000    728280.3862  -5271279.4362   3504621.2228   2   6   0.6222   1.3131   0.7820  -0.6961  -0.8208   0.3769   0.00    2.1
2173 303306.000    728280.3701  -5271279.9283   3504621.3232   2   6   0.6222   1.3132   0.7820  -0.6962  -0.8208   0.3769   0.00    1.7
2173 303307.000    728280.1634  -5271279.4558   3504620.9578   2   6   0.6223   1.3134   0.7820  -0.6963  -0.8208   0.3770   0.00    2.7
2173 303308.000    728280.0731  -5271279.5859   3504620.9103   2   6   0.6223   1.3135   0.7819  -0.6964  -0.8208   0.3770   0.00    2.5
2173 303309.000    728279.9658  -5271279.5290   3504621.3070   2   6   0.6223   1.3137   0.7819  -0.6965  -0.8208   0.3771   0.00    2.7
2173 303310.000    728279.6746  -5271277.0601   3504619.8285   1   6   0.0063   0.0134   0.0079  -0.0071  -0.0083   0.0038   0.00    3.1
2173 303311.000    728280.2812  -5271279.2558   3504621.1532   2   6   0.6224   1.3140   0.7818  -0.6967  -0.8208   0.3772   0.00    2.4
2173 303312.000    728280.4917  -5271279.6215   3504621.2446   2   6   0.6224   1.3141   0.7818  -0.6968  -0.8209   0.3772   0.00    2.0
2173 303313.000    728279.6769  -5271277.0589   3504619.8271   1   6   0.0063   0.0134   0.0079  -0.0071  -0.0083   0.0038   0.00    3.8
2173 303314.000    728279.6776  -5271277.0646   3504619.8300   1   6   0.0063   0.0134   0.0079  -0.0071  -0.0083   0.0038   0.00    3.8
2173 303315.000    728279.9348  -5271278.2259   3504621.3180   2   6   0.6225   1.3146   0.7817  -0.6972  -0.8209   0.3774   0.00    2.6
2173 303316.000    728279.9548  -5271278.3084   3504621.3639   2   6   0.6225   1.3147   0.7817  -0.6973  -0.8209   0.3775   0.00    3.0
2173 303317.000    728279.6734  -5271277.0579   3504619.8287   1   6   0.0063   0.0134   0.0079  -0.0071  -0.0083   0.0038   0.00    5.0
2173 303318.000    728279.6755  -5271277.0575   3504619.8304   1   6   0.0063   0.0134   0.0079  -0.0071  -0.0083   0.0038   0.00    8.5
2173 303319.000    728279.6738  -5271277.0577   3504619.8301   1   6   0.0063   0.0134   0.0079  -0.0071  -0.0083   0.0038   0.00    6.1
2173 303320.000    728279.6738  -5271277.0524   3504619.8265   1   6   0.0063   0.0134   0.0079  -0.0071  -0.0083   0.0038   0.00    7.2
2173 303321.000    728279.6728  -5271277.0524   3504619.8263   1   6   0.0063   0.0134   0.0079  -0.0071  -0.0083   0.0038   0.00   11.0
2173 303322.000    728279.6760  -5271277.0579   3504619.8309   1   6   0.0063   0.0134   0.0079  -0.0071  -0.0083   0.0038   0.00    6.7
2173 303323.000    728279.6735  -5271277.0493   3504619.8266   1   6   0.0063   0.0134   0.0079  -0.0071  -0.0083   0.0038   0.00   10.6
2173 303324.000    728279.6749  -5271277.0586   3504619.8291   1   6   0.0063   0.0134   0.0079  -0.0071  -0.0083   0.0038   0.00    9.0
2173 303325.000    728279.6735  -5271277.0529   3504619.8278   1   6   0.0063   0.0134   0.0079  -0.0071  -0.0083   0.0038   0.00    9.0
2173 303326.000    728279.6753  -5271277.0626   3504619.8345   1   6   0.0063   0.0134   0.0079  -0.0071  -0.0083   0.0038   0.00    4.2
2173 303327.000    728279.6743  -5271277.0611   3504619.8287   1   6   0.0063   0.0134   0.0079  -0.0071  -0.0083   0.0038   0.00    4.5
2173 303328.000    728279.6751  -5271277.0639   3504619.8326   1   6   0.0063   0.0134   0.0079  -0.0071  -0.0083   0.0038   0.00    4.4
2173 303329.000    728279.6759  -5271277.0591   3504619.8295   1   6   0.0063   0.0134   0.0079  -0.0071  -0.0083   0.0038   0.00    4.4
2173 303330.000    728279.6745  -5271277.0526   3504619.8287   1   6   0.0063   0.0134   0.0079  -0.0071  -0.0083   0.0038   0.00    4.5
2173 303331.000    728279.6719  -5271277.0481   3504619.8279   1   6   0.0063   0.0134   0.0079  -0.0071  -0.0083   0.0038   0.00    7.0
2173 303332.000    728279.6717  -5271277.0505   3504619.8278   1   6   0.0063   0.0134   0.0079  -0.0071  -0.0083   0.0038   0.00    8.2
2173 303333.000    728279.6721  -5271277.0530   3504619.8283   1   6   0.0063   0.0134   0.0079  -0.0071  -0.0083   0.0038   0.00   13.0
2173 303334.000    728279.6736  -5271277.0562   3504619.8299   1   6   0.0063   0.0134   0.0079  -0.0071  -0.0083   0.0038   0.00    8.8
2173 303335.000    728279.6741  -5271277.0668   3504619.8325   1   6   0.0063   0.0134   0.0079  -0.0071  -0.0083   0.0038   0.00    9.1
2173 303336.000    728279.6723  -5271277.0574   3504619.8302   1   6   0.0063   0.0134   0.0079  -0.0071  -0.0083   0.0038   0.00   14.9
2173 303337.000    728279.6741  -5271277.0634   3504619.8311   1   6   0.0063   0.0134   0.0079  -0.0071  -0.0083   0.0038   0.00   11.4
2173 303338.000    728279.6735  -5271277.0625   3504619.8297   1   6   0.0063   0.0134   0.0079  -0.0071  -0.0083   0.0038   0.00    8.9
2173 303339.000    728279.6763  -5271277.0690   3504619.8346   1   6   0.0063   0.0134   0.0079  -0.0071  -0.0083   0.0038   0.00    5.4
2173 303340.000    728279.6745  -5271277.0565   3504619.8308   1   6   0.0063   0.0134   0.0079  -0.0071  -0.0083   0.0038   0.00    6.6
2173 303341.000    728279.6742  -5271277.0603   3504619.8320   1   6   0.0063   0.0134   0.0079  -0.0071  -0.0083   0.0038   0.00   12.3
2173 303342.000    728279.6738  -5271277.0638   3504619.8309   1   6   0.0063   0.0134   0.0079  -0.0071  -0.0083   0.0038   0.00   13.3
2173 303343.000    728279.6693  -5271277.0462   3504619.8272   1   6   0.0063   0.0134   0.0079  -0.0071  -0.0083   0.0038   0.00   13.5
2173 303344.000    728279.6716  -5271277.0448   3504619.8255   1   6   0.0063   0.0134   0.0079  -0.0071  -0.0083   0.0038   0.00   12.2
2173 303345.000    728279.6721  -5271277.0610   3504619.8313   1   6   0.0063   0.0134   0.0079  -0.0071  -0.0083   0.0038   0.00   14.4
2173 303346.000    728279.6755  -5271277.0629   3504619.8346   1   5   0.0065   0.0159   0.0084  -0.0079  -0.0096   0.0043   0.00   10.3
2173 303347.000    728279.6732  -5271277.0559   3504619.8308   1   6   0.0063   0.0134   0.0079  -0.0071  -0.0083   0.0038   0.00   16.2
2173 303348.000    728279.6727  -5271277.0569   3504619.8324   1   6   0.0063   0.0134   0.0079  -0.0071  -0.0083   0.0038   0.00   24.1
2173 303349.000    728279.6717  -5271277.0596   3504619.8318   1   6   0.0063   0.0134   0.0079  -0.0071  -0.0083   0.0038   0.00   12.4
2173 303350.000    728279.6698  -5271277.0478   3504619.8282   1   6   0.0063   0.0134   0.0079  -0.0071  -0.0083   0.0039   0.00    7.3
2173 303351.000    728279.6702  -5271277.0517   3504619.8286   1   6   0.0063   0.0134   0.0079  -0.0071  -0.0083   0.0039   0.00   15.0
2173 303352.000    728279.6682  -5271277.0475   3504619.8295   1   6   0.0063   0.0134   0.0079  -0.0071  -0.0083   0.0039   0.00   13.4
2173 303353.000    728279.6720  -5271277.0590   3504619.8318   1   6   0.0063   0.0134   0.0079  -0.0071  -0.0083   0.0039   0.00    7.1
2173 303354.000    728279.6679  -5271277.0460   3504619.8265   1   6   0.0063   0.0134   0.0079  -0.0071  -0.0083   0.0039   0.00    7.5
2173 303355.000    728279.6708  -5271277.0488   3504619.8298   1   6   0.0063   0.0134   0.0079  -0.0071  -0.0083   0.0039   0.00   10.7
2173 303356.000    728279.6703  -5271277.0502   3504619.8295   1   6   0.0063   0.0134   0.0079  -0.0071  -0.0083   0.0039   0.00    7.1
2173 303357.000    728279.6723  -5271277.0504   3504619.8278   1   6   0.0063   0.0134   0.0079  -0.0071  -0.0083   0.0039   0.00    8.3
2173 303358.000    728279.6733  -5271277.0591   3504619.8308   1   6   0.0063   0.0134   0.0079  -0.0071  -0.0083   0.0039   0.00    5.1
2173 303359.000    728279.6739  -5271277.0558   3504619.8296   1   6   0.0063   0.0134   0.0079  -0.0071  -0.0083   0.0039   0.00    3.9
2173 303360.000    728279.6725  -5271277.0575   3504619.8311   1   6   0.0063   0.0134   0.0079  -0.0071  -0.0083   0.0039   0.00    3.2
2173 303361.000    728279.6733  -5271277.0520   3504619.8270   1   6   0.0063   0.0134   0.0079  -0.0071  -0.0083   0.0039   0.00    3.6
2173 303362.000    728280.2644  -5271280.7092   3504621.3901   2   6   0.6239   1.3220   0.7804  -0.7023  -0.8212   0.3800   0.00    2.7
2173 303363.000    728280.0275  -5271280.3470   3504621.4478   2   6   0.6239   1.3221   0.7804  -0.7024  -0.8212   0.3800   0.00    2.8
2173 303364.000    728280.2469  -5271279.7633   3504621.3419   2   6   0.6239   1.3223   0.7804  -0.7025  -0.8212   0.3801   0.00    2.7
2173 303365.000    728280.2678  -5271280.4966   3504621.6798   2   6   0.6240   1.3225   0.7803  -0.7026  -0.8212   0.3802   0.00    2.4
2173 303366.000    728280.4189  -5271280.8599   3504621.5764   2   6   0.6240   1.3226   0.7803  -0.7027  -0.8212   0.3802   0.00    2.1
2173 303367.000    728280.2606  -5271280.7130   3504621.5982   2   6   0.6240   1.3228   0.7803  -0.7028  -0.8213   0.3803   0.00    2.2
2173 303368.000    728280.2440  -5271280.5595   3504621.2511   2   6   0.6240   1.3229   0.7802  -0.7030  -0.8213   0.3803   0.00    2.7
2173 303369.000    728279.6716  -5271277.0544   3504619.8301   1   6   0.0063   0.0135   0.0079  -0.0071  -0.0083   0.0039   0.00    3.4
2173 303370.000    728279.6695  -5271277.0557   3504619.8306   1   6   0.0063   0.0135   0.0079  -0.0071  -0.0083   0.0039   0.00    3.3
2173 303371.000    728279.6714  -5271277.0530   3504619.8273   1   6   0.0063   0.0135   0.0079  -0.0071  -0.0083   0.0039   0.00    3.5
2173 303372.000    728279.6691  -5271277.0483   3504619.8271   1   6   0.0063   0.0135   0.0079  -0.0071  -0.0083   0.0039   0.00    4.5
2173 303373.000    728279.6683  -5271277.0407   3504619.8274   1   6   0.0063   0.0135   0.0079  -0.0071  -0.0083   0.0039   0.00    5.3
2173 303374.000    728279.6695  -5271277.0497   3504619.8268   1   6   0.0063   0.0135   0.0079  -0.0071  -0.0083   0.0039   0.00    4.6
2173 303375.000    728279.6702  -5271277.0495   3504619.8271   1   6   0.0063   0.0135   0.0079  -0.0071  -0.0083   0.0039   0.00    3.8
2173 303376.000    728279.6705  -5271277.0473   3504619.8256   1   6   0.0063   0.0135   0.0079  -0.0071  -0.0083   0.0039   0.00    4.1
2173 303377.000    728279.6703  -5271277.0476   3504619.8292   1   6   0.0063   0.0135   0.0079  -0.0071  -0.0083   0.0039   0.00    3.3
2173 303378.000    728280.6757  -5271280.6695   3504621.9749   2   6   0.6243   1.3246   0.7800  -0.7041  -0.8214   0.3809   0.00    2.5
2173 303379.000    728279.6701  -5271277.0472   3504619.8297   1   6   0.0063   0.0135   0.0079  -0.0071  -0.0083   0.0039   0.00    3.2
2173 303380.000    728280.7587  -5271280.4397   3504621.8482   2   6   0.6244   1.3249   0.7799  -0.7043  -0.8214   0.3810   0.00    2.3
2173 303381.000    728280.9845  -5271280.9506   3504621.7643   2   6   0.6244   1.3250   0.7799  -0.7044  -0.8214   0.3810   0.00    2.2
2173 303382.000    728281.0315  -5271280.6976   3504622.1933   2   6   0.6245   1.3252   0.7799  -0.7045  -0.8214   0.3811   0.00    2.0
2173 303383.000    728280.8101  -5271280.3806   3504621.7068   2   6   0.6245   1.3254   0.7798  -0.7046  -0.8214   0.3811   0.00    2.3
2173 303384.000    728280.9942  -5271280.5330   3504621.7643   2   6   0.6245   1.3255   0.7798  -0.7047  -0.8214   0.3812   0.00    2.2
2173 303385.000    728279.6697  -5271277.0463   3504619.8279   1   6   0.0063   0.0135   0.0079  -0.0072  -0.0083   0.0039   0.00    3.0
2173 303386.000    728279.6693  -5271277.0437   3504619.8263   1   6   0.0063   0.0135   0.0079  -0.0072  -0.0083   0.0039   0.00    3.0
2173 303387.000    728279.6692  -5271277.0473   3504619.8295   1   6   0.0063   0.0135   0.0079  -0.0072  -0.0083   0.0039   0.00    3.6
2173 303388.000    728279.6710  -5271277.0534   3504619.8328   1   6   0.0063   0.0135   0.0079  -0.0072  -0.0083   0.0039   0.00    3.8
2173 303389.000    728279.6696  -5271277.0486   3504619.8286   1   6   0.0063   0.0135   0.0079  -0.0072  -0.0083   0.0039   0.00    5.2
2173 303390.000    728279.6690  -5271277.0495   3504619.8337   1   6   0.0063   0.0135   0.0079  -0.0072  -0.0083   0.0039   0.00    5.1
2173 303391.000    728279.6705  -5271277.0490   3504619.8314   1   6   0.0063   0.0135   0.0079  -0.0072  -0.0083   0.0039   0.00    7.7
2173 303392.000    728279.6693  -5271277.0462   3504619.8293   1   6   0.0063   0.0135   0.0079  -0.0072  -0.0083   0.0039   0.00    5.9
2173 303393.000    728279.6715  -5271277.0515   3504619.8325   1   6   0.0063   0.0135   0.0079  -0.0072  -0.0083   0.0039   0.00    5.5
2173 303394.000    728279.6714  -5271277.0492   3504619.8298   1   6   0.0063   0.0135   0.0079  -0.0072  -0.0083   0.0039   0.00    5.8
2173 303395.000    728279.6700  -5271277.0492   3504619.8306   1   6   0.0063   0.0135   0.0079  -0.0072  -0.0083   0.0039   0.00    5.1
2173 303396.000    728279.6690  -5271277.0443   3504619.8293   1   6   0.0063   0.0135   0.0079  -0.0072  -0.0083   0.0039   0.00    4.8
2173 303397.000    728279.6682  -5271277.0404   3504619.8281   1   6   0.0063   0.0135   0.0079  -0.0072  -0.0083   0.0039   0.00    3.8
2173 303398.000    728279.6655  -5271277.0408   3504619.8278   1   6   0.0063   0.0135   0.0079  -0.0072  -0.0083   0.0039   0.00    4.6
2173 303399.000    728279.6662  -5271277.0394   3504619.8279   1   6   0.0063   0.0135   0.0079  -0.0072  -0.0083   0.0039   0.00    3.7
2173 303400.000    728279.6667  -5271277.0441   3504619.8310   1   6   0.0063   0.0135   0.0079  -0.0072  -0.0083   0.0039   0.00    3.8
2173 303401.000    728279.6708  -5271277.0532   3504619.8311   1   6   0.0063   0.0135   0.0079  -0.0072  -0.0083   0.0039   0.00    7.5
2173 303402.000    728279.6678  -5271277.0425   3504619.8303   1   6   0.0063   0.0135   0.0079  -0.0072  -0.0083   0.0039   0.00    5.0
2173 303403.000    728279.6637  -5271277.0343   3504619.8263   1   6   0.0063   0.0135   0.0079  -0.0072  -0.0083   0.0039   0.00    5.0
2173 303404.000    728279.6655  -5271277.0416   3504619.8274   1   6   0.0063   0.0135   0.0079  -0.0072  -0.0083   0.0039   0.00    5.9
2173 303405.000    728279.6617  -5271277.0322   3504619.8273   1   6   0.0063   0.0135   0.0079  -0.0072  -0.0083   0.0039   0.00    4.7
2173 303406.000    728279.6667  -5271277.0436   3504619.8303   1   6   0.0063   0.0135   0.0079  -0.0072  -0.0083   0.0039   0.00    5.7
2173 303407.000    728279.6664  -5271277.0423   3504619.8303   1   6   0.0063   0.0135   0.0079  -0.0072  -0.0083   0.0039   0.00    5.0
2173 303408.000    728279.6662  -5271277.0429   3504619.8314   1   6   0.0063   0.0135   0.0079  -0.0072  -0.0083   0.0039   0.00    5.8
2173 303409.000    728279.6647  -5271277.0351   3504619.8272   1   6   0.0063   0.0135   0.0079  -0.0072  -0.0083   0.0039   0.00    3.9
2173 303410.000    728279.6640  -5271277.0336   3504619.8273   1   6   0.0063   0.0135   0.0079  -0.0072  -0.0083   0.0039   0.00    4.9
2173 303411.000    728279.6644  -5271277.0421   3504619.8267   1   6   0.0063   0.0135   0.0079  -0.0072  -0.0083   0.0039   0.00    8.0
2173 303412.000    728279.6644  -5271277.0415   3504619.8261   1   6   0.0063   0.0135   0.0079  -0.0072  -0.0083   0.0039   0.00    9.5
2173 303413.000    728279.6660  -5271277.0341   3504619.8251   1   6   0.0063   0.0135   0.0079  -0.0072  -0.0083   0.0039   0.00    4.8
2173 303414.000    728279.6647  -5271277.0420   3504619.8297   1   6   0.0063   0.0135   0.0079  -0.0072  -0.0083   0.0039   0.00    8.6
2173 303415.000    728279.6640  -5271277.0271   3504619.8240   1   6   0.0063   0.0135   0.0079  -0.0072  -0.0083   0.0039   0.00    3.8
2173 303416.000    728279.6654  -5271277.0407   3504619.8289   1   6   0.0063   0.0135   0.0079  -0.0072  -0.0083   0.0039   0.00    7.6
2173 303417.000    728279.6649  -5271277.0366   3504619.8272   1   6   0.0063   0.0135   0.0079  -0.0072  -0.0083   0.0039   0.00    3.2
2173 303418.000    728279.8281  -5271279.7151   3504620.9515   2   6   0.6255   1.3312   0.7789  -0.7085  -0.8217   0.3831   0.00    2.7
2173 303419.000    728279.8703  -5271279.9495   3504620.9725   2   6   0.6256   1.3314   0.7789  -0.7087  -0.8218   0.3831   0.00    2.2
2173 303420.000    728279.6640  -5271277.0357   3504619.8242   1   6   0.0063   0.0135   0.0079  -0.0072  -0.0083   0.0039   0.00    3.6
2173 303421.000    728279.6678  -5271277.0554   3504619.8333   1   5   0.0065   0.0161   0.0083  -0.0081  -0.0097   0.0044   0.00   13.9
2173 303422.000    728279.6687  -5271277.0531   3504619.8299   1   6   0.0063   0.0136   0.0079  -0.0072  -0.0083   0.0039   0.00    4.5
2173 303423.000    728279.6649  -5271277.0460   3504619.8293   1   6   0.0063   0.0136   0.0079  -0.0072  -0.0083   0.0039   0.00    4.5
2173 303424.000    728279.6666  -5271277.0458   3504619.8297   1   6   0.0063   0.0136   0.0079  -0.0072  -0.0083   0.0039   0.00    3.9
2173 303425.000    728279.6646  -5271277.0357   3504619.8253   1   6   0.0063   0.0136   0.0079  -0.0072  -0.0083   0.0039   0.00    3.2
2173 303426.000    728279.6663  -5271277.0467   3504619.8280   1   6   0.0063   0.0136   0.0079  -0.0072  -0.0083   0.0039   0.00    3.9
2173 303427.000    728279.6643  -5271277.0421   3504619.8262   1   6   0.0063   0.0136   0.0079  -0.0072  -0.0083   0.0039   0.00    3.9
2173 303428.000    728279.6688  -5271277.0530   3504619.8304   1   5   0.0065   0.0161   0.0083  -0.0081  -0.0097   0.0044   0.00    7.7
2173 303429.000    728279.6698  -5271277.0582   3504619.8329   1   6   0.0063   0.0136   0.0079  -0.0072  -0.0083   0.0039   0.00    5.7
2173 303430.000    728279.6674  -5271277.0559   3504619.8310   1   6   0.0063   0.0136   0.0079  -0.0072  -0.0083   0.0039   0.00    5.3
2173 303431.000    728279.6668  -5271277.0493   3504619.8276   1   6   0.0063   0.0136   0.0079  -0.0072  -0.0083   0.0039   0.00    5.8
2173 303432.000    728279.6634  -5271277.0414   3504619.8262   1   6   0.0063   0.0136   0.0079  -0.0072  -0.0083   0.0039   0.00    4.8
2173 303433.000    728279.6667  -5271277.0417   3504619.8279   1   6   0.0063   0.0136   0.0079  -0.0072  -0.0083   0.0039   0.00    4.9
2173 303434.000    728279.6667  -5271277.0443   3504619.8289   1   6   0.0063   0.0136   0.0079  -0.0072  -0.0083   0.0039   0.00    5.0
2173 303435.000    728279.6660  -5271277.0466   3504619.8289   1   6   0.0063   0.0136   0.0079  -0.0072  -0.0083   0.0039   0.00    4.4
2173 303436.000    728279.6650  -5271277.0460   3504619.8273   1   6   0.0063   0.0136   0.0079  -0.0072  -0.0083   0.0039   0.00    5.1
2173 303437.000    728279.6633  -5271277.0459   3504619.8298   1   6   0.0063   0.0136   0.0079  -0.0072  -0.0083   0.0039   0.00    6.0
2173 303438.000    728279.6644  -5271277.0521   3504619.8312   1   6   0.0063   0.0136   0.0079  -0.0072  -0.0083   0.0039   0.00    6.7
2173 303439.000    728279.6640  -5271277.0469   3504619.8292   1   6   0.0063   0.0136   0.0079  -0.0072  -0.0083   0.0039   0.00    5.2
2173 303440.000    728279.6645  -5271277.0497   3504619.8302   1   6   0.0063   0.0136   0.0079  -0.0072  -0.0083   0.0039   0.00    5.2
2173 303441.000    728279.6647  -5271277.0502   3504619.8312   1   6   0.0063   0.0136   0.0079  -0.0072  -0.0083   0.0039   0.00    5.6
2173 303442.000    728279.6632  -5271277.0381   3504619.8250   1   6   0.0063   0.0136   0.0079  -0.0072  -0.0083   0.0039   0.00    6.0
2173 303443.000    728279.6651  -5271277.0426   3504619.8284   1   6   0.0063   0.0136   0.0079  -0.0072  -0.0083   0.0039   0.00    5.3
2173 303444.000    728279.6638  -5271277.0416   3504619.8262   1   6   0.0063   0.0136   0.0079  -0.0072  -0.0083   0.0039   0.00    6.4
2173 303445.000    728279.6643  -5271277.0427   3504619.8265   1   6   0.0063   0.0136   0.0079  -0.0072  -0.0083   0.0039   0.00    5.9
2173 303446.000    728279.6636  -5271277.0486   3504619.8292   1   6   0.0063   0.0136   0.0079  -0.0072  -0.0083   0.0039   0.00    5.9
2173 303447.000    728279.6651  -5271277.0506   3504619.8276   1   6   0.0063   0.0136   0.0079  -0.0072  -0.0083   0.0039   0.00    8.8
2173 303448.000    728279.6620  -5271277.0400   3504619.8253   1   6   0.0063   0.0136   0.0079  -0.0072  -0.0083   0.0039   0.00    4.9
2173 303449.000    728279.6622  -5271277.0396   3504619.8257   1   6   0.0063   0.0136   0.0079  -0.0072  -0.0083   0.0039   0.00    5.7
2173 303450.000    728279.6602  -5271277.0357   3504619.8243   1   6   0.0063   0.0136   0.0079  -0.0072  -0.0083   0.0039   0.00    6.2
2173 303451.000    728279.6621  -5271277.0373   3504619.8236   1   6   0.0063   0.0136   0.0079  -0.0072  -0.0083   0.0039   0.00    6.1
2173 303452.000    728279.6618  -5271277.0391   3504619.8242   1   6   0.0063   0.0136   0.0079  -0.0072  -0.0083   0.0039   0.00    5.9
2173 303453.000    728279.6607  -5271277.0424   3504619.8273   1   6   0.0063   0.0136   0.0079  -0.0072  -0.0083   0.0039   0.00    6.5
2173 303454.000    728279.6622  -5271277.0407   3504619.8245   1   6   0.0063   0.0136   0.0079  -0.0072  -0.0083   0.0039   0.00    7.8
2173 303455.000    728279.6612  -5271277.0418   3504619.8263   1   6   0.0063   0.0136   0.0079  -0.0072  -0.0083   0.0039   0.00    6.3
2173 303456.000    728279.6595  -5271277.0379   3504619.8249   1   6   0.0063   0.0136   0.0079  -0.0072  -0.0083   0.0039   0.00    6.5
2173 303457.000    728279.6607  -5271277.0447   3504619.8268   1   6   0.0063   0.0136   0.0079  -0.0072  -0.0083   0.0039   0.00    8.1
2173 303458.000    728279.6618  -5271277.0465   3504619.8282   1   6   0.0063   0.0136   0.0079  -0.0072  -0.0083   0.0039   0.00    7.3
2173 303459.000    728279.6634  -5271277.0494   3504619.8297   1   6   0.0063   0.0136   0.0079  -0.0072  -0.0083   0.0039   0.00    7.8
2173 303460.000    728279.6612  -5271277.0398   3504619.8259   1   6   0.0063   0.0136   0.0079  -0.0072  -0.0083   0.0039   0.00    6.4
2173 303461.000    728279.6617  -5271277.0402   3504619.8244   1   6   0.0063   0.0136   0.0079  -0.0072  -0.0083   0.0039   0.00    6.5
2173 303462.000    728279.6604  -5271277.0388   3504619.8234   1   6   0.0063   0.0136   0.0079  -0.0072  -0.0083   0.0039   0.00    8.7
2173 303463.000    728279.6630  -5271277.0442   3504619.8281   1   6   0.0063   0.0136   0.0079  -0.0072  -0.0083   0.0039   0.00    8.5
2173 303464.000    728279.6589  -5271277.0355   3504619.8251   1   6   0.0063   0.0136   0.0079  -0.0072  -0.0083   0.0039   0.00    5.5
2173 303465.000    728279.6613  -5271277.0387   3504619.8269   1   6   0.0063   0.0136   0.0079  -0.0072  -0.0083   0.0039   0.00    5.4
2173 303466.000    728279.6644  -5271277.0519   3504619.8294   1   6   0.0063   0.0136   0.0079  -0.0073  -0.0083   0.0039   0.00    3.3
2173 303467.000    728279.6656  -5271277.0557   3504619.8318   1   6   0.0063   0.0136   0.0079  -0.0073  -0.0083   0.0039   0.00    5.0
2173 303468.000    728279.6653  -5271277.0575   3504619.8324   1   6   0.0063   0.0136   0.0079  -0.0073  -0.0083   0.0039   0.00    5.0
2173 303469.000    728279.6629  -5271277.0329   3504619.8236   1   6   0.0063   0.0136   0.0079  -0.0073  -0.0084   0.0039   0.00    5.2
2173 303470.000    728279.6647  -5271277.0511   3504619.8307   1   6   0.0063   0.0136   0.0079  -0.0073  -0.0084   0.0039   0.00    4.6
2173 303471.000    728279.6621  -5271277.0452   3504619.8267   1   6   0.0063   0.0136   0.0079  -0.0073  -0.0084   0.0039   0.00    5.5
2173 303472.000    728279.6631  -5271277.0426   3504619.8287   1   6   0.0063   0.0136   0.0079  -0.0073  -0.0084   0.0039   0.00    7.3
2173 303473.000    728279.6600  -5271277.0373   3504619.8291   1   6   0.0063   0.0136   0.0079  -0.0073  -0.0084   0.0039   0.00    8.4
2173 303474.000    728279.6619  -5271277.0428   3504619.8298   1   6   0.0063   0.0137   0.0078  -0.0073  -0.0084   0.0039   0.00    5.5
2173 303475.000    728279.6593  -5271277.0355   3504619.8264   1   6   0.0063   0.0137   0.0078  -0.0073  -0.0084   0.0039   0.00   11.2
2173 303476.000    728279.6628  -5271277.0443   3504619.8297   1   6   0.0063   0.0137   0.0078  -0.0073  -0.0084   0.0039   0.00    6.4
2173 303477.000    728279.6620  -5271277.0398   3504619.8285   1   6   0.0063   0.0137   0.0078  -0.0073  -0.0084   0.0039   0.00    6.4
2173 303478.000    728279.6629  -5271277.0450   3504619.8312   1   6   0.0063   0.0137   0.0078  -0.0073  -0.0084   0.0039   0.00    7.8
2173 303479.000    728279.6585  -5271277.0431   3504619.8277   1   6   0.0063   0.0137   0.0078  -0.0073  -0.0084   0.0039   0.00    5.0
2173 303480.000    728279.6597  -5271277.0430   3504619.8277   1   6   0.0063   0.0137   0.0078  -0.0073  -0.0084   0.0039   0.00    6.3
2173 303481.000    728279.6618  -5271277.0488   3504619.8296   1   6   0.0063   0.0137   0.0078  -0.0073  -0.0084   0.0039   0.00    5.9
2173 303482.000    728279.6588  -5271277.0458   3504619.8297   1   6   0.0063   0.0137   0.0078  -0.0073  -0.0084   0.0039   0.00    7.1
2173 303483.000    728279.6615  -5271277.0495   3504619.8293   1   6   0.0063   0.0137   0.0078  -0.0073  -0.0084   0.0039   0.00    4.7
2173 303484.000    728279.6580  -5271277.0390   3504619.8267   1   6   0.0063   0.0137   0.0078  -0.0073  -0.0084   0.0039   0.00    7.4
2173 303485.000    728279.6600  -5271277.0461   3504619.8280   1   6   0.0063   0.0137   0.0078  -0.0073  -0.0084   0.0039   0.00    5.8
2173 303486.000    728279.6612  -5271277.0501   3504619.8312   1   6   0.0063   0.0137   0.0078  -0.0073  -0.0084   0.0039   0.00    9.1
2173 303487.000    728279.6603  -5271277.0450   3504619.8326   1   6   0.0063   0.0137   0.0078  -0.0073  -0.0084   0.0039   0.00    7.8
2173 303488.000    728279.6567  -5271277.0319   3504619.8256   1   6   0.0063   0.0137   0.0078  -0.0073  -0.0084   0.0039   0.00    7.8
2173 303489.000    728279.6585  -5271277.0339   3504619.8251   1   6   0.0063   0.0137   0.0078  -0.0073  -0.0084   0.0039   0.00    8.7
2173 303490.000    728279.6609  -5271277.0458   3504619.8315   1   6   0.0063   0.0137   0.0078  -0.0073  -0.0084   0.0039   0.00    7.1
2173 303491.000    728279.6564  -5271277.0313   3504619.8247   1   6   0.0063   0.0137   0.0078  -0.0073  -0.0084   0.0039   0.00    8.1
2173 303492.000    728279.6605  -5271277.0400   3504619.8307   1   6   0.0063   0.0137   0.0078  -0.0073  -0.0084   0.0039   0.00    8.6
2173 303493.000    728279.6652  -5271277.0515   3504619.8334   1   6   0.0063   0.0137   0.0078  -0.0073  -0.0084   0.0039   0.00    7.4
2173 303494.000    728279.6589  -5271277.0350   3504619.8251   1   6   0.0063   0.0137   0.0078  -0.0073  -0.0084   0.0039   0.00    6.7
2173 303495.000    728279.6586  -5271277.0374   3504619.8255   1   6   0.0063   0.0137   0.0078  -0.0073  -0.0084   0.0039   0.00    9.3
2173 303496.000    728279.6591  -5271277.0442   3504619.8291   1   6   0.0063   0.0137   0.0078  -0.0073  -0.0084   0.0039   0.00   13.7
2173 303497.000    728279.6611  -5271277.0524   3504619.8338   1   6   0.0063   0.0137   0.0078  -0.0073  -0.0084   0.0039   0.00    9.6
2173 303498.000    728279.6633  -5271277.0574   3504619.8346   1   6   0.0063   0.0137   0.0078  -0.0073  -0.0084   0.0039   0.00    9.3
2173 303499.000    728279.6589  -5271277.0457   3504619.8307   1   6   0.0063   0.0137   0.0078  -0.0073  -0.0084   0.0039   0.00   10.6
2173 303500.000    728279.6595  -5271277.0495   3504619.8312   1   6   0.0063   0.0137   0.0078  -0.0073  -0.0084   0.0039   0.00    7.8
2173 303501.000    728279.6638  -5271277.0618   3504619.8368   1   5   0.0066   0.0163   0.0083  -0.0082  -0.0097   0.0045   0.00    8.7
2173 303502.000    728279.6607  -5271277.0536   3504619.8321   1   5   0.0066   0.0163   0.0083  -0.0082  -0.0097   0.0045   0.00    8.2
2173 303503.000    728279.6614  -5271277.0569   3504619.8330   1   5   0.0066   0.0163   0.0083  -0.0082  -0.0097   0.0045   0.00   10.6
2173 303504.000    728279.6591  -5271277.0510   3504619.8303   1   5   0.0066   0.0163   0.0083  -0.0082  -0.0097   0.0045   0.00    7.0
2173 303505.000    728279.6630  -5271277.0543   3504619.8310   1   5   0.0066   0.0163   0.0083  -0.0082  -0.0097   0.0045   0.00    5.8
2173 303506.000    728279.6610  -5271277.0455   3504619.8286   1   5   0.0066   0.0163   0.0083  -0.0082  -0.0097   0.0045   0.00    3.9
2173 303507.000    728279.6620  -5271277.0490   3504619.8287   1   5   0.0066   0.0163   0.0083  -0.0082  -0.0097   0.0045   0.00    3.7
2173 303508.000    728279.6632  -5271277.0626   3504619.8343   1   5   0.0066   0.0163   0.0083  -0.0082  -0.0097   0.0045   0.00    4.2
2173 303509.000    728279.6643  -5271277.0658   3504619.8370   1   5   0.0066   0.0163   0.0083  -0.0082  -0.0097   0.0045   0.00    4.2
2173 303510.000    728279.6611  -5271277.0519   3504619.8313   1   5   0.0066   0.0163   0.0083  -0.0082  -0.0097   0.0045   0.00    5.5
2173 303511.000    728279.6624  -5271277.0573   3504619.8306   1   5   0.0066   0.0163   0.0083  -0.0082  -0.0097   0.0045   0.00    5.8
2173 303512.000    728279.6632  -5271277.0528   3504619.8323   1   5   0.0066   0.0163   0.0083  -0.0082  -0.0097   0.0045   0.00    3.8
2173 303513.000    728279.6663  -5271277.0662   3504619.8357   1   5   0.0066   0.0163   0.0083  -0.0082  -0.0097   0.0045   0.00    5.0
2173 303514.000    728279.6649  -5271277.0595   3504619.8340   1   5   0.0066   0.0163   0.0083  -0.0083  -0.0097   0.0045   0.00    4.3
2173 303515.000    728279.6652  -5271277.0645   3504619.8338   1   5   0.0066   0.0163   0.0083  -0.0083  -0.0097   0.0045   0.00    4.9
2173 303516.000    728279.6639  -5271277.0592   3504619.8354   1   5   0.0066   0.0163   0.0083  -0.0083  -0.0097   0.0045   0.00    5.0
2173 303517.000    728279.6644  -5271277.0579   3504619.8346   1   5   0.0066   0.0164   0.0083  -0.0083  -0.0097   0.0045   0.00    5.6
2173 303518.000    728279.6657  -5271277.0634   3504619.8388   1   5   0.0066   0.0164   0.0083  -0.0083  -0.0097   0.0045   0.00    4.8
2173 303519.000    728279.6644  -5271277.0678   3504619.8386   1   5   0.0066   0.0164   0.0083  -0.0083  -0.0097   0.0045   0.00    7.3
2173 303520.000    728279.6659  -5271277.0607   3504619.8342   1   5   0.0066   0.0164   0.0083  -0.0083  -0.0097   0.0045   0.00    9.2
2173 303521.000    728279.6660  -5271277.0636   3504619.8330   1   5   0.0066   0.0164   0.0083  -0.0083  -0.0097   0.0045   0.00   12.0
2173 303522.000    728279.6656  -5271277.0614   3504619.8349   1   5   0.0066   0.0164   0.0083  -0.0083  -0.0097   0.0045   0.00    8.8
2173 303523.000    728279.6649  -5271277.0593   3504619.8352   1   5   0.0066   0.0164   0.0083  -0.0083  -0.0097   0.0045   0.00   11.0
2173 303524.000    728279.6649  -5271277.0620   3504619.8358   1   5   0.0066   0.0164   0.0083  -0.0083  -0.0097   0.0045   0.00   10.0
2173 303525.000    728279.6661  -5271277.0641   3504619.8353   1   5   0.0066   0.0164   0.0083  -0.0083  -0.0097   0.0045   0.00    8.7
2173 303526.000    728279.6655  -5271277.0645   3504619.8352   1   5   0.0066   0.0164   0.0083  -0.0083  -0.0097   0.0045   0.00    7.1
2173 303527.000    728279.6663  -5271277.0630   3504619.8337   1   5   0.0066   0.0164   0.0083  -0.0083  -0.0097   0.0045   0.00    8.3
2173 303528.000    728279.6624  -5271277.0531   3504619.8337   1   5   0.0066   0.0164   0.0083  -0.0083  -0.0097   0.0045   0.00    3.4
2173 303529.000    728279.6634  -5271277.0544   3504619.8337   1   5   0.0066   0.0164   0.0083  -0.0083  -0.0097   0.0045   0.00    5.9
2173 303530.000    728279.6667  -5271277.0667   3504619.8388   1   5   0.0066   0.0164   0.0083  -0.0083  -0.0097   0.0045   0.00    8.9
2173 303531.000    728279.6677  -5271277.0621   3504619.8340   1   5   0.0066   0.0164   0.0083  -0.0083  -0.0097   0.0045   0.00    3.5
2173 303532.000    728279.6665  -5271277.0631   3504619.8367   1   5   0.0066   0.0164   0.0083  -0.0083  -0.0097   0.0045   0.00    4.1
2173 303533.000    728279.6664  -5271277.0621   3504619.8333   1   5   0.0066   0.0164   0.0083  -0.0083  -0.0097   0.0045   0.00    7.8
2173 303534.000    728279.6671  -5271277.0637   3504619.8346   1   5   0.0066   0.0164   0.0083  -0.0083  -0.0097   0.0045   0.00    7.1
2173 303535.000    728279.6643  -5271277.0560   3504619.8325   1   5   0.0066   0.0164   0.0083  -0.0083  -0.0097   0.0045   0.00    6.0
2173 303536.000    728279.6682  -5271277.0636   3504619.8337   1   5   0.0066   0.0164   0.0083  -0.0083  -0.0097   0.0045   0.00    5.8
2173 303537.000    728279.6669  -5271277.0660   3504619.8317   1   5   0.0066   0.0164   0.0083  -0.0083  -0.0097   0.0045   0.00    5.7
2173 303538.000    728279.6669  -5271277.0641   3504619.8320   1   5   0.0066   0.0164   0.0083  -0.0083  -0.0097   0.0045   0.00    5.2
2173 303539.000    728279.6659  -5271277.0667   3504619.8346   1   5   0.0066   0.0164   0.0083  -0.0083  -0.0097   0.0045   0.00    6.1
2173 303540.000    728279.6654  -5271277.0616   3504619.8339   1   5   0.0066   0.0164   0.0083  -0.0083  -0.0097   0.0045   0.00    3.7
2173 303541.000    728279.6637  -5271277.0594   3504619.8293   1   5   0.0066   0.0164   0.0083  -0.0083  -0.0097   0.0045   0.00    4.6
2173 303542.000    728279.6664  -5271277.0605   3504619.8289   1   5   0.0066   0.0164   0.0083  -0.0083  -0.0097   0.0045   0.00    5.3
2173 303543.000    728279.6639  -5271277.0563   3504619.8287   1   5   0.0066   0.0164   0.0083  -0.0083  -0.0097   0.0045   0.00    5.8
2173 303544.000    728279.6658  -5271277.0646   3504619.8343   1   5   0.0066   0.0164   0.0083  -0.0083  -0.0097   0.0045   0.00    8.6
2173 303545.000    728279.6639  -5271277.0587   3504619.8289   1   5   0.0066   0.0164   0.0083  -0.0083  -0.0097   0.0045   0.00    3.9
2173 303546.000    728279.6663  -5271277.0640   3504619.8320   1   5   0.0066   0.0164   0.0083  -0.0083  -0.0097   0.0045   0.00    4.6
2173 303547.000    728279.6650  -5271277.0572   3504619.8282   1   5   0.0066   0.0164   0.0083  -0.0083  -0.0097   0.0045   0.00    3.8
2173 303548.000    728279.6660  -5271277.0601   3504619.8307   1   5   0.0066   0.0164   0.0083  -0.0083  -0.0097   0.0045   0.00    5.4
2173 303549.000    728279.6642  -5271277.0550   3504619.8295   1   5   0.0066   0.0164   0.0083  -0.0083  -0.0097   0.0045   0.00    4.7
2173 303550.000    728279.2899  -5271275.3501   3504619.6566   2   5   0.6464   1.5603   0.8122  -0.7980  -0.9299   0.4329   0.00    3.0
2173 303551.000    728279.2723  -5271274.6387   3504619.3258   2   5   0.6464   1.5604   0.8122  -0.7981  -0.9299   0.4330   0.00    2.5
2173 303552.000    728279.6638  -5271277.0645   3504619.8327   1   5   0.0066   0.0164   0.0083  -0.0083  -0.0097   0.0045   0.00    3.4
2173 303553.000    728279.2770  -5271274.5533   3504619.2786   2   5   0.6465   1.5608   0.8121  -0.7984  -0.9299   0.4331   0.00    2.9
2173 303554.000    728279.5681  -5271274.9026   3504619.5494   2   5   0.6465   1.5610   0.8121  -0.7986  -0.9299   0.4332   0.00    2.5
2173 303555.000    728279.6648  -5271277.0633   3504619.8313   1   5   0.0066   0.0165   0.0083  -0.0083  -0.0097   0.0045   0.00    3.4
2173 303556.000    728279.8796  -5271275.5658   3504619.6791   2   5   0.6466   1.5614   0.8120  -0.7989  -0.9300   0.4333   0.00    2.6
2173 303557.000    728279.9732  -5271275.6543   3504619.6709   2   5   0.6467   1.5616   0.8120  -0.7990  -0.9300   0.4334   0.00    2.0
2173 303558.000    728279.8694  -5271274.8719   3504619.4459   2   5   0.6467   1.5618   0.8120  -0.7992  -0.9300   0.4334   0.00    2.2
2173 303559.000    728279.6616  -5271277.0548   3504619.8267   1   5   0.0066   0.0165   0.0083  -0.0083  -0.0097   0.0045   0.00    3.1
2173 303560.000    728279.9547  -5271275.5412   3504619.6567   2   5   0.6468   1.5622   0.8119  -0.7995  -0.9300   0.4336   0.00    2.5
2173 303561.000    728279.8457  -5271275.4762   3504619.4307   2   5   0.6469   1.5624   0.8119  -0.7996  -0.9300   0.4336   0.00    2.6
2173 303562.000    728280.2432  -5271276.3327   3504619.9655   2   5   0.6469   1.5626   0.8118  -0.7998  -0.9300   0.4337   0.00    2.3
2173 303563.000    728279.9922  -5271276.0941   3504619.8104   2   5   0.6470   1.5628   0.8118  -0.7999  -0.9300   0.4338   0.00    2.6
2173 303564.000    728280.2152  -5271276.7639   3504619.9372   2   5   0.6470   1.5630   0.8118  -0.8001  -0.9300   0.4338   0.00    2.1
2173 303565.000    728279.9543  -5271276.7731   3504619.9685   2   5   0.6471   1.5633   0.8117  -0.8002  -0.9301   0.4339   0.00    2.9
2173 303566.000    728280.0969  -5271276.8228   3504619.8145   2   5   0.6471   1.5635   0.8117  -0.8004  -0.9301   0.4339   0.00    2.7
2173 303567.000    728279.6651  -5271277.0611   3504619.8308   1   5   0.0066   0.0165   0.0083  -0.0084  -0.0097   0.0045   0.00    3.5
2173 303568.000    728280.0649  -5271275.7069   3504619.2710   2   5   0.6472   1.5639   0.8116  -0.8007  -0.9301   0.4341   0.00    2.0
2173 303569.000    728279.8908  -5271276.2131   3504619.8389   2   5   0.6473   1.5641   0.8116  -0.8008  -0.9301   0.4341   0.00    2.5
2173 303570.000    728280.1658  -5271276.0749   3504619.6308   2   5   0.6473   1.5643   0.8116  -0.8010  -0.9301   0.4342   0.00    1.6
2173 303571.000    728279.8468  -5271275.0600   3504619.1748   2   5   0.6474   1.5645   0.8116  -0.8011  -0.9301   0.4343   0.00    2.1
2173 303572.000    728279.6562  -5271275.5120   3504619.5745   2   5   0.6474   1.5647   0.8115  -0.8013  -0.9301   0.4343   0.00    2.8
2173 303573.000    728279.6684  -5271277.0635   3504619.8308   1   5   0.0066   0.0165   0.0083  -0.0084  -0.0097   0.0045   0.00    3.3
2173 303574.000    728280.0737  -5271276.6577   3504620.0079   2   5   0.6475   1.5651   0.8115  -0.8016  -0.9302   0.4345   0.00    3.0
2173 303575.000    728280.0700  -5271276.6102   3504619.8355   2   5   0.6476   1.5653   0.8114  -0.8018  -0.9302   0.4345   0.00    2.9
2173 303576.000    728279.6674  -5271277.0677   3504619.8318   1   5   0.0066   0.0165   0.0083  -0.0084  -0.0097   0.0045   0.00    3.9
2173 303577.000    728279.6672  -5271277.0595   3504619.8316   1   5   0.0066   0.0165   0.0083  -0.0084  -0.0097   0.0045   0.00    3.2
2173 303578.000    728280.1161  -5271276.8601   3504620.2557   2   5   0.6477   1.5660   0.8113  -0.8022  -0.9302   0.4347   0.00    2.6
2173 303579.000    728280.4147  -5271277.6001   3504620.7515   2   5   0.6478   1.5662   0.8113  -0.8024  -0.9302   0.4348   0.00    2.7
2173 303580.000    728279.6667  -5271277.0652   3504619.8323   1   5   0.0066   0.0165   0.0083  -0.0084  -0.0097   0.0045   0.00    3.2
2173 303581.000    728280.1744  -5271276.5259   3504620.2516   2   5   0.6479   1.5666   0.8112  -0.8027  -0.9303   0.4349   0.00    2.5
2173 303582.000    728280.0255  -5271276.0608   3504620.1334   2   5   0.6479   1.5668   0.8112  -0.8029  -0.9303   0.4350   0.00    3.0
2173 303583.000    728279.8469  -5271275.4948   3504619.9574   2   5   0.6480   1.5671   0.8112  -0.8030  -0.9303   0.4351   0.00    1.9
2173 303584.000    728280.0734  -5271275.8440   3504620.0899   2   5   0.6480   1.5673   0.8112  -0.8032  -0.9303   0.4351   0.00    1.8
2173 303585.000    728279.8179  -5271275.8819   3504620.0952   2   5   0.6481   1.5675   0.8111  -0.8033  -0.9303   0.4352   0.00    2.8
2173 303586.000    728279.7722  -5271276.2598   3504620.3834   2   5   0.6481   1.5677   0.8111  -0.8035  -0.9304   0.4353   0.00    2.4
2173 303587.000    728280.0851  -5271276.6450   3504620.5354   2   5   0.6482   1.5679   0.8111  -0.8036  -0.9304   0.4353   0.00    2.2
2173 303588.000    728279.6673  -5271277.0658   3504619.8323   1   5   0.0066   0.0166   0.0083  -0.0084  -0.0097   0.0045   0.00    3.0
2173 303589.000    728279.6651  -5271277.0574   3504619.8314   1   5   0.0066   0.0166   0.0083  -0.0084  -0.0097   0.0045   0.00    3.9
2173 303590.000    728279.6656  -5271277.0706   3504619.8367   1   5   0.0066   0.0166   0.0083  -0.0084  -0.0097   0.0045   0.00    3.3
2173 303591.000    728279.6573  -5271275.7814   3504619.7336   2   5   0.6484   1.5688   0.8110  -0.8043  -0.9304   0.4356   0.00    2.2
2173 303592.000    728279.6677  -5271277.0683   3504619.8330   1   5   0.0066   0.0166   0.0083  -0.0084  -0.0097   0.0045   0.00    3.3
2173 303593.000    728279.9180  -5271275.9728   3504619.9495   2   5   0.6485   1.5692   0.8109  -0.8046  -0.9305   0.4357   0.00    3.0
2173 303594.000    728279.6667  -5271277.0639   3504619.8342   1   5   0.0066   0.0166   0.0083  -0.0084  -0.0097   0.0045   0.00    5.6
2173 303595.000    728279.6674  -5271277.0628   3504619.8321   1   5   0.0066   0.0166   0.0083  -0.0084  -0.0097   0.0045   0.00    3.5
