% program   : rnx2rtkp ver.2.4.3 b31
% inp file  : ngs/21_08_31_20_18_55_gast.obs
% inp file  : ngs/21_08_31_20_18_55_gast_VZ.obs
% inp file  : ngs/21_08_31_20_18_55_brdc.nav
% obs start : 2021/08/31 20:00:00.0 GPST (week2173 244800.0s)
% obs end   : 2021/08/31 20:59:59.0 GPST (week2173 248399.0s)
% ref pos   :   793843.1879  -5167066.0889   3642149.4360
%
% (x/y/z-ecef=WGS84,Q=1:fix,2:float,3:sbas,4:dgps,5:single,6:ppp,ns=# of satellites)
%  GPST              x-ecef(m)      y-ecef(m)      z-ecef(m)   Q  ns   sdx(m)   sdy(m)   sdz(m)  sdxy(m)  sdyz(m)  sdzx(m) age(s)  ratio
2173 245924.000    798177.2634  -5149233.4896   3666203.9900   2   6   0.4609   1.0325   0.9675  -0.0703  -0.8134   0.1469 -30.00    1.7
2173 245925.000    798177.1341  -5149233.6008   3666204.2909   2   6   0.3280   0.7341   0.6890  -0.0535  -0.5790   0.1076 -29.00    2.4
2173 245926.000    798177.1992  -5149233.3776   3666204.0479   2   6   0.2686   0.6011   0.5643  -0.0445  -0.4741   0.0886 -28.00    1.9
2173 245927.000    798177.2286  -5149233.4600   3666204.0704   2   6   0.2330   0.5215   0.4896  -0.0388  -0.4114   0.0769 -27.00    2.1
2173 245928.000    798177.2466  -5149233.4836   3666204.1337   2   6   0.2087   0.4671   0.4386  -0.0348  -0.3685   0.0687 -26.00    2.5
2173 245929.000    798177.2344  -5149233.5144   3666204.1180   2   6   0.1907   0.4269   0.4008  -0.0318  -0.3368   0.0627 -25.00    2.5
2173 245930.000    798177.2385  -5149233.5051   3666204.1437   2   6   0.1767   0.3955   0.3714  -0.0296  -0.3121   0.0580 -24.00    2.8
2173 245931.000    798177.2371  -5149233.5696   3666204.1491   2   6   0.1654   0.3702   0.3476  -0.0277  -0.2921   0.0542 -23.00    2.9
2173 245932.000    798177.3523  -5149234.2450   3666204.9057   1   6   0.0190   0.0465   0.0369   0.0101  -0.0330  -0.0140 -22.00    3.1
2173 245933.000    798177.3537  -5149234.2465   3666204.9034   1   6   0.0182   0.0445   0.0354   0.0096  -0.0316  -0.0134 -21.00    3.1
2173 245934.000    798177.3500  -5149234.2521   3666204.9052   1   6   0.0174   0.0425   0.0338   0.0092  -0.0303  -0.0127 -20.00    3.5
2173 245935.000    798177.3512  -5149234.2615   3666204.9106   1   6   0.0166   0.0406   0.0323   0.0087  -0.0289  -0.0121 -19.00    3.9
2173 245936.000    798177.3516  -5149234.2636   3666204.9075   1   6   0.0158   0.0386   0.0308   0.0083  -0.0275  -0.0114 -18.00    4.1
2173 245937.000    798177.3537  -5149234.2614   3666204.9068   1   6   0.0150   0.0366   0.0293   0.0078  -0.0261  -0.0108 -17.00    4.4
2173 245938.000    798177.3510  -5149234.2586   3666204.9059   1   6   0.0142   0.0346   0.0278   0.0073  -0.0248  -0.0101 -16.00    5.0
2173 245939.000    798177.3508  -5149234.2613   3666204.9066   1   6   0.0134   0.0327   0.0263   0.0068  -0.0234  -0.0095 -15.00    5.3
2173 245940.000    798177.3509  -5149234.2617   3666204.9115   1   6   0.0126   0.0307   0.0249   0.0064  -0.0221  -0.0088 -14.00    5.6
2173 245941.000    798177.3512  -5149234.2635   3666204.9140   1   6   0.0119   0.0288   0.0234   0.0059  -0.0207  -0.0082 -13.00    5.8
2173 245942.000    798177.3528  -5149234.2658   3666204.9143   1   6   0.0111   0.0269   0.0220   0.0055  -0.0194  -0.0075 -12.00    6.1
2173 245943.000    798177.3511  -5149234.2638   3666204.9124   1   6   0.0104   0.0250   0.0206   0.0050  -0.0181  -0.0069 -11.00    6.3
2173 245944.000    798177.3513  -5149234.2671   3666204.9139   1   6   0.0096   0.0232   0.0192   0.0045  -0.0169  -0.0062 -10.00    6.7
2173 245945.000    798177.3510  -5149234.2676   3666204.9127   1   6   0.0089   0.0213   0.0178   0.0041  -0.0156  -0.0055  -9.00    7.0
2173 245946.000    798177.3502  -5149234.2700   3666204.9204   1   6   0.0081   0.0196   0.0165   0.0036  -0.0144  -0.0049  -8.00    7.4
2173 245947.000    798177.3509  -5149234.2741   3666204.9209   1   6   0.0075   0.0179   0.0153   0.0032  -0.0133  -0.0042  -7.00    7.3
2173 245948.000    798177.3518  -5149234.2750   3666204.9171   1   6   0.0069   0.0162   0.0141   0.0025  -0.0122  -0.0036  -6.00    7.1
2173 245949.000    798177.3504  -5149234.2809   3666204.9252   1   6   0.0063   0.0147   0.0130   0.0020  -0.0112  -0.0029  -5.00    7.3
2173 245950.000    798177.3493  -5149234.2857   3666204.9276   1   6   0.0058   0.0134   0.0120   0.0013  -0.0102  -0.0021  -4.00    7.4
2173 245951.000    798177.3502  -5149234.2809   3666204.9208   1   6   0.0053   0.0122   0.0111   0.0013  -0.0094  -0.0011  -3.00    7.1
2173 245952.000    798177.3487  -5149234.2885   3666204.9240   1   6   0.0050   0.0112   0.0104  -0.0014  -0.0088  -0.0006  -2.00    6.8
2173 245953.000    798177.3485  -5149234.2827   3666204.9216   1   6   0.0049   0.0106   0.0099   0.0006  -0.0084   0.0017  -1.00    6.4
2173 245954.000    798177.3496  -5149234.2828   3666204.9210   1   6   0.0046   0.0104   0.0098   0.0010  -0.0082   0.0019   0.00    6.1
2173 245955.000    798177.3465  -5149234.2837   3666204.9242   1   6   0.0047   0.0104   0.0098  -0.0009  -0.0082   0.0016   0.00    6.0
2173 245956.000    798177.3464  -5149234.2898   3666204.9238   1   6   0.0052   0.0105   0.0098  -0.0015  -0.0082   0.0011   0.00    5.6
2173 245957.000    798177.3432  -5149234.2891   3666204.9252   1   6   0.0041   0.0103   0.0098   0.0007  -0.0083   0.0015   0.00    5.2
2173 245958.000    798177.3446  -5149234.2843   3666204.9208   1   6   0.0045   0.0103   0.0097   0.0015  -0.0083   0.0020   0.00    5.0
2173 245959.000    798177.3420  -5149234.2877   3666204.9233   1   6   0.0046   0.0104   0.0097  -0.0005  -0.0082   0.0021   0.00    4.8
2173 245960.000    798177.3427  -5149234.2857   3666204.9147   1   6   0.0047   0.0104   0.0098  -0.0015  -0.0082   0.0014   0.00    4.7
2173 245961.000    798177.3418  -5149234.2849   3666204.9154   1   6   0.0046   0.0103   0.0098  -0.0009  -0.0083   0.0016   0.00    4.5
2173 245962.000    798177.3440  -5149234.2797   3666204.9115   1   6   0.0046   0.0105   0.0098  -0.0016  -0.0081   0.0015   0.00    4.3
2173 245963.000    798177.3430  -5149234.2780   3666204.9079   1   6   0.0047   0.0103   0.0098  -0.0017  -0.0083   0.0013   0.00    4.2
2173 245964.000    798177.3427  -5149234.2764   3666204.9089   1   6   0.0047   0.0104   0.0098   0.0010  -0.0083   0.0019   0.00    4.0
2173 245965.000    798177.3406  -5149234.2731   3666204.9028   1   6   0.0045   0.0104   0.0098  -0.0009  -0.0082   0.0014   0.00    3.8
2173 245966.000    798177.3419  -5149234.2726   3666204.9076   1   6   0.0046   0.0103   0.0097   0.0012  -0.0084   0.0021   0.00    3.7
2173 245967.000    798177.3388  -5149234.2779   3666204.9100   1   6   0.0044   0.0102   0.0098  -0.0011  -0.0084   0.0016   0.00    3.6
2173 245968.000    798177.3406  -5149234.2819   3666204.9144   1   6   0.0045   0.0103   0.0098  -0.0012  -0.0084   0.0013   0.00    3.5
2173 245969.000    798177.3366  -5149234.2838   3666204.9171   1   6   0.0048   0.0104   0.0098  -0.0010  -0.0082   0.0010   0.00    3.5
2173 245970.000    798177.3389  -5149234.2752   3666204.9086   1   6   0.0042   0.0103   0.0097  -0.0010  -0.0083   0.0018   0.00    3.5
2173 245971.000    798177.3368  -5149234.2751   3666204.9074   1   6   0.0049   0.0104   0.0098  -0.0015  -0.0082   0.0011   0.00    3.4
2173 245972.000    798177.3387  -5149234.2797   3666204.9112   1   6   0.0049   0.0104   0.0098  -0.0011  -0.0083   0.0014   0.00    3.3
2173 245973.000    798177.3366  -5149234.2837   3666204.9110   1   6   0.0048   0.0104   0.0099  -0.0016  -0.0082   0.0014   0.00    3.3
2173 245974.000    798177.3370  -5149234.2816   3666204.9104   1   6   0.0049   0.0103   0.0097  -0.0008  -0.0083   0.0017   0.00    3.2
2173 245975.000    798177.3351  -5149234.2804   3666204.9112   1   6   0.0044   0.0105   0.0098  -0.0007  -0.0082   0.0014   0.00    3.2
2173 245976.000    798177.3343  -5149234.2789   3666204.9101   1   6   0.0047   0.0105   0.0099  -0.0013  -0.0081   0.0010   0.00    3.1
2173 245977.000    798177.3366  -5149234.2836   3666204.9136   1   6   0.0048   0.0103   0.0098   0.0008  -0.0083   0.0017   0.00    3.1
2173 245978.000    798177.3347  -5149234.2851   3666204.9126   1   6   0.0046   0.0104   0.0098  -0.0013  -0.0082   0.0012   0.00    3.0
2173 245979.000    798177.1436  -5149233.9744   3666204.5209   2   6   0.0623   0.1372   0.1267  -0.0125  -0.1068   0.0205   0.00    3.0
2173 245980.000    798177.1435  -5149233.9717   3666204.5213   2   6   0.0618   0.1359   0.1253  -0.0122  -0.1056   0.0203   0.00    2.9
2173 245981.000    798177.1368  -5149233.9648   3666204.5262   2   6   0.0612   0.1346   0.1240  -0.0121  -0.1045   0.0201   0.00    2.8
2173 245982.000    798177.1346  -5149233.9681   3666204.5330   2   6   0.0607   0.1334   0.1227  -0.0120  -0.1034   0.0199   0.00    2.8
2173 245983.000    798177.1321  -5149233.9712   3666204.5438   2   6   0.0602   0.1322   0.1213  -0.0116  -0.1023   0.0197   0.00    2.7
2173 245984.000    798177.1314  -5149233.9831   3666204.5534   2   6   0.0597   0.1310   0.1200  -0.0117  -0.1012   0.0194   0.00    2.7
2173 245985.000    798177.1318  -5149233.9844   3666204.5617   2   6   0.0592   0.1298   0.1188  -0.0116  -0.1002   0.0192   0.00    2.6
2173 245986.000    798177.1322  -5149233.9946   3666204.5810   2   6   0.0588   0.1286   0.1175  -0.0114  -0.0991   0.0190   0.00    2.6
2173 245987.000    798177.1332  -5149234.0040   3666204.5976   2   6   0.0583   0.1275   0.1163  -0.0112  -0.0981   0.0188   0.00    2.5
2173 245988.000    798177.1371  -5149234.0042   3666204.6063   2   6   0.0579   0.1264   0.1151  -0.0112  -0.0971   0.0186   0.00    2.5
2173 245989.000    798177.1355  -5149234.0162   3666204.6218   2   6   0.0574   0.1253   0.1139  -0.0110  -0.0961   0.0185   0.00    2.5
2173 245990.000    798177.1355  -5149234.0213   3666204.6335   2   6   0.0570   0.1242   0.1127  -0.0109  -0.0952   0.0183   0.00    2.5
2173 245991.000    798177.1415  -5149234.0242   3666204.6447   2   6   0.0566   0.1232   0.1115  -0.0110  -0.0942   0.0180   0.00    2.4
2173 245992.000    798177.1416  -5149234.0452   3666204.6685   2   6   0.0562   0.1222   0.1104  -0.0109  -0.0933   0.0178   0.00    2.4
2173 245993.000    798177.1445  -5149234.0559   3666204.6926   2   6   0.0557   0.1211   0.1092  -0.0106  -0.0924   0.0177   0.00    2.3
2173 245994.000    798177.1476  -5149234.0618   3666204.7069   2   6   0.0554   0.1202   0.1081  -0.0105  -0.0914   0.0175   0.00    2.3
2173 245995.000    798177.1485  -5149234.0694   3666204.7236   2   6   0.0550   0.1192   0.1070  -0.0105  -0.0905   0.0172   0.00    2.3
2173 245996.000    798177.1553  -5149234.0836   3666204.7375   2   6   0.0546   0.1182   0.1059  -0.0103  -0.0897   0.0171   0.00    2.3
2173 245997.000    798177.1589  -5149234.0835   3666204.7451   2   6   0.0542   0.1173   0.1049  -0.0103  -0.0888   0.0169   0.00    2.2
2173 245998.000    798177.1595  -5149234.0977   3666204.7678   2   6   0.0539   0.1164   0.1038  -0.0101  -0.0879   0.0167   0.00    2.2
2173 245999.000    798177.1608  -5149234.1039   3666204.7782   2   6   0.0535   0.1155   0.1028  -0.0100  -0.0871   0.0166   0.00    2.2
2173 246000.000    798177.1641  -5149234.1046   3666204.7859   2   6   0.0532   0.1146   0.1018  -0.0100  -0.0862   0.0164   0.00    2.1
2173 246001.000    798177.1631  -5149234.1238   3666204.7978   2   6   0.0528   0.1137   0.1007  -0.0098  -0.0854   0.0162   0.00    2.1
2173 246002.000    798177.1616  -5149234.1399   3666204.8218   2   6   0.0525   0.1129   0.0997  -0.0096  -0.0846   0.0161   0.00    2.1
2173 246003.000    798177.1639  -5149234.1499   3666204.8420   2   6   0.0521   0.1120   0.0987  -0.0096  -0.0838   0.0159   0.00    2.1
2173 246004.000    798177.1608  -5149234.1498   3666204.8464   2   6   0.0518   0.1112   0.0978  -0.0095  -0.0830   0.0157   0.00    2.0
2173 246005.000    798177.1674  -5149234.1590   3666204.8600   2   6   0.0515   0.1104   0.0968  -0.0093  -0.0822   0.0156   0.00    2.0
2173 246006.000    798177.1636  -5149234.1630   3666204.8776   2   6   0.0513   0.1096   0.0959  -0.0093  -0.0814   0.0154   0.00    2.0
2173 246007.000    798177.1640  -5149234.1757   3666204.8988   2   6   0.0510   0.1088   0.0949  -0.0092  -0.0806   0.0153   0.00    2.0
2173 246008.000    798177.1664  -5149234.1843   3666204.9212   2   6   0.0506   0.1080   0.0940  -0.0091  -0.0799   0.0151   0.00    2.0
2173 246009.000    798177.1661  -5149234.1956   3666204.9366   2   6   0.0503   0.1072   0.0931  -0.0091  -0.0791   0.0149   0.00    2.0
2173 246010.000    798177.1680  -5149234.2075   3666204.9616   2   6   0.0500   0.1065   0.0922  -0.0090  -0.0784   0.0148   0.00    2.0
2173 246011.000    798177.1663  -5149234.2211   3666204.9802   2   6   0.0498   0.1057   0.0913  -0.0088  -0.0777   0.0146   0.00    2.0
2173 246012.000    798177.1696  -5149234.2309   3666204.9966   2   6   0.0495   0.1050   0.0904  -0.0087  -0.0770   0.0145   0.00    2.0
2173 246013.000    798177.1751  -5149234.2460   3666205.0135   2   6   0.0492   0.1043   0.0895  -0.0087  -0.0763   0.0143   0.00    1.9
2173 246014.000    798177.1767  -5149234.2635   3666205.0393   2   6   0.0489   0.1036   0.0886  -0.0085  -0.0756   0.0142   0.00    1.9
2173 246015.000    798177.1712  -5149234.2813   3666205.0598   2   6   0.0487   0.1029   0.0878  -0.0086  -0.0749   0.0140   0.00    1.9
2173 246016.000    798177.1751  -5149234.2989   3666205.0888   2   6   0.0484   0.1022   0.0870  -0.0085  -0.0742   0.0139   0.00    1.9
2173 246017.000    798177.1765  -5149234.3152   3666205.1161   2   6   0.0482   0.1015   0.0861  -0.0084  -0.0735   0.0137   0.00    1.9
2173 246018.000    798177.1752  -5149234.3300   3666205.1378   2   6   0.0479   0.1009   0.0853  -0.0084  -0.0728   0.0136   0.00    1.9
2173 246019.000    798177.1766  -5149234.3513   3666205.1620   2   6   0.0476   0.1002   0.0845  -0.0081  -0.0722   0.0135   0.00    1.9
2173 246020.000    798177.1762  -5149234.3595   3666205.1735   2   6   0.0474   0.0995   0.0837  -0.0080  -0.0715   0.0133   0.00    1.9
2173 246021.000    798177.1765  -5149234.3637   3666205.1839   2   6   0.0472   0.0989   0.0829  -0.0080  -0.0709   0.0132   0.00    1.9
2173 246022.000    798177.1798  -5149234.3749   3666205.2064   2   6   0.0470   0.0983   0.0821  -0.0079  -0.0702   0.0131   0.00    1.9
2173 246023.000    798177.1812  -5149234.3890   3666205.2224   2   6   0.0467   0.0976   0.0813  -0.0078  -0.0696   0.0130   0.00    1.9
2173 246024.000    798177.1847  -5149234.4018   3666205.2428   2   6   0.0465   0.0970   0.0806  -0.0077  -0.0690   0.0128   0.00    1.9
2173 246025.000    798177.1825  -5149234.4076   3666205.2655   2   6   0.0463   0.0964   0.0798  -0.0077  -0.0684   0.0127   0.00    1.9
2173 246026.000    798177.1859  -5149234.4261   3666205.2947   2   6   0.0460   0.0959   0.0791  -0.0077  -0.0678   0.0126   0.00    1.9
2173 246027.000    798177.1868  -5149234.4410   3666205.2999   2   6   0.0458   0.0953   0.0784  -0.0077  -0.0672   0.0124   0.00    1.9
2173 246028.000    798177.1883  -5149234.4463   3666205.3091   2   6   0.0456   0.0947   0.0776  -0.0074  -0.0666   0.0123   0.00    1.9
2173 246029.000    798177.1932  -5149234.4539   3666205.3245   2   6   0.0454   0.0941   0.0769  -0.0074  -0.0661   0.0122   0.00    1.9
2173 246030.000    798177.1942  -5149234.4716   3666205.3449   2   6   0.0452   0.0936   0.0762  -0.0074  -0.0655   0.0121   0.00    1.9
2173 246031.000    798177.1942  -5149234.4787   3666205.3580   2   6   0.0449   0.0930   0.0755  -0.0073  -0.0649   0.0119   0.00    1.9
2173 246032.000    798177.1979  -5149234.4819   3666205.3684   2   6   0.0448   0.0925   0.0748  -0.0074  -0.0643   0.0117   0.00    1.9
2173 246033.000    798177.1986  -5149234.4967   3666205.3812   2   6   0.0445   0.0919   0.0741  -0.0071  -0.0638   0.0117   0.00    1.9
2173 246034.000    798177.1993  -5149234.4971   3666205.3784   2   6   0.0444   0.0914   0.0734  -0.0071  -0.0633   0.0116   0.00    1.9
2173 246035.000    798177.2005  -5149234.5008   3666205.3931   2   6   0.0441   0.0908   0.0728  -0.0069  -0.0627   0.0115   0.00    1.9
2173 246036.000    798177.2010  -5149234.5102   3666205.4063   2   6   0.0440   0.0903   0.0721  -0.0069  -0.0622   0.0114   0.00    2.0
2173 246037.000    798177.2016  -5149234.5117   3666205.4066   2   6   0.0438   0.0898   0.0715  -0.0069  -0.0617   0.0113   0.00    2.0
2173 246038.000    798177.2029  -5149234.5100   3666205.4005   2   6   0.0436   0.0893   0.0708  -0.0068  -0.0611   0.0111   0.00    2.0
2173 246039.000    798177.2039  -5149234.5116   3666205.4038   2   6   0.0434   0.0888   0.0702  -0.0067  -0.0606   0.0111   0.00    2.0
2173 246040.000    798177.2066  -5149234.5154   3666205.4157   2   6   0.0432   0.0883   0.0696  -0.0066  -0.0601   0.0110   0.00    2.0
2173 246041.000    798177.2091  -5149234.5236   3666205.4193   2   6   0.0430   0.0879   0.0690  -0.0067  -0.0596   0.0108   0.00    2.0
2173 246042.000    798177.2101  -5149234.5152   3666205.4135   2   6   0.0428   0.0874   0.0683  -0.0066  -0.0591   0.0107   0.00    2.0
2173 246043.000    798177.2084  -5149234.5143   3666205.4130   2   6   0.0426   0.0869   0.0677  -0.0065  -0.0587   0.0106   0.00    2.1
2173 246044.000    798177.2113  -5149234.5125   3666205.4079   2   6   0.0425   0.0864   0.0671  -0.0064  -0.0582   0.0105   0.00    2.1
2173 246045.000    798177.2096  -5149234.5103   3666205.4187   2   7   0.0423   0.0859   0.0665  -0.0059  -0.0577   0.0103   0.00    1.0
2173 246046.000    798177.2107  -5149234.5099   3666205.4182   2   7   0.0421   0.0854   0.0659  -0.0052  -0.0571   0.0101   0.00    1.1
2173 246047.000    798177.2101  -5149234.5048   3666205.4168   2   7   0.0419   0.0848   0.0653  -0.0050  -0.0566   0.0098   0.00    1.1
2173 246048.000    798177.2099  -5149234.5063   3666205.4145   2   7   0.0417   0.0843   0.0647  -0.0041  -0.0561   0.0096   0.00    1.2
2173 246049.000    798177.2098  -5149234.5011   3666205.4109   2   7   0.0415   0.0839   0.0642  -0.0034  -0.0556   0.0095   0.00    1.2
2173 246050.000    798177.2084  -5149234.5026   3666205.4148   2   7   0.0413   0.0834   0.0636  -0.0032  -0.0551   0.0093   0.00    1.3
2173 246051.000    798177.2112  -5149234.4953   3666205.4075   2   7   0.0411   0.0829   0.0630  -0.0026  -0.0547   0.0090   0.00    1.3
2173 246052.000    798177.2102  -5149234.4888   3666205.3982   2   7   0.0410   0.0824   0.0625  -0.0008  -0.0542   0.0088   0.00    1.4
2173 246053.000    798177.2119  -5149234.4825   3666205.3930   2   7   0.0408   0.0820   0.0619   0.0012  -0.0538   0.0087   0.00    1.4
2173 246054.000    798177.2106  -5149234.4786   3666205.3917   2   7   0.0407   0.0816   0.0614   0.0024  -0.0533   0.0085   0.00    1.5
2173 246055.000    798177.2128  -5149234.4758   3666205.3824   2   7   0.0404   0.0811   0.0609   0.0034  -0.0529   0.0084   0.00    1.5
2173 246056.000    798177.2148  -5149234.4695   3666205.3800   2   7   0.0403   0.0807   0.0603   0.0036  -0.0524   0.0082   0.00    1.6
2173 246057.000    798177.2189  -5149234.4600   3666205.3644   2   7   0.0401   0.0802   0.0598   0.0039  -0.0520   0.0080   0.00    1.6
2173 246058.000    798177.2158  -5149234.4578   3666205.3566   2   7   0.0399   0.0798   0.0593   0.0044  -0.0516   0.0079   0.00    1.7
2173 246059.000    798177.2198  -5149234.4531   3666205.3461   2   7   0.0398   0.0794   0.0588   0.0047  -0.0511   0.0077   0.00    1.7
2173 246060.000    798177.2205  -5149234.4425   3666205.3350   2   7   0.0396   0.0790   0.0583   0.0050  -0.0507   0.0076   0.00    1.8
2173 246061.000    798177.2205  -5149234.4400   3666205.3243   2   7   0.0395   0.0786   0.0578   0.0053  -0.0503   0.0073   0.00    1.8
2173 246062.000    798177.2212  -5149234.4348   3666205.3126   2   7   0.0393   0.0782   0.0573   0.0055  -0.0499   0.0073   0.00    1.9
2173 246063.000    798177.2217  -5149234.4305   3666205.3006   2   7   0.0392   0.0778   0.0569   0.0057  -0.0495   0.0071   0.00    1.9
2173 246064.000    798177.2197  -5149234.4168   3666205.2897   2   7   0.0390   0.0774   0.0564   0.0060  -0.0491   0.0071   0.00    2.0
2173 246065.000    798177.2188  -5149234.4082   3666205.2727   2   7   0.0389   0.0770   0.0559   0.0061  -0.0488   0.0068   0.00    2.1
2173 246066.000    798177.2197  -5149234.3925   3666205.2552   2   7   0.0387   0.0766   0.0554   0.0066  -0.0484   0.0067   0.00    2.1
2173 246067.000    798177.2181  -5149234.3839   3666205.2467   2   7   0.0385   0.0762   0.0550   0.0064  -0.0480   0.0065   0.00    2.2
2173 246068.000    798177.2167  -5149234.3782   3666205.2339   2   7   0.0384   0.0759   0.0545   0.0065  -0.0476   0.0063   0.00    2.2
2173 246069.000    798177.2208  -5149234.3706   3666205.2192   2   7   0.0382   0.0755   0.0541   0.0068  -0.0473   0.0062   0.00    2.3
2173 246070.000    798177.2262  -5149234.3623   3666205.2021   2   7   0.0382   0.0751   0.0536   0.0070  -0.0469   0.0061   0.00    2.3
2173 246071.000    798177.2218  -5149234.3612   3666205.2012   2   7   0.0379   0.0748   0.0532   0.0072  -0.0466   0.0060   0.00    2.4
2173 246072.000    798177.2228  -5149234.3495   3666205.1798   2   7   0.0379   0.0744   0.0528   0.0071  -0.0462   0.0056   0.00    2.5
2173 246073.000    798177.2210  -5149234.3424   3666205.1715   2   7   0.0377   0.0741   0.0524   0.0073  -0.0459   0.0056   0.00    2.5
2173 246074.000    798177.2243  -5149234.3365   3666205.1618   2   7   0.0376   0.0738   0.0520   0.0073  -0.0455   0.0055   0.00    2.6
2173 246075.000    798177.2183  -5149234.3233   3666205.1423   2   7   0.0374   0.0734   0.0515   0.0075  -0.0452   0.0054   0.00    2.6
2173 246076.000    798177.2190  -5149234.3097   3666205.1269   2   7   0.0373   0.0731   0.0511   0.0076  -0.0449   0.0053   0.00    2.7
2173 246077.000    798177.2203  -5149234.3036   3666205.1098   2   7   0.0371   0.0727   0.0507   0.0077  -0.0446   0.0050   0.00    2.7
2173 246078.000    798177.2240  -5149234.3005   3666205.1082   2   7   0.0370   0.0724   0.0503   0.0079  -0.0442   0.0051   0.00    2.8
2173 246079.000    798177.2219  -5149234.2923   3666205.0965   2   7   0.0368   0.0721   0.0499   0.0079  -0.0439   0.0050   0.00    2.8
2173 246080.000    798177.2203  -5149234.2891   3666205.0903   2   7   0.0367   0.0718   0.0495   0.0080  -0.0436   0.0048   0.00    2.8
2173 246081.000    798177.2230  -5149234.2836   3666205.0847   2   7   0.0367   0.0715   0.0492   0.0077  -0.0433   0.0044   0.00    2.8
2173 246082.000    798177.2220  -5149234.2786   3666205.0771   2   7   0.0365   0.0712   0.0488   0.0079  -0.0430   0.0045   0.00    2.9
2173 246083.000    798177.2213  -5149234.2691   3666205.0646   2   7   0.0364   0.0709   0.0484   0.0081  -0.0427   0.0043   0.00    2.9
2173 246084.000    798177.2187  -5149234.2641   3666205.0541   2   7   0.0362   0.0705   0.0480   0.0082  -0.0424   0.0044   0.00    2.9
2173 246085.000    798177.2193  -5149234.2568   3666205.0528   2   7   0.0361   0.0702   0.0477   0.0083  -0.0421   0.0040   0.00    2.9
2173 246086.000    798177.2204  -5149234.2515   3666205.0386   2   7   0.0360   0.0700   0.0473   0.0083  -0.0418   0.0041   0.00    3.0
2173 246087.000    798177.2190  -5149234.2446   3666205.0355   2   7   0.0359   0.0697   0.0470   0.0085  -0.0415   0.0039   0.00    3.0
2173 246088.000    798177.3316  -5149234.2759   3666204.8713   1   7   0.0042   0.0096   0.0095   0.0017  -0.0077  -0.0015   0.00    3.0
2173 246089.000    798177.3293  -5149234.2795   3666204.8732   1   7   0.0047   0.0099   0.0096   0.0016  -0.0075  -0.0016   0.00    3.0
2173 246090.000    798177.3278  -5149234.2768   3666204.8702   1   7   0.0044   0.0096   0.0095   0.0018  -0.0077  -0.0019   0.00    3.1
2173 246091.000    798177.3304  -5149234.2763   3666204.8713   1   7   0.0049   0.0097   0.0096   0.0025  -0.0076  -0.0017   0.00    3.1
2173 246092.000    798177.3280  -5149234.2834   3666204.8761   1   7   0.0041   0.0095   0.0095   0.0026  -0.0078  -0.0013   0.00    3.1
2173 246093.000    798177.3266  -5149234.2816   3666204.8702   1   7   0.0042   0.0097   0.0096   0.0013  -0.0076  -0.0016   0.00    3.1
2173 246094.000    798177.3280  -5149234.2878   3666204.8756   1   7   0.0045   0.0096   0.0095   0.0015  -0.0077  -0.0015   0.00    3.1
2173 246095.000    798177.3281  -5149234.2920   3666204.8727   1   7   0.0042   0.0096   0.0095   0.0024  -0.0077  -0.0016   0.00    3.1
2173 246096.000    798177.3299  -5149234.2878   3666204.8692   1   7   0.0040   0.0096   0.0095   0.0024  -0.0077  -0.0008   0.00    3.2
2173 246097.000    798177.3279  -5149234.2884   3666204.8691   1   7   0.0040   0.0096   0.0095   0.0025  -0.0077  -0.0011   0.00    3.2
2173 246098.000    798177.3273  -5149234.2995   3666204.8756   1   7   0.0049   0.0097   0.0096   0.0023  -0.0077  -0.0011   0.00    3.2
2173 246099.000    798177.3259  -5149234.2994   3666204.8786   1   7   0.0043   0.0096   0.0095   0.0026  -0.0077  -0.0009   0.00    3.2
2173 246100.000    798177.3263  -5149234.3000   3666204.8755   1   7   0.0045   0.0096   0.0095   0.0017  -0.0077  -0.0016   0.00    3.2
2173 246101.000    798177.3261  -5149234.2991   3666204.8708   1   7   0.0042   0.0095   0.0095   0.0025  -0.0078  -0.0014   0.00    3.3
2173 246102.000    798177.3244  -5149234.2955   3666204.8718   1   7   0.0039   0.0096   0.0096   0.0020  -0.0077  -0.0013   0.00    3.3
2173 246103.000    798177.3244  -5149234.3047   3666204.8789   1   7   0.0042   0.0094   0.0095   0.0028  -0.0078  -0.0006   0.00    3.3
2173 246104.000    798177.3251  -5149234.3009   3666204.8762   1   7   0.0048   0.0098   0.0095   0.0020  -0.0075  -0.0015   0.00    3.3
2173 246105.000    798177.3274  -5149234.3040   3666204.8743   1   7   0.0044   0.0097   0.0096   0.0026  -0.0077  -0.0009   0.00    3.3
2173 246106.000    798177.3275  -5149234.3065   3666204.8783   1   7   0.0045   0.0097   0.0096   0.0021  -0.0077  -0.0017   0.00    3.4
2173 246107.000    798177.3273  -5149234.3011   3666204.8761   1   7   0.0042   0.0097   0.0095   0.0018  -0.0076  -0.0012   0.00    3.4
2173 246108.000    798177.3267  -5149234.3036   3666204.8778   1   7   0.0045   0.0098   0.0096   0.0020  -0.0075  -0.0017   0.00    3.4
2173 246109.000    798177.3277  -5149234.3045   3666204.8751   1   7   0.0049   0.0098   0.0096   0.0013  -0.0076  -0.0022   0.00    3.4
2173 246110.000    798177.3278  -5149234.3019   3666204.8715   1   7   0.0042   0.0095   0.0095   0.0023  -0.0078  -0.0010   0.00    3.4
2173 246111.000    798177.3289  -5149234.2993   3666204.8634   1   7   0.0046   0.0095   0.0096   0.0020  -0.0077  -0.0016   0.00    3.5
2173 246112.000    798177.3282  -5149234.3017   3666204.8699   1   7   0.0048   0.0097   0.0095   0.0020  -0.0077  -0.0014   0.00    3.5
2173 246113.000    798177.3303  -5149234.2990   3666204.8697   1   7   0.0045   0.0097   0.0095   0.0020  -0.0077  -0.0016   0.00    3.5
2173 246114.000    798177.3284  -5149234.3001   3666204.8693   1   7   0.0042   0.0095   0.0094   0.0021  -0.0078  -0.0012   0.00    3.5
2173 246115.000    798177.3296  -5149234.2958   3666204.8621   1   7   0.0043   0.0095   0.0095   0.0027  -0.0078   0.0012   0.00    3.5
2173 246116.000    798177.3282  -5149234.3029   3666204.8679   1   7   0.0045   0.0096   0.0095   0.0016  -0.0077  -0.0013   0.00    3.5
2173 246117.000    798177.3283  -5149234.3020   3666204.8676   1   7   0.0045   0.0096   0.0095   0.0020  -0.0076  -0.0014   0.00    3.5
2173 246118.000    798177.3293  -5149234.2989   3666204.8602   1   7   0.0040   0.0097   0.0096   0.0019  -0.0076  -0.0015   0.00    3.5
2173 246119.000    798177.3313  -5149234.2986   3666204.8623   1   7   0.0043   0.0098   0.0096   0.0025  -0.0075  -0.0015   0.00    3.5
2173 246120.000    798177.3275  -5149234.2956   3666204.8536   1   7   0.0037   0.0095   0.0095   0.0027  -0.0078  -0.0007   0.00    3.5
2173 246121.000    798177.3318  -5149234.2945   3666204.8582   1   7   0.0051   0.0097   0.0096   0.0016  -0.0076  -0.0017   0.00    3.5
2173 246122.000    798177.3309  -5149234.3008   3666204.8601   1   7   0.0042   0.0095   0.0095   0.0025  -0.0078  -0.0007   0.00    3.5
2173 246123.000    798177.3310  -5149234.2992   3666204.8558   1   7   0.0044   0.0097   0.0096   0.0018  -0.0077  -0.0013   0.00    3.5
2173 246124.000    798177.3330  -5149234.2980   3666204.8509   1   7   0.0047   0.0098   0.0096   0.0016  -0.0076  -0.0017   0.00    3.5
2173 246125.000    798177.3310  -5149234.2995   3666204.8549   1   7   0.0044   0.0096   0.0095   0.0024  -0.0077  -0.0015   0.00    3.5
2173 246126.000    798177.3322  -5149234.3036   3666204.8587   1   7   0.0041   0.0096   0.0095   0.0023  -0.0078  -0.0017   0.00    3.5
2173 246127.000    798177.3362  -5149234.2999   3666204.8565   1   7   0.0039   0.0096   0.0095   0.0028  -0.0077  -0.0011   0.00    3.5
2173 246128.000    798177.3309  -5149234.2949   3666204.8542   1   7   0.0049   0.0098   0.0097   0.0018  -0.0076  -0.0019   0.00    3.5
2173 246129.000    798177.3301  -5149234.3011   3666204.8604   1   7   0.0044   0.0096   0.0096   0.0025  -0.0077  -0.0015   0.00    3.5
2173 246130.000    798177.3310  -5149234.3017   3666204.8614   1   7   0.0041   0.0097   0.0095   0.0026  -0.0077  -0.0009   0.00    3.5
2173 246131.000    798177.3333  -5149234.2988   3666204.8587   1   7   0.0039   0.0095   0.0095   0.0030  -0.0078   0.0008   0.00    3.5
2173 246132.000    798177.3306  -5149234.2957   3666204.8582   1   7   0.0042   0.0096   0.0096   0.0018  -0.0077  -0.0019   0.00    3.5
2173 246133.000    798177.3300  -5149234.3022   3666204.8609   1   7   0.0045   0.0096   0.0096   0.0022  -0.0077  -0.0010   0.00    3.5
2173 246134.000    798177.3290  -5149234.2985   3666204.8582   1   7   0.0044   0.0097   0.0095   0.0021  -0.0077  -0.0014   0.00    3.5
2173 246135.000    798177.3330  -5149234.3013   3666204.8669   1   7   0.0044   0.0097   0.0095   0.0013  -0.0076  -0.0016   0.00    3.4
2173 246136.000    798177.3320  -5149234.2969   3666204.8583   1   7   0.0041   0.0096   0.0095   0.0022  -0.0077  -0.0012   0.00    3.4
2173 246137.000    798177.3329  -5149234.2928   3666204.8576   1   7   0.0045   0.0098   0.0096   0.0021  -0.0076  -0.0016   0.00    3.4
2173 246138.000    798177.3300  -5149234.2970   3666204.8586   1   7   0.0048   0.0097   0.0095   0.0025  -0.0077  -0.0009   0.00    3.4
2173 246139.000    798177.3294  -5149234.2993   3666204.8562   1   7   0.0042   0.0096   0.0095   0.0024  -0.0077  -0.0011   0.00    3.4
2173 246140.000    798177.3322  -5149234.3024   3666204.8619   1   7   0.0040   0.0096   0.0095   0.0022  -0.0078  -0.0014   0.00    3.4
2173 246141.000    798177.3319  -5149234.3006   3666204.8597   1   7   0.0043   0.0096   0.0096   0.0028  -0.0078  -0.0011   0.00    3.4
2173 246142.000    798177.3321  -5149234.3034   3666204.8624   1   7   0.0047   0.0097   0.0095   0.0021  -0.0077  -0.0012   0.00    3.4
2173 246143.000    798177.3327  -5149234.3008   3666204.8568   1   7   0.0038   0.0095   0.0095   0.0024  -0.0078  -0.0008   0.00    3.4
2173 246144.000    798177.3311  -5149234.3012   3666204.8579   1   7   0.0046   0.0096   0.0096   0.0026  -0.0077  -0.0014   0.00    3.4
2173 246145.000    798177.3343  -5149234.3001   3666204.8592   1   7   0.0043   0.0096   0.0095   0.0023  -0.0078  -0.0012   0.00    3.4
2173 246146.000    798177.3333  -5149234.3092   3666204.8647   1   7   0.0048   0.0096   0.0095   0.0019  -0.0077  -0.0016   0.00    3.4
2173 246147.000    798177.3359  -5149234.3078   3666204.8597   1   7   0.0044   0.0098   0.0095   0.0019  -0.0075  -0.0015   0.00    3.3
2173 246148.000    798177.3356  -5149234.3034   3666204.8600   1   7   0.0037   0.0094   0.0095   0.0023  -0.0078  -0.0017   0.00    3.3
2173 246149.000    798177.3354  -5149234.3050   3666204.8580   1   7   0.0043   0.0097   0.0095   0.0019  -0.0077  -0.0018   0.00    3.3
2173 246150.000    798177.3343  -5149234.3070   3666204.8636   1   7   0.0045   0.0096   0.0095   0.0023  -0.0078  -0.0013   0.00    3.3
2173 246151.000    798177.3345  -5149234.3023   3666204.8581   1   7   0.0046   0.0096   0.0095   0.0020  -0.0077  -0.0016   0.00    3.3
2173 246152.000    798177.3363  -5149234.3037   3666204.8613   1   7   0.0043   0.0097   0.0095   0.0023  -0.0078  -0.0011   0.00    3.3
2173 246153.000    798177.3366  -5149234.3053   3666204.8593   1   7   0.0041   0.0096   0.0095   0.0023  -0.0077  -0.0013   0.00    3.3
2173 246154.000    798177.3382  -5149234.3055   3666204.8611   1   7   0.0043   0.0095   0.0094   0.0026  -0.0078  -0.0007   0.00    3.3
2173 246155.000    798177.3351  -5149234.3049   3666204.8579   1   7   0.0042   0.0097   0.0096   0.0024  -0.0077  -0.0010   0.00    3.3
2173 246156.000    798177.3383  -5149234.3067   3666204.8632   1   7   0.0044   0.0095   0.0095   0.0022  -0.0078  -0.0012   0.00    3.3
2173 246157.000    798177.3379  -5149234.3054   3666204.8574   1   7   0.0044   0.0097   0.0096   0.0023  -0.0077  -0.0015   0.00    3.3
2173 246158.000    798177.3368  -5149234.3058   3666204.8568   1   7   0.0043   0.0095   0.0096   0.0021  -0.0078  -0.0016   0.00    3.3
2173 246159.000    798177.3363  -5149234.3083   3666204.8628   1   7   0.0038   0.0096   0.0094   0.0020  -0.0077  -0.0012   0.00    3.3
2173 246160.000    798177.3385  -5149234.3057   3666204.8604   1   7   0.0044   0.0097   0.0096   0.0027  -0.0077  -0.0014   0.00    3.2
2173 246161.000    798177.3382  -5149234.3053   3666204.8642   1   7   0.0044   0.0096   0.0096   0.0027  -0.0078  -0.0015   0.00    3.2
2173 246162.000    798177.3364  -5149234.3091   3666204.8644   1   7   0.0047   0.0097   0.0096   0.0020  -0.0077  -0.0017   0.00    3.2
2173 246163.000    798177.3381  -5149234.3087   3666204.8627   1   7   0.0045   0.0097   0.0096   0.0018  -0.0076  -0.0020   0.00    3.2
2173 246164.000    798177.3372  -5149234.3044   3666204.8626   1   7   0.0044   0.0095   0.0095   0.0018  -0.0078  -0.0017   0.00    3.2
2173 246165.000    798177.3379  -5149234.3102   3666204.8694   1   7   0.0042   0.0097   0.0096   0.0017  -0.0076  -0.0015   0.00    3.2
2173 246166.000    798177.3376  -5149234.3071   3666204.8591   1   7   0.0040   0.0095   0.0096   0.0023  -0.0078  -0.0015   0.00    3.2
2173 246167.000    798177.3399  -5149234.3086   3666204.8650   1   7   0.0049   0.0097   0.0096   0.0022  -0.0077  -0.0018   0.00    3.2
2173 246168.000    798177.3376  -5149234.3106   3666204.8685   1   7   0.0042   0.0097   0.0095   0.0025  -0.0076  -0.0016   0.00    3.2
2173 246169.000    798177.3370  -5149234.3012   3666204.8583   1   7   0.0039   0.0096   0.0096   0.0023  -0.0077  -0.0016   0.00    3.2
2173 246170.000    798177.3396  -5149234.3051   3666204.8589   1   7   0.0041   0.0097   0.0096   0.0018  -0.0076  -0.0018   0.00    3.2
2173 246171.000    798177.3381  -5149234.3093   3666204.8651   1   7   0.0046   0.0097   0.0095   0.0023  -0.0078  -0.0013   0.00    3.2
2173 246172.000    798177.3361  -5149234.3101   3666204.8645   1   7   0.0044   0.0096   0.0095   0.0026  -0.0078  -0.0013   0.00    3.2
2173 246173.000    798177.3365  -5149234.3088   3666204.8666   1   7   0.0041   0.0096   0.0096   0.0018  -0.0078  -0.0016   0.00    3.2
2173 246174.000    798177.3381  -5149234.3103   3666204.8637   1   7   0.0042   0.0096   0.0095   0.0026  -0.0078  -0.0016   0.00    3.2
2173 246175.000    798177.3346  -5149234.3101   3666204.8662   1   7   0.0045   0.0096   0.0095   0.0030  -0.0078  -0.0007   0.00    3.2
2173 246176.000    798177.3351  -5149234.3076   3666204.8581   1   7   0.0043   0.0097   0.0095   0.0024  -0.0077  -0.0012   0.00    3.2
2173 246177.000    798177.3344  -5149234.3149   3666204.8667   1   7   0.0041   0.0096   0.0095   0.0021  -0.0078  -0.0016   0.00    3.2
2173 246178.000    798177.3319  -5149234.3134   3666204.8658   1   7   0.0039   0.0094   0.0095   0.0028  -0.0079  -0.0009   0.00    3.2
2173 246179.000    798177.3348  -5149234.3114   3666204.8622   1   7   0.0045   0.0096   0.0095   0.0024  -0.0078  -0.0012   0.00    3.2
2173 246180.000    798177.3317  -5149234.3107   3666204.8631   1   7   0.0041   0.0096   0.0095   0.0023  -0.0077  -0.0014   0.00    3.2
2173 246181.000    798177.3299  -5149234.3145   3666204.8634   1   7   0.0046   0.0097   0.0096   0.0017  -0.0077  -0.0018   0.00    3.2
2173 246182.000    798177.3297  -5149234.3122   3666204.8632   1   7   0.0038   0.0096   0.0095   0.0024  -0.0078  -0.0012   0.00    3.2
2173 246183.000    798177.3306  -5149234.3131   3666204.8643   1   7   0.0040   0.0096   0.0095   0.0022  -0.0077  -0.0008   0.00    3.2
2173 246184.000    798177.3254  -5149234.3106   3666204.8617   1   7   0.0044   0.0097   0.0095   0.0021  -0.0077  -0.0016   0.00    3.2
2173 246185.000    798177.3260  -5149234.3137   3666204.8693   1   7   0.0041   0.0095   0.0095   0.0029  -0.0078  -0.0009   0.00    3.2
2173 246186.000    798177.3279  -5149234.3167   3666204.8710   1   7   0.0044   0.0097   0.0097   0.0026  -0.0077  -0.0009   0.00    3.2
2173 246187.000    798177.3258  -5149234.3108   3666204.8672   1   7   0.0044   0.0097   0.0095   0.0018  -0.0077  -0.0010   0.00    3.2
2173 246188.000    798177.3253  -5149234.3161   3666204.8714   1   7   0.0044   0.0097   0.0096   0.0026  -0.0077  -0.0016   0.00    3.3
2173 246189.000    798177.3257  -5149234.3158   3666204.8733   1   7   0.0046   0.0095   0.0095   0.0024  -0.0079  -0.0011   0.00    3.3
2173 246190.000    798177.3259  -5149234.3192   3666204.8725   1   7   0.0044   0.0097   0.0096   0.0023  -0.0078  -0.0016   0.00    3.3
2173 246191.000    798177.3252  -5149234.3222   3666204.8777   1   7   0.0043   0.0096   0.0095   0.0023  -0.0078  -0.0012   0.00    3.3
2173 246192.000    798177.3267  -5149234.3143   3666204.8704   1   7   0.0044   0.0097   0.0096   0.0022  -0.0077  -0.0010   0.00    3.3
2173 246193.000    798177.3266  -5149234.3178   3666204.8753   1   7   0.0045   0.0097   0.0096   0.0023  -0.0077  -0.0014   0.00    3.3
2173 246194.000    798177.3273  -5149234.3194   3666204.8728   1   7   0.0044   0.0096   0.0095   0.0025  -0.0078  -0.0010   0.00    3.3
2173 246195.000    798177.3245  -5149234.3190   3666204.8735   1   7   0.0048   0.0097   0.0095   0.0019  -0.0077  -0.0014   0.00    3.3
2173 246196.000    798177.3222  -5149234.3198   3666204.8791   1   7   0.0043   0.0096   0.0095   0.0022  -0.0078  -0.0018   0.00    3.3
2173 246197.000    798177.3246  -5149234.3154   3666204.8744   1   7   0.0047   0.0097   0.0095   0.0020  -0.0077  -0.0015   0.00    3.3
2173 246198.000    798177.3237  -5149234.3185   3666204.8783   1   7   0.0043   0.0096   0.0095   0.0018  -0.0078  -0.0013   0.00    3.4
2173 246199.000    798177.3236  -5149234.3149   3666204.8738   1   7   0.0047   0.0098   0.0096   0.0019  -0.0077  -0.0012   0.00    3.4
2173 246200.000    798177.3255  -5149234.3125   3666204.8768   1   7   0.0045   0.0096   0.0096   0.0020  -0.0078  -0.0016   0.00    3.4
2173 246201.000    798177.3266  -5149234.3057   3666204.8702   1   7   0.0045   0.0097   0.0095   0.0021  -0.0077  -0.0015   0.00    3.4
2173 246202.000    798177.3240  -5149234.3090   3666204.8666   1   7   0.0042   0.0096   0.0095   0.0025  -0.0079  -0.0011   0.00    3.5
2173 246203.000    798177.3271  -5149234.3117   3666204.8777   1   7   0.0040   0.0097   0.0095   0.0020  -0.0077  -0.0018   0.00    3.5
2173 246204.000    798177.3269  -5149234.3114   3666204.8741   1   7   0.0044   0.0097   0.0095   0.0024  -0.0077  -0.0007   0.00    3.5
2173 246205.000    798177.3226  -5149234.3116   3666204.8777   1   7   0.0042   0.0096   0.0095   0.0021  -0.0077  -0.0014   0.00    3.5
2173 246206.000    798177.3247  -5149234.3117   3666204.8754   1   7   0.0041   0.0096   0.0095   0.0017  -0.0077  -0.0015   0.00    3.6
2173 246207.000    798177.3271  -5149234.3052   3666204.8757   1   7   0.0042   0.0096   0.0095   0.0016  -0.0077  -0.0015   0.00    3.6
2173 246208.000    798177.3271  -5149234.3095   3666204.8693   1   7   0.0040   0.0096   0.0096   0.0024  -0.0078  -0.0017   0.00    3.6
2173 246209.000    798177.3272  -5149234.3026   3666204.8738   1   7   0.0046   0.0097   0.0095   0.0026  -0.0078  -0.0011   0.00    3.6
2173 246210.000    798177.3265  -5149234.2989   3666204.8696   1   7   0.0045   0.0097   0.0095   0.0027  -0.0077  -0.0014   0.00    3.7
2173 246211.000    798177.3270  -5149234.3037   3666204.8745   1   7   0.0043   0.0097   0.0096   0.0020  -0.0076  -0.0016   0.00    3.7
2173 246212.000    798177.3277  -5149234.3035   3666204.8731   1   7   0.0040   0.0096   0.0095   0.0028  -0.0078  -0.0005   0.00    3.7
2173 246213.000    798177.3250  -5149234.2961   3666204.8741   1   7   0.0043   0.0097   0.0096   0.0022  -0.0078  -0.0015   0.00    3.7
2173 246214.000    798177.3255  -5149234.2927   3666204.8696   1   7   0.0042   0.0097   0.0095   0.0025  -0.0077  -0.0014   0.00    3.7
2173 246215.000    798177.3280  -5149234.2971   3666204.8741   1   7   0.0046   0.0097   0.0096   0.0022  -0.0077  -0.0017   0.00    3.8
2173 246216.000    798177.3285  -5149234.2932   3666204.8712   1   7   0.0044   0.0096   0.0096   0.0019  -0.0078  -0.0018   0.00    3.8
2173 246217.000    798177.3281  -5149234.2983   3666204.8784   1   7   0.0046   0.0097   0.0096   0.0020  -0.0076  -0.0016   0.00    3.8
2173 246218.000    798177.3277  -5149234.2944   3666204.8765   1   7   0.0042   0.0096   0.0095   0.0022  -0.0078  -0.0017   0.00    3.8
2173 246219.000    798177.3256  -5149234.2925   3666204.8740   1   7   0.0041   0.0096   0.0096   0.0021  -0.0078  -0.0014   0.00    3.8
2173 246220.000    798177.3243  -5149234.2985   3666204.8752   1   7   0.0045   0.0096   0.0096   0.0019  -0.0078  -0.0017   0.00    3.8
2173 246221.000    798177.3255  -5149234.2993   3666204.8808   1   7   0.0048   0.0098   0.0096   0.0015  -0.0076  -0.0020   0.00    3.8
2173 246222.000    798177.3221  -5149234.2952   3666204.8735   1   7   0.0045   0.0097   0.0095   0.0022  -0.0077  -0.0016   0.00    3.9
2173 246223.000    798177.3222  -5149234.2937   3666204.8741   1   7   0.0045   0.0096   0.0095   0.0022  -0.0077  -0.0008   0.00    3.9
2173 246224.000    798177.3196  -5149234.2994   3666204.8812   1   7   0.0043   0.0098   0.0096   0.0024  -0.0077  -0.0019   0.00    3.9
2173 246225.000    798177.3170  -5149234.2996   3666204.8830   1   7   0.0042   0.0095   0.0095   0.0028  -0.0078  -0.0003   0.00    3.9
2173 246226.000    798177.3184  -5149234.2970   3666204.8830   1   7   0.0045   0.0096   0.0095   0.0022  -0.0078  -0.0017   0.00    4.0
2173 246227.000    798177.3188  -5149234.2928   3666204.8808   1   7   0.0043   0.0096   0.0096   0.0023  -0.0077  -0.0019   0.00    4.0
2173 246228.000    798177.3162  -5149234.2981   3666204.8824   1   7   0.0043   0.0096   0.0095   0.0026  -0.0078  -0.0012   0.00    4.0
2173 246229.000    798177.3128  -5149234.3046   3666204.8908   1   7   0.0044   0.0097   0.0095   0.0019  -0.0078  -0.0015   0.00    4.1
2173 246230.000    798177.3144  -5149234.2982   3666204.8793   1   7   0.0043   0.0096   0.0095   0.0028  -0.0079  -0.0007   0.00    4.1
2173 246231.000    798177.3158  -5149234.3080   3666204.8890   1   7   0.0043   0.0096   0.0095   0.0025  -0.0079  -0.0017   0.00    4.1
2173 246232.000    798177.3154  -5149234.3098   3666204.8917   1   7   0.0041   0.0097   0.0096   0.0021  -0.0078  -0.0018   0.00    4.2
2173 246233.000    798177.3129  -5149234.3174   3666204.8981   1   7   0.0044   0.0096   0.0095   0.0026  -0.0078  -0.0011   0.00    4.2
2173 246234.000    798177.3125  -5149234.3152   3666204.8991   1   7   0.0042   0.0097   0.0096   0.0023  -0.0077  -0.0014   0.00    4.2
2173 246235.000    798177.3122  -5149234.3147   3666204.8992   1   7   0.0044   0.0096   0.0096   0.0023  -0.0078  -0.0012   0.00    4.2
2173 246236.000    798177.3139  -5149234.3119   3666204.9007   1   7   0.0043   0.0096   0.0095   0.0025  -0.0078  -0.0018   0.00    4.3
2173 246237.000    798177.3127  -5149234.3183   3666204.8996   1   7   0.0037   0.0096   0.0095   0.0019  -0.0078  -0.0016   0.00    4.3
2173 246238.000    798177.3165  -5149234.3142   3666204.9053   1   7   0.0039   0.0096   0.0096   0.0025  -0.0078  -0.0012   0.00    4.3
2173 246239.000    798177.3131  -5149234.3154   3666204.9018   1   7   0.0043   0.0096   0.0096   0.0023  -0.0077  -0.0015   0.00    4.3
2173 246240.000    798177.3142  -5149234.3113   3666204.9009   1   7   0.0042   0.0097   0.0095   0.0022  -0.0077  -0.0013   0.00    4.3
2173 246241.000    798177.3141  -5149234.3138   3666204.9048   1   7   0.0040   0.0096   0.0096   0.0027  -0.0078  -0.0011   0.00    4.4
2173 246242.000    798177.3149  -5149234.3150   3666204.9081   1   7   0.0046   0.0097   0.0096   0.0018  -0.0077  -0.0021   0.00    4.4
2173 246243.000    798177.3174  -5149234.3175   3666204.9080   1   7   0.0045   0.0096   0.0096   0.0021  -0.0078  -0.0014   0.00    4.4
2173 246244.000    798177.3146  -5149234.3200   3666204.9100   1   7   0.0043   0.0097   0.0096   0.0024  -0.0077  -0.0014   0.00    4.4
2173 246245.000    798177.3143  -5149234.3229   3666204.9102   1   7   0.0040   0.0095   0.0095   0.0025  -0.0079  -0.0014   0.00    4.4
2173 246246.000    798177.3160  -5149234.3217   3666204.9116   1   7   0.0047   0.0097   0.0096   0.0017  -0.0077  -0.0019   0.00    4.5
2173 246247.000    798177.3176  -5149234.3211   3666204.9113   1   7   0.0042   0.0096   0.0096   0.0022  -0.0079  -0.0012   0.00    4.5
2173 246248.000    798177.3152  -5149234.3239   3666204.9148   1   7   0.0043   0.0096   0.0096   0.0019  -0.0078  -0.0014   0.00    4.5
2173 246249.000    798177.3170  -5149234.3261   3666204.9102   1   7   0.0048   0.0097   0.0095   0.0024  -0.0077  -0.0017   0.00    4.5
2173 246250.000    798177.3151  -5149234.3273   3666204.9103   1   7   0.0042   0.0097   0.0096   0.0021  -0.0077  -0.0016   0.00    4.5
2173 246251.000    798177.3166  -5149234.3307   3666204.9208   1   7   0.0047   0.0097   0.0096   0.0021  -0.0078  -0.0019   0.00    4.5
2173 246252.000    798177.3156  -5149234.3328   3666204.9244   1   7   0.0045   0.0096   0.0096   0.0025  -0.0078  -0.0014   0.00    4.6
2173 246253.000    798177.3138  -5149234.3348   3666204.9225   1   7   0.0041   0.0096   0.0095   0.0028  -0.0079  -0.0009   0.00    4.6
2173 246254.000    798177.3146  -5149234.3342   3666204.9211   1   7   0.0040   0.0096   0.0095   0.0023  -0.0078  -0.0015   0.00    4.6
2173 246255.000    798177.3126  -5149234.3365   3666204.9220   1   7   0.0041   0.0096   0.0095   0.0024  -0.0078  -0.0013   0.00    4.6
2173 246256.000    798177.3107  -5149234.3372   3666204.9222   1   7   0.0040   0.0097   0.0096   0.0021  -0.0077  -0.0016   0.00    4.6
2173 246257.000    798177.3117  -5149234.3387   3666204.9266   1   7   0.0046   0.0097   0.0095   0.0023  -0.0077  -0.0013   0.00    4.6
2173 246258.000    798177.3130  -5149234.3436   3666204.9268   1   7   0.0047   0.0097   0.0096   0.0024  -0.0077  -0.0016   0.00    4.7
2173 246259.000    798177.3129  -5149234.3435   3666204.9268   1   7   0.0045   0.0096   0.0096   0.0023  -0.0078  -0.0022   0.00    4.7
2173 246260.000    798177.3139  -5149234.3489   3666204.9364   1   7   0.0045   0.0097   0.0097   0.0015  -0.0077  -0.0020   0.00    4.7
2173 246261.000    798177.3120  -5149234.3464   3666204.9292   1   7   0.0044   0.0097   0.0095   0.0021  -0.0078  -0.0018   0.00    4.7
2173 246262.000    798177.3118  -5149234.3441   3666204.9260   1   7   0.0045   0.0097   0.0096   0.0022  -0.0077  -0.0018   0.00    4.7
2173 246263.000    798177.3133  -5149234.3446   3666204.9249   1   7   0.0042   0.0096   0.0096   0.0023  -0.0078  -0.0017   0.00    4.8
2173 246264.000    798177.3133  -5149234.3440   3666204.9290   1   7   0.0047   0.0097   0.0096   0.0019  -0.0077  -0.0016   0.00    4.8
2173 246265.000    798177.3136  -5149234.3488   3666204.9324   1   7   0.0041   0.0097   0.0096   0.0018  -0.0077  -0.0019   0.00    4.8
2173 246266.000    798177.3152  -5149234.3449   3666204.9316   1   7   0.0044   0.0098   0.0096   0.0017  -0.0077  -0.0019   0.00    4.8
2173 246267.000    798177.3094  -5149234.3429   3666204.9278   1   7   0.0045   0.0097   0.0097   0.0022  -0.0078  -0.0017   0.00    4.8
2173 246268.000    798177.3119  -5149234.3476   3666204.9330   1   7   0.0040   0.0096   0.0096   0.0027  -0.0078  -0.0013   0.00    4.9
2173 246269.000    798177.3114  -5149234.3488   3666204.9346   1   7   0.0042   0.0097   0.0096   0.0023  -0.0078  -0.0018   0.00    4.9
2173 246270.000    798177.3135  -5149234.3485   3666204.9359   1   7   0.0042   0.0097   0.0096   0.0019  -0.0077  -0.0019   0.00    4.9
2173 246271.000    798177.3080  -5149234.3461   3666204.9341   1   7   0.0036   0.0096   0.0095   0.0022  -0.0078  -0.0014   0.00    4.9
2173 246272.000    798177.3114  -5149234.3444   3666204.9319   1   7   0.0044   0.0097   0.0096   0.0025  -0.0077  -0.0016   0.00    4.9
2173 246273.000    798177.3095  -5149234.3465   3666204.9405   1   7   0.0047   0.0097   0.0096   0.0020  -0.0077  -0.0018   0.00    4.9
2173 246274.000    798177.3121  -5149234.3409   3666204.9362   1   7   0.0042   0.0097   0.0096   0.0021  -0.0078  -0.0016   0.00    4.9
2173 246275.000    798177.3095  -5149234.3397   3666204.9390   1   7   0.0038   0.0095   0.0095   0.0029  -0.0079  -0.0002   0.00    4.9
2173 246276.000    798177.3117  -5149234.3401   3666204.9387   1   7   0.0044   0.0097   0.0096   0.0023  -0.0077  -0.0018   0.00    5.0
2173 246277.000    798177.3093  -5149234.3436   3666204.9375   1   7   0.0042   0.0096   0.0097   0.0023  -0.0079  -0.0015   0.00    5.0
2173 246278.000    798177.3107  -5149234.3418   3666204.9444   1   7   0.0044   0.0097   0.0096   0.0018  -0.0078  -0.0020   0.00    5.0
2173 246279.000    798177.3118  -5149234.3445   3666204.9436   1   7   0.0043   0.0097   0.0096   0.0023  -0.0078  -0.0013   0.00    5.0
2173 246280.000    798177.3109  -5149234.3391   3666204.9362   1   7   0.0043   0.0098   0.0096   0.0018  -0.0077  -0.0019   0.00    5.0
2173 246281.000    798177.3104  -5149234.3441   3666204.9447   1   7   0.0046   0.0098   0.0096   0.0023  -0.0077  -0.0018   0.00    5.1
2173 246282.000    798177.3110  -5149234.3470   3666204.9480   1   7   0.0040   0.0096   0.0096   0.0020  -0.0078  -0.0018   0.00    5.1
2173 246283.000    798177.3095  -5149234.3450   3666204.9480   1   7   0.0041   0.0097   0.0096   0.0021  -0.0077  -0.0018   0.00    5.1
2173 246284.000    798177.3102  -5149234.3433   3666204.9430   1   7   0.0042   0.0096   0.0096   0.0024  -0.0078  -0.0016   0.00    5.1
2173 246285.000    798177.3131  -5149234.3429   3666204.9386   1   7   0.0045   0.0095   0.0095   0.0020  -0.0079  -0.0018   0.00    5.1
2173 246286.000    798177.3126  -5149234.3471   3666204.9405   1   7   0.0047   0.0097   0.0096   0.0019  -0.0077  -0.0019   0.00    5.1
2173 246287.000    798177.3133  -5149234.3495   3666204.9433   1   7   0.0040   0.0096   0.0095   0.0029  -0.0079   0.0006   0.00    5.2
2173 246288.000    798177.3129  -5149234.3491   3666204.9454   1   7   0.0043   0.0095   0.0095   0.0024  -0.0079  -0.0018   0.00    5.2
2173 246289.000    798177.3117  -5149234.3513   3666204.9409   1   7   0.0040   0.0096   0.0096   0.0023  -0.0079  -0.0018   0.00    5.2
2173 246290.000    798177.3152  -5149234.3551   3666204.9535   1   7   0.0044   0.0098   0.0096   0.0023  -0.0077  -0.0014   0.00    5.2
2173 246291.000    798177.3141  -5149234.3575   3666204.9569   1   7   0.0042   0.0096   0.0096   0.0018  -0.0078  -0.0020   0.00    5.3
2173 246292.000    798177.3108  -5149234.3557   3666204.9577   1   7   0.0045   0.0098   0.0095   0.0018  -0.0077  -0.0017   0.00    5.3
2173 246293.000    798177.3113  -5149234.3521   3666204.9523   1   7   0.0042   0.0096   0.0096   0.0025  -0.0079  -0.0015   0.00    5.3
2173 246294.000    798177.3137  -5149234.3565   3666204.9553   1   7   0.0046   0.0097   0.0096   0.0015  -0.0078  -0.0016   0.00    5.3
2173 246295.000    798177.3136  -5149234.3568   3666204.9532   1   7   0.0036   0.0095   0.0096   0.0028  -0.0079  -0.0010   0.00    5.3
2173 246296.000    798177.3127  -5149234.3549   3666204.9509   1   7   0.0043   0.0097   0.0096   0.0019  -0.0077  -0.0017   0.00    5.3
2173 246297.000    798177.3136  -5149234.3521   3666204.9488   1   7   0.0047   0.0099   0.0096   0.0023  -0.0076  -0.0016   0.00    5.4
2173 246298.000    798177.3126  -5149234.3500   3666204.9529   1   7   0.0045   0.0096   0.0096   0.0021  -0.0078  -0.0014   0.00    5.4
2173 246299.000    798177.3136  -5149234.3533   3666204.9527   1   7   0.0048   0.0098   0.0096   0.0013  -0.0078  -0.0022   0.00    5.4
2173 246300.000    798177.3157  -5149234.3528   3666204.9477   1   7   0.0042   0.0096   0.0095   0.0019  -0.0078  -0.0016   0.00    5.4
2173 246301.000    798177.3136  -5149234.3521   3666204.9511   1   7   0.0046   0.0097   0.0097   0.0021  -0.0077  -0.0018   0.00    5.5
2173 246302.000    798177.3141  -5149234.3480   3666204.9554   1   7   0.0043   0.0097   0.0096   0.0027  -0.0077  -0.0010   0.00    5.5
2173 246303.000    798177.3136  -5149234.3446   3666204.9525   1   7   0.0042   0.0096   0.0096   0.0025  -0.0079  -0.0018   0.00    5.5
2173 246304.000    798177.3121  -5149234.3502   3666204.9551   1   7   0.0042   0.0096   0.0095   0.0021  -0.0079  -0.0018   0.00    5.5
2173 246305.000    798177.3138  -5149234.3550   3666204.9620   1   7   0.0041   0.0096   0.0095   0.0023  -0.0079  -0.0013   0.00    5.5
2173 246306.000    798177.3134  -5149234.3539   3666204.9586   1   7   0.0040   0.0096   0.0095   0.0019  -0.0079  -0.0013   0.00    5.5
2173 246307.000    798177.3158  -5149234.3579   3666204.9651   1   7   0.0043   0.0097   0.0095   0.0022  -0.0078  -0.0011   0.00    5.5
2173 246308.000    798177.3152  -5149234.3598   3666204.9656   1   7   0.0043   0.0096   0.0096   0.0022  -0.0079  -0.0017   0.00    5.6
2173 246309.000    798177.3131  -5149234.3541   3666204.9629   1   7   0.0045   0.0098   0.0096   0.0022  -0.0077  -0.0013   0.00    5.6
2173 246310.000    798177.3119  -5149234.3565   3666204.9629   1   7   0.0044   0.0096   0.0095   0.0023  -0.0079  -0.0014   0.00    5.6
2173 246311.000    798177.3148  -5149234.3593   3666204.9622   1   7   0.0046   0.0097   0.0096   0.0023  -0.0077  -0.0017   0.00    5.6
2173 246312.000    798177.3158  -5149234.3577   3666204.9646   1   7   0.0046   0.0098   0.0097   0.0016  -0.0077  -0.0020   0.00    5.6
2173 246313.000    798177.3148  -5149234.3614   3666204.9650   1   7   0.0043   0.0096   0.0096   0.0025  -0.0079  -0.0017   0.00    5.6
2173 246314.000    798177.3113  -5149234.3624   3666204.9607   1   7   0.0044   0.0097   0.0096   0.0016  -0.0078  -0.0018   0.00    5.6
2173 246315.000    798177.3147  -5149234.3588   3666204.9625   1   7   0.0042   0.0095   0.0095   0.0024  -0.0079  -0.0019   0.00    5.6
2173 246316.000    798177.3131  -5149234.3615   3666204.9650   1   7   0.0044   0.0096   0.0095   0.0029  -0.0079  -0.0018   0.00    5.6
2173 246317.000    798177.3152  -5149234.3574   3666204.9641   1   7   0.0042   0.0096   0.0096   0.0025  -0.0078  -0.0015   0.00    5.6
2173 246318.000    798177.3145  -5149234.3578   3666204.9618   1   7   0.0044   0.0097   0.0096   0.0022  -0.0078  -0.0017   0.00    5.6
2173 246319.000    798177.3160  -5149234.3602   3666204.9634   1   7   0.0043   0.0096   0.0095   0.0021  -0.0079  -0.0016   0.00    5.7
2173 246320.000    798177.3146  -5149234.3642   3666204.9634   1   7   0.0047   0.0098   0.0097   0.0018  -0.0078  -0.0017   0.00    5.7
2173 246321.000    798177.3159  -5149234.3667   3666204.9610   1   7   0.0046   0.0097   0.0096   0.0019  -0.0078  -0.0019   0.00    5.7
2173 246322.000    798177.3149  -5149234.3599   3666204.9627   1   7   0.0042   0.0096   0.0096   0.0019  -0.0078  -0.0019   0.00    5.7
2173 246323.000    798177.3152  -5149234.3600   3666204.9637   1   7   0.0042   0.0096   0.0096   0.0023  -0.0078  -0.0011   0.00    5.7
2173 246324.000    798177.3155  -5149234.3638   3666204.9586   1   7   0.0041   0.0097   0.0096   0.0024  -0.0077  -0.0011   0.00    5.7
2173 246325.000    798177.3144  -5149234.3676   3666204.9664   1   7   0.0047   0.0098   0.0097   0.0020  -0.0077  -0.0017   0.00    5.7
2173 246326.000    798177.3138  -5149234.3665   3666204.9671   1   7   0.0045   0.0097   0.0096   0.0022  -0.0078  -0.0018   0.00    5.7
2173 246327.000    798177.3130  -5149234.3609   3666204.9581   1   7   0.0046   0.0097   0.0096   0.0027  -0.0078  -0.0014   0.00    5.7
2173 246328.000    798177.3141  -5149234.3664   3666204.9634   1   7   0.0043   0.0095   0.0096   0.0023  -0.0079  -0.0019   0.00    5.7
2173 246329.000    798177.3145  -5149234.3702   3666204.9603   1   7   0.0043   0.0096   0.0095   0.0023  -0.0079  -0.0018   0.00    5.7
2173 246330.000    798177.3149  -5149234.3670   3666204.9574   1   7   0.0044   0.0096   0.0095   0.0023  -0.0079  -0.0016   0.00    5.7
2173 246331.000    798177.3161  -5149234.3628   3666204.9571   1   7   0.0039   0.0095   0.0095   0.0021  -0.0079  -0.0015   0.00    5.7
2173 246332.000    798177.3174  -5149234.3668   3666204.9537   1   7   0.0046   0.0098   0.0095   0.0020  -0.0076  -0.0019   0.00    5.8
2173 246333.000    798177.3144  -5149234.3688   3666204.9649   1   7   0.0048   0.0096   0.0095   0.0024  -0.0079  -0.0009   0.00    5.8
2173 246334.000    798177.3145  -5149234.3743   3666204.9644   1   7   0.0044   0.0097   0.0096   0.0024  -0.0077  -0.0019   0.00    5.8
2173 246335.000    798177.3164  -5149234.3689   3666204.9597   1   7   0.0042   0.0097   0.0095   0.0017  -0.0078  -0.0015   0.00    5.8
2173 246336.000    798177.3155  -5149234.3785   3666204.9685   1   7   0.0047   0.0097   0.0097   0.0022  -0.0077  -0.0022   0.00    5.8
2173 246337.000    798177.3171  -5149234.3733   3666204.9629   1   7   0.0047   0.0096   0.0096   0.0023  -0.0079  -0.0016   0.00    5.8
2173 246338.000    798177.3166  -5149234.3823   3666204.9692   1   7   0.0043   0.0097   0.0095   0.0022  -0.0078  -0.0016   0.00    5.8
2173 246339.000    798177.3175  -5149234.3719   3666204.9590   1   7   0.0041   0.0096   0.0095   0.0020  -0.0079  -0.0014   0.00    5.8
2173 246340.000    798177.3178  -5149234.3756   3666204.9683   1   7   0.0044   0.0097   0.0096   0.0027  -0.0079  -0.0012   0.00    5.8
2173 246341.000    798177.3200  -5149234.3736   3666204.9587   1   7   0.0044   0.0096   0.0096   0.0022  -0.0079  -0.0017   0.00    5.8
2173 246342.000    798177.3229  -5149234.3728   3666204.9588   1   7   0.0043   0.0096   0.0096   0.0024  -0.0079  -0.0013   0.00    5.8
2173 246343.000    798177.3232  -5149234.3778   3666204.9665   1   7   0.0042   0.0096   0.0096   0.0022  -0.0079  -0.0015   0.00    5.8
2173 246344.000    798177.3179  -5149234.3719   3666204.9588   1   7   0.0044   0.0096   0.0096   0.0025  -0.0079  -0.0014   0.00    5.8
2173 246345.000    798177.3185  -5149234.3720   3666204.9615   1   7   0.0047   0.0096   0.0096   0.0026  -0.0079  -0.0015   0.00    5.8
2173 246346.000    798177.3201  -5149234.3701   3666204.9544   1   7   0.0048   0.0097   0.0095   0.0020  -0.0078  -0.0018   0.00    5.8
2173 246347.000    798177.3185  -5149234.3692   3666204.9564   1   7   0.0041   0.0096   0.0096   0.0019  -0.0079  -0.0017   0.00    5.8
2173 246348.000    798177.3198  -5149234.3692   3666204.9565   1   7   0.0047   0.0097   0.0096   0.0018  -0.0077  -0.0022   0.00    5.8
2173 246349.000    798177.3175  -5149234.3675   3666204.9562   1   7   0.0045   0.0097   0.0096   0.0025  -0.0078  -0.0016   0.00    5.8
2173 246350.000    798177.3179  -5149234.3641   3666204.9562   1   7   0.0041   0.0096   0.0095   0.0017  -0.0079  -0.0019   0.00    5.8
2173 246351.000    798177.3157  -5149234.3645   3666204.9573   1   7   0.0040   0.0097   0.0096   0.0020  -0.0078  -0.0018   0.00    5.8
2173 246352.000    798177.3192  -5149234.3599   3666204.9491   1   7   0.0040   0.0096   0.0096   0.0026  -0.0079  -0.0009   0.00    5.8
2173 246353.000    798177.3166  -5149234.3601   3666204.9475   1   7   0.0046   0.0096   0.0096   0.0024  -0.0079  -0.0013   0.00    5.8
2173 246354.000    798177.3173  -5149234.3613   3666204.9483   1   7   0.0046   0.0097   0.0096   0.0020  -0.0078  -0.0022   0.00    5.9
2173 246355.000    798177.3185  -5149234.3586   3666204.9499   1   7   0.0045   0.0096   0.0095   0.0016  -0.0079  -0.0016   0.00    5.9
2173 246356.000    798177.3171  -5149234.3592   3666204.9477   1   7   0.0041   0.0096   0.0095   0.0029  -0.0079   0.0006   0.00    5.9
