     2.11           OBSERVATION DATA    M (MIXED)           RINEX VERSION / TYPE
CONVBIN 2.4.3                           20210901 005149 UTC PGM / RUN BY / DATE 
log: logs/21_08_31_22_24_11_kybo_SW.rtcm                    COMMENT             
format: RTCM 3, station ID: 1532                            COMMENT             
1532                                                        MARKER NAME         
                                                            MARKER NUMBER       
                                                            OBSERVER / AGENCY   
                    SWFT                                    REC # / TYPE / VERS 
                    NULL                                    ANT # / TYPE        
   461901.7728 -5001589.4069  3917701.5854                  APPROX POSITION XYZ 
        0.0000        0.0000        0.0000                  ANTENNA: DELTA H/E/N
     1     1                                                WAVELENGTH FACT L1/2
     5    C1    L1    P2    L2    C2                        # / TYPES OF OBSERV 
  2021     8    31    22    24   16.0000000     GPS         TIME OF FIRST OBS   
  2021     8    31    22    54   14.0000000     GPS         TIME OF LAST OBS    
                                                            END OF HEADER       
 21  8 31 22 24 16.0000000  0 16G10G12G18G21G23G24G25G31G32E 3E 5E 8
                                E13E15E24E25
  20321231.962   106788750.450    20321234.803    83212001.958                  
  23830062.197   125227800.346    23830063.841    97580098.808                  
  24495968.956   128727133.337    24495973.191   100306845.953                  
  24529539.543   128903577.952    24529540.097   100444341.508                  
  21454597.473   112744664.622    21454598.849    87852985.703                  
  23017217.764   120956242.167    23017221.481    94251603.769                  
  23753229.115   124823970.895    23753234.368    97265409.414                  
  23608127.841   124061524.723    23608129.807    96671311.013                  
  20912886.391   109897924.214    20912889.286    85634737.187                  
  23932164.114   125764345.958                                                  
  24709394.047   129848722.991                                                  
  25320549.048   133060345.424                                                  
  26989658.960   141831546.827                                                  
  24559052.093   129058641.575                                                  
  26455916.247   139026797.699                                                  
  26499149.044   139253917.489                                                  
 21  8 31 22 24 17.0000000  0 16G10G12G18G21G23G24G25G31G32E 3E 5E 8
                                E13E15E24E25
  20321208.625   106788627.843    20321211.484    83211906.422                  
  23829700.688   125225900.540    23829702.314    97578618.442                  
  24496698.316   128730966.114    24496702.551   100309832.532                  
  24529144.352   128901501.302    24529144.924   100442723.339                  
  21454987.858   112746716.065    21454989.216    87854584.231                  
  23017843.966   120959532.778    23017847.665    94254167.879                  
  23752681.804   124821094.766    23752687.040    97263168.277                  
  23607397.338   124057685.913    23607399.303    96668319.730                  
  20912723.855   109897070.070    20912726.731    85634071.622                  
  23932058.562   125763791.195                                                  
  24709650.825   129850072.380                                                  
  25320185.699   133058436.040                                                  
  26989324.362   141829788.491                                                  
  24559204.355   129059441.770                                                  
  26455807.800   139026227.841                                                  
  26498649.783   139251293.820                                                  
 21  8 31 22 24 18.0000000  0 16G10G12G18G21G23G24G25G31G32E 3E 5E 8
                                E13E15E24E25
  20321185.377   106788505.685    20321188.219    83211811.234                  
  23829339.234   125224001.145    23829340.878    97577138.394                  
  24497427.676   128734798.879    24497431.893   100312819.098                  
  24528749.268   128899425.024    24528749.822   100441105.460                  
  21455378.314   112748767.911    21455379.672    87856183.071                  
  23018470.204   120962823.680    23018473.903    94256732.222                  
  23752134.548   124818218.827    23752139.765    97260927.288                  
  23606666.888   124053847.282    23606668.818    96665328.593                  
  20912561.371   109896216.195    20912564.266    85633406.263                  
  23931953.027   125763236.564                                                  
  24709907.603   129851421.824                                                  
  25319822.386   133056526.727                                                  
  26988989.836   141828030.551                                                  
  24559356.742   129060242.452                                                  
  26455699.442   139025658.423                                                  
  26498150.541   139248670.297                                                  
 21  8 31 22 24 19.0000000  0 16G10G12G18G21G23G24G25G31G32E 3E 5E 8
                                E13E15E24E25
  20321162.219   106788383.985    20321165.060    83211716.402                  
  23828977.886   125222102.179    23828979.512    97575658.680                  
  24498157.018   128738631.647    24498161.253   100315805.668                  
  24528354.219   128897349.122    24528354.791   100439487.874                  
  21455768.841   112750820.144    21455770.199    87857782.211                  
  23019096.477   120966114.864    23019100.194    94259296.776                  
  23751587.309   124815343.074    23751592.526    97258686.441                  
  23605936.438   124050008.833    23605938.386    96662337.598                  
  20912398.942   109895362.590    20912401.819    85632741.116                  
  23931847.493   125762682.059                                                  
  24710164.416   129852771.344                                                  
  25319459.038   133054617.460                                                  
  26988655.382   141826272.999                                                  
  24559509.183   129061043.609                                                  
  26455591.156   139025089.472                                                  
  26497651.316   139246046.929                                                  
 21  8 31 22 24 20.0000000  0 16G10G12G18G21G23G24G25G31G32E 3E 5E 8
                                E13E15E24E25
  20321139.132   106788262.730    20321141.991    83211621.918                  
  23828616.593   125220203.655    23828618.237    97574179.316                  
  24498886.378   128742464.409    24498890.613   100318792.234                  
  24527959.278   128895273.604    24527959.832   100437870.590                  
  21456159.440   112752872.770    21456160.798    87859381.660                  
  23019722.822   120969406.320    23019726.539    94261861.548                  
  23751040.088   124812467.508    23751045.323    97256445.743                  
  23605206.042   124046170.583    23605207.971    96659346.754                  
  20912236.566   109894509.253    20912239.443    85632076.180                  
  23931741.994   125762127.689                                                  
  24710421.248   129854120.941                                                  
  25319095.743   133052708.261                                                  
  26988321.017   141824515.845                                                  
  24559661.748   129061845.245                                                  
  26455482.995   139024520.995                                                  
  26497152.145   139243423.723                                                  
 21  8 31 22 24 21.0000000  0 16G10G12G18G21G23G24G25G31G32E 3E 5E 8
                                E13E15E24E25
  20321116.153   106788141.943    20321118.994    83211527.798                  
  23828255.406   125218305.548    23828257.032    97572700.269                  
  24499615.738   128746297.163    24499619.955   100321778.793                  
  24527564.373   128893198.474    24527564.945   100436253.605                  
  21456550.128   112754925.789    21456551.486    87860981.413                  
  23020349.221   120972698.070    23020352.938    94264426.547                  
  23750492.920   124809592.130    23750498.156    97254205.191                  
  23604475.681   124042332.498    23604477.629    96656356.043                  
  20912074.226   109893656.191    20912077.103    85631411.457                  
  23931636.531   125761573.433                                                  
  24710678.061   129855470.609                                                  
  25318732.448   133050799.097                                                  
  26987986.723   141822759.079                                                  
  24559814.386   129062647.365                                                  
  26455374.905   139023952.954                                                  
  26496652.973   139240800.658                                                  
 21  8 31 22 24 22.0000000  0 20G10G12G18G21G23G24G25G31G32C21C22C26
                                C34E 3E 5E 8E13E15E24E25
  20321093.263   106788021.610    20321096.104    83211434.032                  
  23827894.273   125216407.867    23827895.917    97571221.558                  
  24500345.080   128750129.922    24500349.315   100324765.356                  
  24527169.557   128891123.704    24527170.147   100434636.902                  
  21456940.888   112756979.202    21456942.246    87862581.477                  
  23020975.673   120975990.104    23020979.408    94266991.765                  
  23749945.789   124806716.937    23749951.024    97251964.781                  
  23603745.338   124038494.597    23603747.304    96653365.476                  
  20911911.940   109892803.399    20911914.817    85630746.941                  
                 117237362.476                   117237362.476    22514201.444  
                 119253924.829                   119253924.829    22901458.677  
                 133265914.909                   133265914.909    25592328.060  
                 132158167.204                   132158167.204    25379592.589  
  23931531.086   125761019.321                                                  
  24710934.929   129856820.352                                                  
  25318369.135   133048890.004                                                  
  26987652.483   141821002.703                                                  
  24559967.094   129063449.957                                                  
  26455266.887   139023385.379                                                  
  26496153.856   139238177.751                                                  
 21  8 31 22 24 23.0000000  0 20G10G12G18G21G23G24G25G31G32C21C22C26
                                C34E 3E 5E 8E13E15E24E25
  20321070.444   106787901.726    20321073.303    83211340.618                  
  23827533.247   125214510.617    23827534.873    97569743.184                  
  24501074.440   128753962.667    24501078.675   100327751.906                  
  24526774.812   128889049.316    24526775.402   100433020.495                  
  21457331.702   112759032.999    21457333.060    87864181.836                  
  23021602.179   120979282.423    23021605.896    94269557.208                  
  23749398.693   124803841.937    23749403.929    97249724.524                  
  23603015.031   124034656.875    23603016.997    96650375.048                  
  20911749.725   109891950.880    20911752.602    85630082.641                  
                 117236191.868                   117236191.868    22513976.634  
                 119255140.801                   119255140.801    22901692.172  
                 133262482.218                   133262482.218    25591668.854  
                 132159927.523                   132159927.523    25379930.617  
  23931425.659   125760465.323                                                  
  24711191.778   129858170.163                                                  
  25318005.857   133046980.960                                                  
  26987318.314   141819246.714                                                  
  24560119.928   129064253.042                                                  
  26455158.976   139022818.261                                                  
  26495654.756   139235554.985                                                  
 21  8 31 22 24 24.0000000  0 20G10G12G18G21G23G24G25G31G32C21C22C26
                                C34E 3E 5E 8E13E15E24E25
  20321047.714   106787782.299    20321050.556    83211247.559                  
  23827172.275   125212613.792    23827173.937    97568265.141                  
  24501803.782   128757795.415    24501808.017   100330738.460                  
  24526380.157   128886975.313    24526380.729   100431404.391                  
  21457722.604   112761087.189    21457723.962    87865782.504                  
  23022228.756   120982575.027    23022232.455    94272122.875                  
  23748851.615   124800967.102    23748856.868    97247484.395                  
  23602284.778   124030819.339    23602286.744    96647384.757                  
  20911587.545   109891098.626    20911590.422    85629418.546                  
                 117235021.429                   117235021.429    22513751.859  
                 119256356.988                   119256356.988    22901925.738  
                 133259049.536                   133259049.536    25591009.648  
                 132161688.187                   132161688.187    25380268.735  
  23931320.285   125759911.476                                                  
  24711448.663   129859520.054                                                  
  25317642.598   133045071.973                                                  
  26986984.235   141817491.122                                                  
  24560272.833   129065056.608                                                  
  26455051.136   139022251.602                                                  
  26495155.692   139232932.386                                                  
 21  8 31 22 24 25.0000000  0 20G10G12G18G21G23G24G25G31G32C21C22C26
                                C34E 3E 5E 8E13E15E24E25
  20321025.074   106787663.331    20321027.933    83211154.856                  
  23826811.428   125210717.393    23826813.054    97566787.430                  
  24502533.124   128761628.153    24502537.377   100333725.003                  
  24525985.555   128884901.673    24525986.127   100429788.566                  
  21458113.561   112763141.769    21458114.937    87867383.474                  
  23022855.387   120985867.927    23022859.086    94274688.765                  
  23748304.608   124798092.464    23748309.844    97245244.419                  
  23601554.560   124026981.981    23601556.508    96644394.613                  
  20911425.420   109890246.638    20911428.279    85628754.660                  
                 117233851.168                   117233851.168    22513527.121  
                 119257573.396                   119257573.396    22902159.340  
                 133255616.856                   133255616.856    25590350.424  
                 132163449.189                   132163449.189    25380606.924  
  23931214.894   125759357.734                                                  
  24711705.548   129860870.014                                                  
  25317279.339   133043163.029                                                  
  26986650.245   141815735.923                                                  
  24560425.846   129065860.647                                                  
  26454943.404   139021685.423                                                  
  26494656.664   139230309.925                                                  
 21  8 31 22 24 26.0000000  0 20G10G12G18G21G23G24G25G31G32C21C22C26
                                C34E 3E 5E 8E13E15E24E25
  20321002.542   106787544.817    20321005.383    83211062.503                  
  23826450.617   125208821.425    23826452.261    97565310.055                  
  24503262.484   128765460.889    24503266.719   100336711.551                  
  24525591.025   128882828.421    24525591.597   100428173.047                  
  21458504.624   112765196.743    21458505.982    87868984.750                  
  23023482.036   120989161.103    23023485.753    94277254.876                  
  23747757.620   124795218.013    23747762.837    97243004.585                  
  23600824.361   124023144.805    23600826.326    96641404.608                  
  20911263.348   109889394.935    20911266.225    85628090.997                  
                 117232681.077                   117232681.077    22513302.418  
                 119258790.025                   119258790.025    22902392.977  
                 133252184.188                   133252184.188    25589691.218  
                 132165210.531                   132165210.531    25380945.184  
  23931109.556   125758804.138                                                  
  24711962.433   129862220.051                                                  
  25316916.079   133041254.141                                                  
  26986316.327   141813981.117                                                  
  24560578.947   129066665.167                                                  
  26454835.743   139021119.665                                                  
  26494157.654   139227687.626                                                  
 21  8 31 22 24 27.0000000  0 20G10G12G18G21G23G24G25G31G32C21C22C26
                                C34E 3E 5E 8E13E15E24E25
  20320980.062   106787426.750    20320982.921    83210970.507                  
  23826089.895   125206925.863    23826091.539    97563832.993                  
  24503991.826   128769293.625    24503996.061   100339698.098                  
  24525196.584   128880755.544    24525197.138   100426557.820                  
  21458895.741   112767252.110    21458897.099    87870586.332                  
  23024108.756   120992454.566    23024112.473    94279821.211                  
  23747210.667   124792343.750    23747215.885    97240764.902                  
  23600094.197   124019307.809    23600096.162    96638414.745                  
  20911101.312   109888543.481    20911104.188    85627427.527                  
                 117231511.164                   117231511.164    22513077.768  
                 119260006.866                   119260006.866    22902626.668  
                 133248751.523                   133248751.523    25589031.994  
                 132166972.219                   132166972.219    25381283.498  
  23931004.218   125758250.657                                                  
  24712219.354   129863570.165                                                  
  25316552.856   133039345.317                                                  
  26985982.462   141812226.698                                                  
  24560732.121   129067470.163                                                  
  26454728.154   139020554.387                                                  
  26493658.679   139225065.476                                                  
 21  8 31 22 24 28.0000000  0 20G10G12G18G21G23G24G25G31G32C21C22C26
                                C34E 3E 5E 8E13E15E24E25
  20320957.672   106787309.143    20320960.532    83210878.863                  
  23825729.280   125205030.723    23825730.924    97562356.263                  
  24504721.168   128773126.344    24504725.421   100342684.625                  
  24524802.179   128878683.043    24524802.751   100424942.887                  
  21459286.948   112769307.858    21459288.306    87872188.214                  
  23024735.548   120995748.312    23024739.265    94282387.766                  
  23746663.732   124789469.675    23746668.967    97238525.367                  
  23599364.086   124015471.003    23599366.016    96635425.031                  
  20910939.347   109887692.312    20910942.224    85626764.278                  
                 117230341.423                   117230341.423    22512853.119  
                 119261223.929                   119261223.929    22902860.377  
                 133245318.872                   133245318.872    25588372.806  
                 132168734.247                   132168734.247    25381621.884  
  23930898.934   125757697.317                                                  
  24712476.293   129864920.348                                                  
  25316189.614   133037436.544                                                  
  26985648.686   141810472.667                                                  
  24560885.401   129068275.645                                                  
  26454620.671   139019989.556                                                  
  26493159.722   139222443.476                                                  
 21  8 31 22 24 29.0000000  0 20G10G12G18G21G23G24G25G31G32C21C22C26
                                C34E 3E 5E 8E13E15E24E25
  20320935.408   106787192.000    20320938.249    83210787.583                  
  23825368.719   125203135.999    23825370.363    97560879.855                  
  24505450.528   128776959.068    24505454.763   100345671.161                  
  24524407.882   128876610.935    24524408.435   100423328.255                  
  21459678.208   112771364.000    21459679.584    87873790.402                  
  23025362.375   120999042.336    23025366.092    94284954.536                  
  23746116.868   124786595.776    23746122.086    97236285.968                  
  23598633.994   124011634.376    23598635.941    96632435.454                  
  20910777.418   109886841.413    20910780.295    85626101.242                  
                 117229171.851                   117229171.851    22512628.523  
                 119262441.212                   119262441.212    22903094.158  
                 133241886.222                   133241886.222    25587713.599  
                 132170496.612                   132170496.612    25381960.323  
  23930793.667   125757144.097                                                  
  24712733.231   129866270.605                                                  
  25315826.408   133035527.829                                                  
  26985314.982   141808719.043                                                  
  24561038.789   129069081.609                                                  
  26454513.279   139019425.191                                                  
  26492660.801   139219821.631                                                  
 21  8 31 22 24 30.0000000  0 20G10G12G18G21G23G24G25G31G32C21C22C26
                                C34E 3E 5E 8E13E15E24E25
  20320913.179   106787075.300    20320916.038    83210696.648                  
  23825008.247   125201241.707    23825009.873    97559403.785                  
  24506179.852   128780791.777    24506184.105   100348657.688                  
  24524013.637   128874539.188    24524014.191   100421713.906                  
  21460069.557   112773420.538    21460070.916    87875392.901                  
  23025989.274   121002336.656    23025992.973    94287521.536                  
  23745570.005   124783722.074    23745575.240    97234046.719                  
  23597903.937   124007797.925    23597905.885    96629446.012                  
  20910615.542   109885990.790    20910618.419    85625438.419                  
                 117228002.452                   117228002.452    22512403.945  
                 119263658.710                   119263658.710    22903327.956  
                 133238453.586                   133238453.586    25587054.393  
                 132172259.321                   132172259.321    25382298.816  
  23930688.401   125756591.012                                                  
  24712990.206   129867620.945                                                  
  25315463.203   133033619.161                                                  
  26984981.332   141806965.801                                                  
  24561192.248   129069888.046                                                  
  26454405.975   139018861.284                                                  
  26492161.916   139217199.937                                                  
 21  8 31 22 24 31.0000000  0 20G10G12G18G21G23G24G25G31G32C21C22C26
                                C34E 3E 5E 8E13E15E24E25
  20320891.057   106786959.063    20320893.916    83210606.074                  
  23824647.865   125199347.852    23824649.509    97557928.050                  
  24506909.194   128784624.484    24506913.447   100351644.208                  
  24523619.482   128872467.831    24523620.036   100420099.867                  
  21460460.978   112775477.466    21460462.336    87876995.700                  
  23026616.227   121005631.255    23026619.944    94290088.754                  
  23745023.195   124780848.562    23745028.412    97231807.622                  
  23597173.916   124003961.656    23597175.864    96626456.716                  
  20910453.738   109885140.425    20910456.597    85624775.797                  
                 117226833.235                   117226833.235    22512179.403  
                 119264876.430                   119264876.430    22903561.826  
                 133235020.952                   133235020.952    25586395.187  
                 132174022.370                   132174022.370    25382637.399  
  23930583.188   125756038.054                                                  
  24713247.180   129868971.354                                                  
  25315099.997   133031710.546                                                  
  26984647.789   141805212.949                                                  
  24561345.779   129070694.972                                                  
  26454298.761   139018297.831                                                  
  26491663.049   139214578.394                                                  
 21  8 31 22 24 32.0000000  0 20G10G12G18G21G23G24G25G31G32C21C22C26
                                C34E 3E 5E 8E13E15E24E25
  20320869.042   106786843.282    20320871.883    83210515.855                  
  23824287.536   125197454.414    23824289.180    97556452.648                  
  24507638.536   128788457.176    24507642.789   100354630.719                  
  24523225.381   128870396.847    24523225.935   100418486.113                  
  21460852.489   112777534.784    21460853.847    87878598.805                  
  23027243.197   121008926.124    23027246.914    94292656.187                  
  23744476.420   124777975.235    23744481.638    97229568.663                  
  23596443.948   124000125.575    23596445.878    96623467.561                  
  20910291.952   109884290.344    20910294.847    85624113.394                  
                 117225664.182                   117225664.182    22511954.897  
                 119266094.367                   119266094.367    22903795.695  
                 133231588.331                   133231588.331    25585735.981  
                 132175785.762                   132175785.762    25382976.034  
  23930477.975   125755485.218                                                  
  24713504.155   129870321.832                                                  
  25314736.827   133029801.992                                                  
  26984314.299   141803460.488                                                  
  24561499.417   129071502.371                                                  
  26454191.618   139017734.843                                                  
  26491164.217   139211957.010                                                  
 21  8 31 22 24 33.0000000  0 20G10G12G18G21G23G24G25G31G32C21C22C26
                                C34E 3E 5E 8E13E15E24E25
  20320847.081   106786727.946    20320849.940    83210425.985                  
  23823927.314   125195561.419    23823928.958    97554977.589                  
  24508367.878   128792289.876    24508372.113   100357617.234                  
  24522831.351   128868326.247    24522831.923   100416872.656                  
  21461244.035   112779592.487    21461245.393    87880202.208                  
  23027870.257   121012221.293    23027873.974    94295223.848                  
  23743929.682   124775102.084    23743934.900    97227329.851                  
  23595713.981   123996289.673    23595715.929    96620478.551                  
  20910130.255   109883440.528    20910133.114    85623451.202                  
                 117224495.308                   117224495.308    22511730.444  
                 119267312.520                   119267312.520    22904029.637  
                 133228155.718                   133228155.718    25585076.775  
                 132177549.491                   132177549.491    25383314.742  
  23930372.798   125754932.524                                                  
  24713761.165   129871672.391                                                  
  25314373.639   133027893.497                                                  
  26983980.899   141801708.426                                                  
  24561653.162   129072310.254                                                  
  26454084.583   139017172.309                                                  
  26490665.403   139209335.773                                                  
 21  8 31 22 24 34.0000000  0 20G10G12G18G21G23G24G25G31G32C21C22C26
                                C34E 3E 5E 8E13E15E24E25
  20320825.227   106786613.066    20320828.086    83210336.465                  
  23823567.182   125193668.846    23823568.826    97553502.860                  
  24509097.220   128796122.565    24509101.455   100360603.745                  
  24522437.393   128866256.015    24522437.965   100415259.488                  
  21461635.688   112781650.586    21461637.064    87881805.921                  
  23028497.353   121015516.743    23028501.087    94297791.731                  
  23743382.961   124772229.136    23743388.197    97225091.190                  
  23594984.085   123992453.952    23594986.015    96617489.683                  
  20909968.576   109882590.982    20909971.453    85622789.216                  
                 117223326.604                   117223326.604    22511505.991  
                 119268530.894                   119268530.894    22904263.614  
                 133224723.108                   133224723.108    25584417.587  
                 132179313.563                   132179313.563    25383653.521  
  23930267.657   125754379.949                                                  
  24714018.175   129873023.024                                                  
  25314010.469   133025985.038                                                  
  26983647.552   141799956.757                                                  
  24561806.996   129073118.618                                                  
  26453977.619   139016610.239                                                  
  26490166.625   139206714.689                                                  
 21  8 31 22 24 35.0000000  0 20G10G12G18G21G23G24G25G31G32C21C22C26
                                C34E 3E 5E 8E13E15E24E25
  20320803.463   106786498.648    20320806.304    83210247.309                  
  23823207.121   125191776.714    23823208.765    97552028.473                  
  24509826.562   128799955.251    24509830.797   100363590.249                  
  24522043.524   128864186.163    24522044.078   100413646.621                  
  21462027.395   112783709.075    21462028.753    87883409.939                  
  23029124.520   121018812.478    23029128.236    94300359.832                  
  23742836.294   124769356.364    23742841.512    97222852.669                  
  23594254.207   123988618.402    23594256.119    96614500.945                  
  20909806.987   109881741.702    20909809.864    85622127.442                  
                 117222158.079                   117222158.079    22511281.592  
                 119269749.489                   119269749.489    22904497.644  
                 133221290.513                   133221290.513    25583758.398  
                 132181077.973                   132181077.973    25383992.353  
  23930162.515   125753827.504                                                  
  24714275.221   129874373.724                                                  
  25313647.317   133024076.646                                                  
  26983314.295   141798205.466                                                  
  24561960.902   129073927.449                                                  
  26453870.744   139016048.621                                                  
  26489667.883   139204093.757                                                  
 21  8 31 22 24 36.0000000  0 20G10G12G18G21G23G24G25G31G32C21C22C26
                                C34E 3E 5E 8E13E15E24E25
  20320781.752   106786384.692    20320784.629    83210158.512                  
  23822847.132   125189885.025    23822848.776    97550554.425                  
  24510555.904   128803787.934    24510560.139   100366576.753                  
  24521649.726   128862116.691    24521650.280   100412034.043                  
  21462419.209   112785767.966    21462420.567    87885014.265                  
  23029751.740   121022108.491    23029755.457    94302928.152                  
  23742289.663   124766483.786    23742294.881    97220614.296                  
  23593524.347   123984783.066    23593526.276    96611512.374                  
  20909645.415   109880892.687    20909648.292    85621465.872                  
                 117220989.721                   117220989.721    22511057.229  
                 119270968.296                   119270968.296    22904731.693  
                 133217857.921                   133217857.921    25583099.192  
                 132182842.726                   132182842.726    25384331.257  
  23930057.428   125753275.188                                                  
  24714532.267   129875724.503                                                  
  25313284.165   133022168.315                                                  
  26982981.127   141796454.589                                                  
  24562114.915   129074736.784                                                  
  26453763.959   139015487.460                                                  
  26489169.159   139201472.983                                                  
 21  8 31 22 24 37.0000000  0 20G10G12G18G21G23G24G25G31G32C21C22C26
                                C34E 3E 5E 8E13E15E24E25
  20320760.166   106786271.188    20320763.025    83210070.067                  
  23822487.232   125187993.749    23822488.876    97549080.711                  
  24511285.228   128807620.615    24511289.481   100369563.255                  
  24521255.982   128860047.596    24521256.536   100410421.766                  
  21462811.059   112787827.239    21462812.435    87886618.895                  
  23030378.996   121025404.798    23030382.713    94305496.703                  
  23741743.067   124763611.386    23741748.285    97218376.063                  
  23592794.540   123980947.886    23592796.488    96608523.926                  
  20909483.897   109880043.966    20909486.774    85620804.532                  
                 117219821.542                   117219821.542    22510832.883  
                 119272187.330                   119272187.330    22904965.795  
                 133214425.340                   133214425.340    25582440.004  
                 132184607.822                   132184607.822    25384670.232  
  23929952.358   125752723.004                                                  
  24714789.313   129877075.347                                                  
  25312921.048   133020260.017                                                  
  26982648.013   141794704.097                                                  
  24562269.018   129075546.586                                                  
  26453657.263   139014926.766                                                  
  26488670.488   139198852.362                                                  
 21  8 31 22 24 38.0000000  0 20G10G12G18G21G23G24G25G31G32C21C22C26
                                C34E 3E 5E 8E13E15E24E25
  20320738.652   106786158.132    20320741.493    83209981.972                  
  23822127.421   125186102.923    23822129.065    97547607.335                  
  24512014.553   128811453.274    24512018.823   100372549.738                  
  24520862.328   128857978.878    24520862.882   100408809.778                  
  21463202.998   112789886.899    21463204.374    87888223.825                  
  23031006.324   121028701.384    23031010.041    94308065.469                  
  23741196.508   124760739.192    23741201.725    97216137.992                  
  23592064.751   123977112.911    23592066.699    96605535.632                  
  20909322.432   109879195.496    20909325.327    85620143.387                  
                 117218653.536                   117218653.536    22510608.573  
                 119273406.576                   119273406.576    22905199.933  
                 133210992.771                   133210992.771    25581780.816  
                 132186373.249                   132186373.249    25385009.261  
  23929847.306   125752170.947                                                  
  24715046.394   129878426.285                                                  
  25312557.896   133018351.798                                                  
  26982314.988   141792953.995                                                  
  24562423.227   129076356.876                                                  
  26453550.656   139014366.530                                                  
  26488171.817   139196231.894                                                  
 21  8 31 22 24 39.0000000  0 20G10G12G18G21G23G24G25G31G32C21C22C26
                                C34E 3E 5E 8E13E15E24E25
  20320717.227   106786045.540    20320720.086    83209894.235                  
  23821767.682   125184212.513    23821769.326    97546134.293                  
  24512743.895   128815285.943    24512748.147   100375536.231                  
  24520468.727   128855910.543    24520469.281   100407198.086                  
  21463595.026   112791946.949    21463596.384    87889829.059                  
  23031633.706   121031998.260    23031637.422    94310634.465                  
  23740649.966   124757867.180    23740655.201    97213900.062                  
  23591335.016   123973278.101    23591336.964    96602547.477                  
  20909161.039   109878347.297    20909163.916    85619482.453                  
                 117217485.700                   117217485.700    22510384.317  
                 119274626.043                   119274626.043    22905434.124  
                 133207560.204                   133207560.204    25581121.627  
                 132188139.022                   132188139.022    25385348.362  
  23929742.254   125751619.009                                                  
  24715303.476   129879777.285                                                  
  25312194.797   133016443.626                                                  
  26981982.016   141791204.280                                                  
  24562577.508   129077167.632                                                  
  26453444.139   139013806.749                                                  
  26487673.182   139193611.575                                                  
 21  8 31 22 24 40.0000000  0 20G10G12G18G21G23G24G25G31G32C21C22C26
                                C34E 3E 5E 8E13E15E24E25
  20320695.891   106785933.403    20320698.732    83209806.858                  
  23821408.032   125182322.532    23821409.676    97544661.582                  
  24513473.219   128819118.590    24513477.472   100378522.707                  
  24520075.197   128853842.596    24520075.751   100405586.699                  
  21463987.126   112794007.390    21463988.484    87891434.595                  
  23032261.123   121035295.418    23032264.840    94313203.675                  
  23740103.477   124754995.341    23740108.695    97211662.266                  
  23590605.317   123969443.478    23590607.246    96599559.462                  
  20908999.682   109877499.370    20909002.559    85618821.731                  
                 117216318.040                   117216318.040    22510160.079  
                 119275845.728                   119275845.728    22905668.351  
                 133204127.650                   133204127.650    25580462.439  
                 132189905.136                   132189905.136    25385687.516  
  23929637.256   125751067.215                                                  
  24715560.575   129881128.355                                                  
  25311831.699   133014535.504                                                  
  26981649.134   141789454.958                                                  
  24562731.861   129077978.869                                                  
  26453337.693   139013247.423                                                  
  26487174.583   139190991.415                                                  
 21  8 31 22 24 41.0000000  0 20G10G12G18G21G23G24G25G31G32C21C22C26
                                C34E 3E 5E 8E13E15E24E25
  20320674.645   106785821.715    20320677.486    83209719.829                  
  23821048.454   125180432.985    23821050.098    97543189.210                  
  24514202.561   128822951.238    24514206.814   100381509.184                  
  24519681.757   128851775.031    24519682.311   100403975.609                  
  21464379.280   112796068.226    21464380.638    87893040.442                  
  23032888.594   121038592.846    23032892.328    94315773.101                  
  23739557.025   124752123.695    23739562.243    97209424.620                  
  23589875.635   123965609.046    23589877.583    96596571.595                  
  20908838.378   109876651.714    20908841.255    85618161.219                  
                 117215150.555                   117215150.555    22509935.858  
                 119277065.628                   119277065.628    22905902.614  
                 133200695.101                   133200695.101    25579803.233  
                 132191671.593                   132191671.593    25386026.759  
  23929532.275   125750515.536                                                  
  24715817.693   129882479.495                                                  
  25311468.600   133012627.434                                                  
  26981316.324   141787706.036                                                  
  24562886.339   129078790.590                                                  
  26453231.337   139012688.551                                                  
  26486676.001   139188371.402                                                  
 21  8 31 22 24 42.0000000  0 20G10G12G18G21G23G24G25G31G32C21C22C26
                                C34E 3E 5E 8E13E15E24E25
  20320653.488   106785710.488    20320656.311    83209633.156                  
  23820688.983   125178543.860    23820690.627    97541717.165                  
  24514931.885   128826783.874    24514936.138   100384495.651                  
  24519288.389   128849707.824    24519288.943   100402364.801                  
  21464771.523   112798129.450    21464772.881    87894646.590                  
  23033516.136   121041890.573    23033519.852    94318342.757                  
  23739010.608   124749252.235    23739015.826    97207187.121                  
  23589146.007   123961774.796    23589147.937    96593583.872                  
  20908677.128   109875804.333    20908680.005    85617500.918                  
                 117213983.242                   117213983.242    22509711.691  
                 119278285.755                   119278285.755    22906136.948  
                 133197262.564                   133197262.564    25579144.063  
                 132193438.387                   132193438.387    25386366.056  
  23929427.312   125749963.983                                                  
  24716074.828   129883830.717                                                  
  25311105.520   133010719.430                                                  
  26980983.603   141785957.501                                                  
  24563040.906   129079602.792                                                  
  26453125.088   139012130.140                                                  
  26486177.455   139185751.538                                                  
 21  8 31 22 24 43.0000000  0 20G10G12G18G21G23G24G25G31G32C21C22C26
                                C34E 3E 5E 8E13E15E24E25
  20320632.403   106785599.721    20320635.244    83209546.849                  
  23820329.583   125176655.184    23820331.191    97540245.468                  
  24515661.227   128830616.508    24515665.462   100387482.117                  
  24518895.074   128847641.007    24518895.645   100400754.294                  
  21465163.819   112800191.062    21465165.195    87896253.038                  
  23034143.732   121045188.574    23034147.466    94320912.629                  
  23738464.227   124746380.965    23738469.445    97204949.774                  
  23588416.397   123957940.731    23588418.345    96590596.289                  
  20908515.914   109874957.220    20908518.809    85616840.832                  
                 117212816.100                   117212816.100    22509487.560  
                 119279506.095                   119279506.095    22906371.283  
                 133193830.033                   133193830.033    25578484.874  
                 132195205.521                   132195205.521    25386705.425  
  23929322.403   125749412.565                                                  
  24716331.963   129885182.019                                                  
  25310742.439   133008811.457                                                  
  26980650.935   141784209.359                                                  
  24563195.544   129080415.464                                                  
  26453018.892   139011572.190                                                  
  26485678.963   139183131.833                                                  
 21  8 31 22 24 44.0000000  0 20G10G12G18G21G23G24G25G31G32C21C22C26
                                C34E 3E 5E 8E13E15E24E25
  20320611.407   106785489.407    20320614.248    83209460.887                  
  23819970.237   125174766.926    23819971.881    97538774.102                  
  24516390.533   128834449.138    24516394.804   100390468.577                  
  24518501.848   128845574.565    24518502.402   100399144.082                  
  21465556.223   112802253.075    21465557.581    87897859.800                  
  23034771.381   121048486.856    23034775.098    94323482.710                  
  23737917.864   124743509.880    23737923.081    97202712.563                  
  23587686.841   123954106.844    23587688.788    96587608.847                  
  20908354.771   109874110.367    20908357.666    85616180.949                  
                 117211649.136                   117211649.136    22509263.465  
                 119280726.652                   119280726.652    22906605.689  
                 133190397.513                   133190397.513    25577825.704  
                 132196972.992                   132196972.992    25387044.847  
  23929217.476   125748861.273                                                  
  24716589.116   129886533.374                                                  
  25310379.376   133006903.552                                                  
  26980318.339   141782461.604                                                  
  24563350.272   129081228.632                                                  
  26452912.822   139011014.680                                                  
  26485180.453   139180512.277                                                  
 21  8 31 22 24 45.0000000  0 20G10G12G18G21G23G24G25G31G32C21C22C26
                                C34E 3E 5E 8E13E15E24E25
  20320590.500   106785379.535    20320593.341    83209375.273                  
  23819610.998   125172879.107    23819612.642    97537303.074                  
  24517119.858   128838281.751    24517124.128   100393455.024                  
  24518108.676   128843508.511    24518109.247   100397534.167                  
  21465948.680   112804315.470    21465950.038    87899466.858                  
  23035399.084   121051785.413    23035402.801    94326053.019                  
  23737371.536   124740638.995    23737376.772    97200475.512                  
  23586957.302   123950273.149    23586959.232    96584621.554                  
  20908193.682   109873263.793    20908196.559    85615521.277                  
                 117210482.346                   117210482.346    22509039.387  
                 119281947.431                   119281947.431    22906840.112  
                 133186964.999                   133186964.999    25577166.516  
                 132198740.804                   132198740.804    25387384.322  
  23929112.603   125748310.122                                                  
  24716846.305   129887884.819                                                  
  25310016.313   133004995.715                                                  
  26979985.832   141780714.249                                                  
  24563505.107   129082042.267                                                  
  26452806.823   139010457.675                                                  
  26484681.997   139177892.883                                                  
 21  8 31 22 24 46.0000000  0 20G10G12G18G21G23G24G25G31G32C21C22C26
                                C34E 3E 5E 8E13E15E24E25
  20320569.682   106785270.133    20320572.524    83209290.024                  
  23819251.849   125170991.731    23819253.475    97535832.390                  
  24517849.200   128842114.363    24517853.435   100396441.473                  
  24517715.593   128841442.835    24517716.165   100395924.550                  
  21466341.227   112806378.255    21466342.585    87901074.226                  
  23036026.823   121055084.264    23036030.540    94328623.550                  
  23736825.280   124737768.297    23736830.498    97198238.605                  
  23586227.817   123946439.632    23586229.747    96581634.405                  
  20908032.646   109872417.490    20908035.523    85614861.819                  
                 117209315.731                   117209315.731    22508815.363  
                 119283168.424                   119283168.424    22907074.608  
                 133183532.500                   133183532.500    25576507.345  
                 132200508.956                   132200508.956    25387723.887  
  23929007.748   125747759.088                                                  
  24717103.476   129889236.341                                                  
  25309653.286   133003087.921                                                  
  26979653.397   141778967.284                                                  
  24563660.032   129082856.386                                                  
  26452700.895   139009901.101                                                  
  26484183.576   139175273.638                                                  
 21  8 31 22 24 47.0000000  0 20G10G12G18G21G23G24G25G31G32C21C22C26
                                C34E 3E 5E 8E13E15E24E25
  20320548.936   106785161.183    20320551.778    83209205.126                  
  23818892.753   125169104.761    23818894.397    97534362.032                  
  24518578.524   128845946.964    24518582.759   100399427.913                  
  24517322.582   128839377.538    24517323.136   100394315.230                  
  21466733.827   112808441.425    21466735.185    87902681.890                  
  23036654.615   121058383.391    23036658.332    94331194.296                  
  23736279.042   124734897.788    23736284.260    97196001.849                  
  23585498.368   123942606.304    23585500.280    96578647.398                  
  20907871.646   109871571.453    20907874.523    85614202.574                  
                 117208149.284                   117208149.284    22508591.339  
                 119284389.642                   119284389.642    22907309.121  
                 133180100.003                   133180100.003    25575848.157  
                 132202277.448                   132202277.448    25388063.506  
  23928902.928   125747208.181                                                  
  24717360.683   129890587.925                                                  
  25309290.259   133001180.180                                                  
  26979321.033   141777220.706                                                  
  24563815.045   129083670.980                                                  
  26452595.075   139009344.979                                                  
  26483685.173   139172654.540                                                  
 21  8 31 22 24 48.0000000  0 20G10G12G18G21G23G24G25G31G32C21C22C26
                                C34E 3E 5E 8E13E15E24E25
  20320528.298   106785052.699    20320531.139    83209120.593                  
  23818533.782   125167218.242    23818535.426    97532892.015                  
  24519307.848   128849779.562    24519312.083   100402414.351                  
  24516929.642   128837312.617    24516930.196   100392706.202                  
  21467126.499   112810504.999    21467127.875    87904289.871                  
  23037282.479   121061682.800    23037286.196    94333765.262                  
  23735732.822   124732027.469    23735738.039    97193765.239                  
  23584768.918   123938773.160    23584770.866    96575660.535                  
  20907710.700   109870725.698    20907713.577    85613543.542                  
                 117206983.015                   117206983.015    22508367.387  
                 119285611.078                   119285611.078    22907543.687  
                 133176667.518                   133176667.518    25575188.987  
                 132204046.278                   132204046.278    25388403.196  
  23928798.108   125746657.400                                                  
  24717617.907   129891939.593                                                  
  25308927.232   132999272.490                                                  
  26978988.741   141775474.539                                                  
  24563970.149   129084486.055                                                  
  26452489.344   139008789.329                                                  
  26483186.824   139170035.612                                                  
 21  8 31 22 24 49.0000000  0 20G10G12G18G21G23G24G25G31G32C21C22C26
                                C34E 3E 5E 8E13E15E24E25
  20320507.748   106784944.656    20320510.572    83209036.406                  
  23818174.865   125165332.146    23818176.509    97531422.332                  
  24520037.154   128853612.151    24520041.425   100405400.786                  
  24516536.773   128835248.077    24516537.345   100391097.470                  
  21467519.260   112812568.961    21467520.636    87905898.148                  
  23037910.397   121064982.493    23037914.113    94336336.449                  
  23735186.655   124729157.343    23735191.873    97191528.777                  
  23584039.541   123934940.204    23584041.453    96572673.816                  
  20907549.807   109869880.204    20907552.684    85612884.718                  
                 117205816.923                   117205816.923    22508143.434  
                 119286832.731                   119286832.731    22907778.308  
                 133173235.048                   133173235.048    25574529.816  
                 132205815.450                   132205815.450    25388742.940  
  23928693.324   125746106.762                                                  
  24717875.114   129893291.332                                                  
  25308564.223   132997364.863                                                  
  26978656.538   141773728.745                                                  
  24564125.341   129085301.620                                                  
  26452383.702   139008234.126                                                  
  26482688.475   139167416.825                                                  
 21  8 31 22 24 50.0000000  0 20G10G12G18G21G23G24G25G31G32C21C22C26
                                C34E 3E 5E 8E13E15E24E25
  20320487.253   106784837.085    20320490.112    83208952.582                  
  23817816.037   125163446.484    23817817.663    97529952.987                  
  24520766.478   128857444.743    24520770.731   100408387.215                  
  24516143.977   128833183.921    24516144.548   100389489.035                  
  21467912.093   112814633.308    21467913.469    87907506.730                  
  23038538.368   121068282.477    23038542.084    94338907.867                  
  23734640.524   124726287.397    23734645.742    97189292.458                  
  23583310.181   123931107.427    23583312.128    96569687.242                  
  20907388.968   109869034.977    20907391.845    85612226.098                  
                 117204650.999                   117204650.999    22507919.535  
                 119288054.600                   119288054.600    22908012.946  
                 133169802.581                   133169802.581    25573870.646  
                 132207584.960                   132207584.960    25389082.755  
  23928588.558   125745556.245                                                  
  24718132.357   129894643.145                                                  
