     2.11           OBSERVATION DATA    M (MIXED)           RINEX VERSION / TYPE
CONVBIN 2.4.3                           20210901 004931 UTC PGM / RUN BY / DATE 
log: logs/21_08_31_19_18_39_pbch_VZ.rtcm                    COMMENT             
format: RTCM 3, station ID: 205                             COMMENT             
0205                                                        MARKER NAME         
                                                            MARKER NUMBER       
                                                            OBSERVER / AGENCY   
                    LEICA GR50          4.40/7.701          REC # / TYPE / VERS 
                    GPPNULLANTENNA                          ANT # / TYPE        
   985851.1159 -5610687.0229  2859057.0320                  APPROX POSITION XYZ 
        0.0000        0.0000        0.0000                  ANTENNA: DELTA H/E/N
     1     1                                                WAVELENGTH FACT L1/2
     7    C1    L1    C2    L2    P2    C5    L5            # / TYPES OF OBSERV 
  2021     8    31    19    18   58.0000000     GPS         TIME OF FIRST OBS   
  2021     8    31    19    48   43.0000000     GPS         TIME OF LAST OBS    
                                                            END OF HEADER       
 21  8 31 19 18 58.0000000  0 18G 5G10G13G15G18G23G24G29R 4R 5R18R19
                                R20E 3E 5E 9E11E36
  23308806.286   122488611.244                    95445669.494    23308805.374  
                                
  24467393.315   128577033.861    24467395.388   100189905.687    24467395.084  
  24467394.066    96015326.031  
  22944588.745   120574653.044                    93954274.663    22944586.726  
                                
  20758266.540   109085471.893    20758265.199    85001677.893    20758264.431  
                                
  20631508.390   108419343.087    20631507.068    84482635.391    20631506.568  
  20631511.249    80962520.131  
  22041808.341   115830532.028    22041807.447    90257579.193    22041807.036  
  22041811.486    86496874.337  
  21530348.568   113142812.174    21530350.551    88163266.999    21530349.890  
  21530351.427    84489812.609  
  22465829.516   118058723.011    22465829.499    91993811.627    22465828.730  
                                
  21268165.918   113890086.510    21268165.972    88581208.450    21268165.793  
                                
  20316276.346   108602212.415    20316277.829    84468425.446    20316277.954  
                                
  22768544.810   121539994.421    22768550.403    94531121.797    22768550.457  
                                
  19638258.749   105051452.224    19638260.214    81706696.431    19638259.910  
                                
  20524359.081   109752978.841    20524362.601    85363447.011    20524361.708  
                                
  26753554.380   140590935.009                                                  
  26753560.491   104986789.223  
  23610202.524   124072520.193                                                  
  23610205.866    92651597.289  
  23057560.479   121168329.943                                                  
  23057563.498    90482858.609  
  24644711.740   129508787.897                                                  
  24644713.598    96711088.730  
  23404831.056   122993247.990                                                  
  23404835.112    91845639.344  
 21  8 31 19 18 59.0000000  0 18G 5G10G13G15G18G23G24G29R 4R 5R18R19
                                R20E 3E 5E 9E11E36
  23309162.523   122490483.273                    95447128.215    23309161.629  
                                
  24467033.683   128575144.036    24467035.774   100188433.095    24467035.470  
  24467034.451    96013914.793  
  22945205.280   120577892.954                    93956799.275    22945203.261  
                                
  20758664.072   109087560.944    20758662.732    85003305.726    20758661.963  
                                
  20631176.795   108417600.544    20631175.472    84481277.566    20631174.990  
  20631179.654    80961218.882  
  22041559.926   115829226.627    22041559.032    90256561.999    22041558.621  
  22041563.071    86495899.520  
  21529911.920   113140517.535    21529913.886    88161478.971    21529913.225  
  21529914.761    84488099.086  
  22466390.121   118061669.030    22466390.103    91996107.224    22466389.353  
                                
  21268613.162   113892481.519    21268613.215    88583071.235    21268613.055  
                                
  20316293.661   108602304.962    20316295.144    84468497.428    20316295.269  
                                
  22769344.217   121544261.710    22769349.810    94534440.788    22769349.881  
                                
  19638642.450   105053504.795    19638643.933    81708292.873    19638643.630  
                                
  20523857.194   109750295.031    20523860.714    85361359.603    20523859.821  
                                
  26753173.627   140588934.120                                                  
  26753179.738   104985295.064  
  23610171.182   124072355.491                                                  
  23610174.523    92651474.304  
  23057921.040   121170224.758                                                  
  23057924.077    90484273.567  
  24645194.847   129511326.594                                                  
  24645196.705    96712984.504  
  23404938.591   122993813.100                                                  
  23404942.648    91846061.337  
 21  8 31 19 19  0.0000000  0 18G 5G10G13G15G18G23G24G29R 4R 5R18R19
                                R20E 3E 5E 9E11E36
  23309518.741   122492355.204                    95448586.850    23309517.848  
                                
  24466674.015   128573253.998    24466676.106   100186960.337    24466675.784  
  24466674.766    96012503.417  
  22945821.815   120581132.861                    93959323.880    22945819.778  
                                
  20759061.640   109089650.163    20759060.299    85004933.688    20759059.531  
                                
  20630845.235   108415858.206    20630843.913    84479919.900    20630843.430  
  20630848.094    80959917.790  
  22041311.493   115827921.085    22041310.599    90255544.689    22041310.188  
  22041314.637    86494924.609  
  21529475.309   113138223.149    21529477.274    88159691.140    21529476.613  
  21529478.168    84486385.750  
  22466950.744   118064615.125    22466950.726    91998402.880    22466949.976  
                                
  21269060.388   113894876.366    21269060.441    88584933.891    21269060.280  
                                
  20316310.994   108602397.646    20316312.477    84468569.513    20316312.602  
                                
  22770143.623   121548529.011    22770149.234    94537759.791    22770149.288  
                                
  19639026.277   105055557.967    19639027.742    81709889.784    19639027.438  
                                
  20523355.396   109747611.662    20523358.898    85359272.538    20523358.023  
                                
  26752792.856   140586933.249                                                  
  26752798.985   104983800.911  
  23610139.858   124072190.901                                                  
  23610143.199    92651351.393  
  23058281.601   121172119.478                                                  
  23058284.639    90485688.454  
  24645677.936   129513865.294                                                  
  24645679.776    96714880.295  
  23405046.181   122994378.433                                                  
  23405050.237    91846483.506  
 21  8 31 19 19  1.0000000  0 18G 5G10G13G15G18G23G24G29R 4R 5R18R19
                                R20E 3E 5E 9E11E36
  23309874.943   122494227.062                    95450045.459    23309874.031  
                                
  24466314.330   128571363.850    24466316.403   100185487.507    24466316.081  
  24466315.080    96011091.954  
  22946438.368   120584372.876                    93961848.551    22946436.348  
                                
  20759459.261   109091739.678    20759457.921    85006561.882    20759457.153  
                                
  20630513.747   108414116.194    20630512.424    84478562.488    20630511.942  
  20630516.606    80958616.933  
  22041063.060   115826615.531    22041062.166    90254527.379    22041061.755  
  22041066.204    86493949.676  
  21529038.768   113135929.114    21529040.734    88157903.578    21529040.091  
  21529041.627    84484672.663  
  22467511.420   118067561.402    22467511.385    92000698.676    22467510.634  
                                
  21269507.614   113897271.187    21269507.649    88586796.532    21269507.488  
                                
  20316328.380   108602490.605    20316329.864    84468641.817    20316330.007  
                                
  22770943.084   121552796.488    22770948.677    94541078.930    22770948.748  
                                
  19639410.228   105057611.898    19639411.712    81711487.284    19639411.408  
                                
  20522853.705   109744928.884    20522857.208    85357185.936    20522856.332  
                                
  26752412.121   140584932.513                                                  
  26752418.250   104982306.866  
  23610108.569   124072026.501                                                  
  23610111.910    92651228.628  
  23058642.144   121174014.219                                                  
  23058645.200    90487103.356  
  24646161.060   129516404.149                                                  
  24646162.919    96716776.202  
  23405153.824   122994944.101                                                  
  23405157.880    91846905.914  
 21  8 31 19 19  2.0000000  0 18G 5G10G13G15G18G23G24G29R 4R 5R18R19
                                R20E 3E 5E 9E11E36
  23310231.162   122496099.012                    95451504.116    23310230.268  
                                
  24465954.662   128569473.783    24465956.753   100184014.726    24465956.431  
  24465955.413    96009680.529  
  22947054.974   120587613.135                    93964373.426    22947052.955  
                                
  20759856.954   109093829.584    20759855.614    85008190.379    20759854.846  
                                
  20630182.348   108412374.643    20630181.008    84477205.433    20630180.525  
  20630185.207    80957316.419  
  22040814.626   115825310.086    22040813.733    90253510.152    22040813.340  
  22040817.789    86492974.830  
  21528602.317   113133635.555    21528604.301    88156116.394    21528603.640  
  21528605.177    84482959.939  
  22468072.132   118070507.979    22468072.097    92002994.714    22468071.346  
                                
  21269954.839   113899666.106    21269954.893    88588659.242    21269954.732  
                                
  20316345.856   108602583.979    20316347.339    84468714.443    20316347.465  
                                
  22771742.579   121557064.265    22771748.190    94544398.306    22771748.244  
                                
  19639794.359   105059666.656    19639795.824    81713085.429    19639795.520  
                                
  20522352.140   109742246.797    20522355.642    85355099.870    20522354.767  
                                
  26752031.457   140582932.055                                                  
  26752037.568   104980813.007  
  23610077.352   124071862.448                                                  
  23610080.693    92651106.120  
  23059002.741   121175909.101                                                  
  23059005.779    90488518.372  
  24646644.239   129518943.283                                                  
  24646646.097    96718672.314  
  23405261.556   122995510.235                                                  
  23405265.612    91847328.672  
 21  8 31 19 19  3.0000000  0 18G 5G10G13G15G18G23G24G29R 4R 5R18R19
                                R20E 3E 5E 9E11E36
  23310587.416   122497971.122                    95452962.885    23310586.523  
                                
  24465594.977   128567583.705    24465597.049   100182541.947    24465596.728  
  24465595.727    96008269.138  
  22947671.634   120590853.632                    93966898.479    22947669.615  
                                
  20760254.736   109095919.923    20760253.396    85009819.216    20760252.628  
                                
  20629851.020   108410633.550    20629849.698    84475848.739    20629849.216  
  20629853.897    80956016.252  
  22040566.229   115824004.747    22040565.336    90252493.004    22040564.925  
  22040569.374    86492000.068  
  21528165.956   113131342.486    21528167.939    88154329.587    21528167.278  
  21528168.815    84481247.582  
  22468632.898   118073454.884    22468632.880    92005291.004    22468632.112  
                                
  21270402.101   113902061.127    21270402.137    88590522.036    21270401.976  
                                
  20316363.404   108602677.768    20316364.869    84468787.390    20316365.012  
                                
  22772542.147   121561332.365    22772547.758    94547717.930    22772547.811  
                                
  19640178.632   105061722.298    19640180.097    81714684.261    19640179.794  
                                
  20521850.699   109739565.422    20521854.219    85353014.357    20521853.326  
                                
  26751650.829   140580931.859                                                  
  26751656.940   104979319.358  
  23610046.206   124071698.749                                                  
  23610049.548    92650983.878  
  23059363.356   121177804.156                                                  
  23059366.394    90489933.506  
  24647127.471   129521482.711                                                  
  24647129.329    96720568.622  
  23405369.378   122996076.845                                                  
  23405373.434    91847751.796  
 21  8 31 19 19  4.0000000  0 18G 5G10G13G15G18G23G24G29R 4R 5R18R19
                                R20E 3E 5E 9E11E36
  23310943.689   122499843.206                    95454421.624    23310942.795  
                                
  24465235.327   128565693.686    24465237.417   100181069.207    24465237.096  
  24465236.077    96006857.740  
  22948288.294   120594094.305                    93969423.692    22948286.275  
                                
  20760652.572   109098010.636    20760651.232    85011448.342    20760650.482  
                                
  20629519.782   108408892.870    20629518.460    84474492.366    20629517.978  
  20629522.659    80954716.396  
  22040317.850   115822699.495    22040316.956    90251475.925    22040316.563  
  22040321.013    86491025.361  
  21527729.684   113129049.837    21527731.649    88152543.107    21527730.988  
  21527732.525    84479535.552  
  22469193.735   118076402.062    22469193.717    92007587.499    22469192.949  
                                
  21270849.363   113904456.166    21270849.398    88592384.844    21270849.238  
                                
  20316381.005   108602771.918    20316382.488    84468860.618    20316382.613  
                                
  22773341.768   121565600.724    22773347.378    94551037.751    22773347.432  
                                
  19640563.066   105063778.746    19640564.532    81716283.721    19640564.228  
                                
  20521349.384   109736884.690    20521352.904    85350929.345    20521352.011  
                                
  26751270.254   140578931.891                                                  
  26751276.365   104977825.878  
  23610015.114   124071535.339                                                  
  23610018.455    92650861.851  
  23059723.988   121179699.314                                                  
  23059727.026    90491348.723  
  24647610.756   129524022.368                                                  
  24647612.615    96722465.108  
  23405477.271   122996643.880                                                  
  23405481.327    91848175.229  
 21  8 31 19 19  5.0000000  0 18G 5G10G13G15G18G23G24G29R 4R 5R18R19
                                R20E 3E 5E 9E11E36
  23311299.944   122501715.349                    95455880.435    23311299.068  
                                
  24464875.641   128563803.563    24464877.732   100179596.407    24464877.410  
  24464876.410    96005446.287  
  22948904.990   120597335.127                    93971949.015    22948902.970  
                                
  20761050.480   109100101.650    20761049.140    85013077.704    20761048.389  
                                
  20629188.616   108407152.525    20629187.276    84473136.253    20629186.793  
  20629191.475    80953416.786  
  22040069.470   115821394.226    22040068.577    90250458.830    22040068.166  
  22040072.615    86490050.647  
  21527293.483   113126757.598    21527295.466    88150756.950    21527294.805  
  21527296.342    84477823.804  
  22469754.608   118079349.434    22469754.572    92009884.153    22469753.822  
                                
  21271296.607   113906851.151    21271296.642    88594247.608    21271296.481  
                                
  20316398.677   108602866.331    20316400.142    84468934.053    20316400.285  
                                
  22774141.406   121569869.251    22774147.017    94554357.702    22774147.089  
                                
  19640947.626   105065835.921    19640949.109    81717883.741    19640948.805  
                                
  20520848.193   109734204.556    20520851.696    85348844.798    20520850.820  
                                
  26750889.698   140576932.068                                                  
  26750895.827   104976332.510  
  23609984.058   124071372.163                                                  
  23609987.399    92650739.999  
  23060084.639   121181594.510                                                  
  23060087.677    90492763.967  
  24648094.060   129526562.162                                                  
  24648095.936    96724361.710  
  23405585.254   122997211.262                                                  
  23405589.310    91848598.921  
 21  8 31 19 19  6.0000000  0 18G 5G10G13G15G18G23G24G29R 4R 5R18R19
                                R20E 3E 5E 9E11E36
  23311656.198   122503587.501                    95457339.263    23311655.305  
                                
  24464515.956   128561913.409    24464518.064   100178123.559    24464517.725  
  24464516.724    96004034.806  
  22949521.739   120600576.082                    93974474.425    22949519.720  
                                
  20761448.459   109102192.990    20761447.118    85014707.320    20761446.350  
                                
  20628857.503   108405412.559    20628856.163    84471780.432    20628855.680  
  20628860.362    80952117.467  
  22039821.091   115820088.989    22039820.197    90249441.762    22039819.786  
  22039824.236    86489075.961  
  21526857.354   113124465.732    21526859.319    88148971.085    21526858.676  
  21526860.213    84476112.355  
  22470315.517   118082297.046    22470315.481    92012180.996    22470314.731  
                                
  21271743.850   113909246.166    21271743.904    88596110.400    21271743.743  
                                
  20316416.385   108602961.051    20316417.869    84469007.724    20316418.011  
                                
  22774941.099   121574137.958    22774946.710    94557677.796    22774946.763  
                                
  19641332.346   105067893.896    19641333.829    81719484.389    19641333.525  
                                
  20520347.110   109731525.051    20520350.613    85346760.739    20520349.737  
                                
  26750509.159   140574932.423                                                  
  26750515.270   104974839.282  
  23609953.055   124071209.242                                                  
  23609956.396    92650618.339  
  23060445.289   121183489.785                                                  
  23060448.327    90494179.265  
  24648577.417   129529102.159                                                  
  24648579.275    96726258.454  
  23405693.290   122997779.051                                                  
  23405697.346    91849022.917  
 21  8 31 19 19  7.0000000  0 18G 5G10G13G15G18G23G24G29R 4R 5R18R19
                                R20E 3E 5E 9E11E36
  23312012.471   122505459.826                    95458798.234    23312011.595  
                                
  24464156.288   128560023.366    24464158.379   100176650.794    24464158.057  
  24464157.056    96002623.423  
  22950138.524   120603817.380                    93977000.128    22950136.487  
                                
  20761846.527   109104284.859    20761845.187    85016337.345    20761844.418  
                                
  20628526.497   108403673.159    20628525.175    84470425.058    20628524.692  
  20628529.374    80950818.562  
  22039572.747   115818783.970    22039571.872    90248424.864    22039571.461  
  22039575.910    86488101.429  
  21526421.332   113122174.465    21526423.315    88147185.682    21526422.654  
  21526424.191    84474401.339  
  22470876.515   118085245.072    22470876.479    92014478.154    22470875.728  
                                
  21272191.148   113911641.417    21272191.201    88597973.373    21272191.040  
                                
  20316434.201   108603056.255    20316435.684    84469081.771    20316435.809  
                                
  22775740.845   121578407.048    22775746.456    94560998.190    22775746.509  
                                
  19641717.244   105069952.833    19641718.710    81721085.784    19641718.424  
                                
  20519846.170   109728846.310    20519849.672    85344677.279    20519848.797  
                                
  26750128.710   140572933.145                                                  
  26750134.821   104973346.313  
  23609922.141   124071046.762                                                  
  23609925.465    92650497.009  
  23060805.994   121185385.307                                                  
  23060809.049    90495594.754  
  24649060.828   129531642.511                                                  
  24649062.686    96728155.479  
  23405801.451   122998347.392                                                  
  23405805.507    91849447.330  
 21  8 31 19 19  8.0000000  0 18G 5G10G13G15G18G23G24G29R 4R 5R18R19
                                R20E 3E 5E 9E11E36
  23312368.743   122507331.986                    95460257.056    23312367.850  
                                
  24463796.584   128558133.103    24463798.657   100175177.862    24463798.336  
  24463797.335    96001211.874  
  22950755.327   120607058.645                    93979525.767    22950753.308  
                                
  20762244.613   109106376.854    20762243.273    85017967.473    20762242.522  
                                
  20628195.545   108401933.949    20628194.222    84469069.827    20628193.740  
  20628198.422    80949519.790  
  22039324.386   115817478.786    22039323.492    90247407.840    22039323.081  
  22039327.531    86487126.783  
  21525985.363   113119883.401    21525987.329    88145400.436    21525986.686  
  21525988.222    84472690.479  
  22471437.513   118088193.148    22471437.477    92016775.356    22471436.726  
                                
  21272638.409   113914036.495    21272638.463    88599836.209    21272638.302  
                                
  20316452.034   108603151.587    20316453.517    84469155.921    20316453.642  
                                
  22776540.591   121582676.128    22776546.202    94564318.579    22776546.273  
                                
  19642102.250   105072012.367    19642103.734    81722687.644    19642103.430  
                                
  20519345.319   109726168.039    20519348.822    85342594.179    20519347.946  
                                
  26749748.278   140570933.885                                                  
  26749754.389   104971853.356  
  23609891.246   124070884.361                                                  
  23609894.569    92650375.731  
  23061166.680   121187280.717                                                  
  23061169.735    90497010.154  
  24649544.220   129534182.872                                                  
  24649546.079    96730052.502  
  23405909.648   122998915.939                                                  
  23405913.686    91849871.894  
 21  8 31 19 19  9.0000000  0 18G 5G10G13G15G18G23G24G29R 4R 5R18R19
                                R20E 3E 5E 9E11E36
  23312725.034   122509204.384                    95461716.097    23312724.123  
                                
  24463436.917   128556243.024    24463438.990   100173705.085    24463438.668  
  24463437.667    95999800.454  
  22951372.219   120610300.266                    93982051.682    22951370.182  
                                
  20762642.824   109108469.397    20762641.484    85019598.024    20762640.716  
                                
  20627864.700   108400195.306    20627863.360    84467715.045    20627862.877  
  20627867.559    80948221.462  
  22039076.060   115816173.845    22039075.166    90246391.001    22039074.773  
  22039079.223    86486152.311  
  21525549.502   113117592.961    21525551.468    88143615.678    21525550.824  
  21525552.361    84470980.095  
  22471998.600   118091141.667    22471998.564    92019072.901    22471997.796  
                                
  21273085.707   113916431.752    21273085.760    88601699.189    21273085.599  
                                
  20316469.957   108603247.456    20316471.440    84469230.484    20316471.583  
                                
  22777340.426   121586945.656    22777346.037    94567639.314    22777346.091  
                                
  19642487.453   105074072.890    19642488.918    81724290.271    19642488.614  
                                
  20518844.629   109723490.585    20518848.132    85340511.717    20518847.238  
                                
  26749367.882   140568934.991                                                  
  26749374.011   104970360.685  
  23609860.422   124070722.417                                                  
  23609863.763    92650254.803  
  23061527.420   121189176.400                                                  
  23061530.457    90498425.766  
  24650027.721   129536723.638                                                  
  24650029.579    96731949.842  
  23406017.952   122999485.081                                                  
  23406021.990    91850296.903  
 21  8 31 19 19 10.0000000  0 18G 5G10G13G15G18G23G24G29R 4R 5R18R19
                                R20E 3E 5E 9E11E36
  23313081.324   122511076.689                    95463175.031    23313080.413  
                                
  24463077.213   128554352.794    24463079.304   100172232.187    24463078.965  
  24463077.964    95998388.916  
  22951989.076   120613541.930                    93984577.657    22951987.057  
                                
  20763041.053   109110562.164    20763039.713    85021228.751    20763038.962  
                                
  20627533.891   108398456.942    20627532.568    84466360.475    20627532.086  
  20627536.768    80946923.328  
  22038827.716   115814868.814    22038826.823    90245374.091    22038826.412  
  22038830.879    86485177.781  
  21525113.695   113115302.815    21525115.678    88141831.151    21525115.017  
  21525116.554    84469269.918  
  22472559.705   118094090.298    22472559.669    92021370.531    22472558.919  
                                
  21273532.986   113918826.875    21273533.040    88603562.060    21273532.879  
                                
  20316487.933   108603343.526    20316489.416    84469305.206    20316489.559  
                                
  22778140.279   121591215.282    22778145.890    94570960.125    22778145.944  
                                
  19642872.763   105076134.082    19642874.228    81725893.420    19642873.924  
                                
  20518344.029   109720813.652    20518347.531    85338429.658    20518346.655  
                                
  26748987.522   140566936.177                                                  
  26748993.633   104968868.079  
  23609829.633   124070560.627                                                  
  23609832.957    92650133.983  
  23061888.142   121191072.042                                                  
  23061891.197    90499841.340  
  24650511.238   129539264.521                                                  
  24650513.115    96733847.237  
  23406126.310   123000054.496                                                  
  23406130.348    91850722.113  
 21  8 31 19 19 11.0000000  0 18G 5G10G13G15G18G23G24G29R 4R 5R18R19
                                R20E 3E 5E 9E11E36
  23313437.633   122512949.175                    95464634.109    23313436.739  
                                
  24462717.510   128552462.674    24462719.601   100170759.358    24462719.261  
  24462718.260    95996977.492  
  22952605.986   120616783.909                    93987103.887    22952603.967  
                                
  20763439.389   109112655.449    20763438.049    85022859.885    20763437.299  
                                
  20627203.206   108396719.138    20627201.866    84465006.343    20627201.384  
  20627206.066    80945625.620  
  22038579.426   115813564.011    22038578.533    90244357.366    22038578.122  
  22038582.589    86484203.411  
  21524678.012   113113013.252    21524679.978    88140047.076    21524679.316  
  21524680.853    84467560.189  
  22473120.900   118097039.363    22473120.864    92023668.504    22473120.096  
                                
  21273980.301   113921222.201    21273980.355    88605425.091    21273980.176  
                                
  20316505.999   108603440.100    20316507.482    84469380.317    20316507.625  
                                
  22778940.204   121595485.302    22778945.815    94574281.239    22778945.886  
                                
  19643258.251   105078196.224    19643259.734    81727497.306    19643259.430  
                                
  20517843.571   109718137.542    20517847.091    85336348.237    20517846.198  
                                
  26748607.234   140564937.750                                                  
  26748613.345   104967375.752  
  23609798.934   124070399.291                                                  
  23609802.258    92650013.510  
  23062248.917   121192967.954                                                  
  23062251.973    90501257.118  
  24650994.828   129541805.777                                                  
  24650996.704    96735744.919  
  23406234.775   123000624.492                                                  
  23406238.813    91851147.760  
 21  8 31 19 19 12.0000000  0 18G 5G10G13G15G18G23G24G29R 4R 5R18R19
                                R20E 3E 5E 9E11E36
  23313793.959   122514821.594                    95466093.125    23313793.065  
                                
  24462357.824   128550572.414    24462359.915   100169286.430    24462359.576  
  24462358.575    95995565.912  
  22953222.914   120620025.926                    93989630.146    22953220.895  
                                
  20763837.779   109114748.926    20763836.439    85024491.163    20763835.671  
                                
  20626872.540   108394981.563    20626871.218    84463652.386    20626870.735  
  20626875.417    80944328.082  
  22038331.100   115812259.083    22038330.207    90243340.539    22038329.814  
  22038334.263    86483228.953  
  21524242.383   113110723.975    21524244.349    88138263.224    21524243.688  
  21524245.224    84465850.655  
  22473682.094   118099988.510    22473682.059    92025966.538    22473681.308  
                                
  21274427.581   113923617.401    21274427.635    88607288.023    21274427.474  
                                
  20316524.100   108603536.841    20316525.583    84469455.558    20316525.708  
                                
  22779740.129   121599755.360    22779745.757    94577602.386    22779745.811  
                                
  19643643.865   105080258.996    19643645.348    81729101.687    19643645.044  
                                
  20517343.220   109715461.910    20517346.741    85334267.190    20517345.847  
                                
  26748226.945   140562939.350                                                  
  26748233.056   104965883.438  
  23609768.253   124070238.057                                                  
  23609771.577    92649893.106  
  23062609.693   121194863.792                                                  
  23062612.748    90502672.840  
  24651478.417   129544347.056                                                  
  24651480.293    96737642.613  
  23406343.275   123001194.729                                                  
  23406347.332    91851573.586  
 21  8 31 19 19 13.0000000  0 18G 5G10G13G15G18G23G24G29R 4R 5R18R19
                                R20E 3E 5E 9E11E36
  23314150.303   122516694.229                    95467552.324    23314149.409  
                                
  24461998.139   128548682.336    24462000.229   100167813.651    24461999.890  
  24461998.907    95994154.499  
  22953839.949   120623268.336                    93992156.687    22953837.912  
                                
  20764236.258   109116842.975    20764234.918    85026122.892    20764234.150  
                                
  20626542.017   108393244.607    20626540.677    84462298.914    20626540.194  
  20626544.876    80943031.009  
  22038082.828   115810954.430    22038081.935    90242323.926    22038081.524  
  22038085.991    86482254.708  
  21523806.861   113108435.325    21523808.827    88136479.863    21523808.166  
  21523809.703    84464141.607  
  22474243.396   118102938.138    22474243.360    92028264.948    22474242.592  
                                
  21274874.932   113926012.885    21274874.986    88609151.175    21274874.807  
                                
  20316542.308   108603634.143    20316543.774    84469531.237    20316543.917  
                                
  22780540.161   121604025.853    22780545.771    94580923.867    22780545.843  
                                
  19644029.675   105082322.817    19644031.158    81730706.878    19644030.854  
                                
  20516843.031   109712787.168    20516846.533    85332186.835    20516845.657  
                                
  26747846.746   140560941.398                                                  
  26747852.857   104964391.459  
  23609737.662   124070077.343                                                  
  23609741.003    92649773.092  
  23062970.522   121196759.939                                                  
  23062973.560    90504088.796  
  24651962.096   129546888.764                                                  
  24651963.972    96739540.641  
  23406451.919   123001765.593                                                  
  23406455.957    91851999.881  
 21  8 31 19 19 14.0000000  0 18G 5G10G13G15G18G23G24G29R 4R 5R18R19
                                R20E 3E 5E 9E11E36
  23314506.647   122518566.877                    95469011.537    23314505.754  
                                
  24461638.453   128546792.196    24461640.544   100166340.824    24461640.204  
  24461639.222    95992743.040  
  22954456.984   120626510.893                    93994683.346    22954454.965  
                                
  20764634.809   109118937.335    20764633.469    85027754.859    20764632.701  
                                
  20626211.547   108391508.024    20626210.225    84460945.732    20626209.742  
  20626214.424    80941734.208  
  22037834.574   115809649.812    22037833.680    90241307.341    22037833.269  
  22037837.737    86481280.474  
  21523371.411   113106147.083    21523373.395    88134696.817    21523372.733  
  21523374.270    84462432.853  
  22474804.734   118105887.986    22474804.698    92030563.531    22474803.929  
                                
  21275322.265   113928408.355    21275322.319    88611014.315    21275322.158  
                                
  20316560.571   108603731.771    20316562.054    84469607.172    20316562.179  
                                
  22781340.210   121608296.540    22781345.839    94584245.504    22781345.893  
                                
  19644415.628   105084387.376    19644417.111    81732312.644    19644416.807  
                                
  20516342.948   109710113.053    20516346.468    85330106.970    20516345.575  
                                
  26747466.565   140558943.591                                                  
  26747472.676   104962899.600  
  23609707.123   124069916.870                                                  
  23609710.465    92649653.258  
  23063331.351   121198656.153                                                  
  23063334.407    90505504.798  
  24652445.810   129549430.665                                                  
  24652447.687    96741438.819  
  23406560.616   123002336.845                                                  
  23406564.673    91852426.463  
 21  8 31 19 19 15.0000000  0 18G 5G10G13G15G18G23G24G29R 4R 5R18R19
                                R20E 3E 5E 9E11E36
  23314863.045   122520439.680                    95470470.859    23314862.151  
                                
  24461278.803   128544902.203    24461280.894   100164868.099    24461280.572  
  24461279.572    95991331.664  
  22955074.073   120629753.746                    93997210.251    22955072.036  
                                
  20765033.431   109121032.185    20765032.091    85029387.209    20765031.341  
                                
  20625881.185   108389771.955    20625879.862    84459592.951    20625879.362  
  20625884.062    80940437.797  
  22037586.355   115808345.365    22037585.462    90240290.886    22037585.051  
  22037589.500    86480306.372  
  21522936.068   113103859.361    21522938.034    88132914.178    21522937.390  
  21522938.927    84460724.502  
  22475366.142   118108838.205    22475366.107    92032862.404    22475365.338  
                                
  21275769.616   113930803.953    21275769.670    88612877.561    21275769.509  
                                
  20316578.922   108603829.873    20316580.405    84469683.474    20316580.530  
                                
  22782140.314   121612567.579    22782145.942    94587567.411    22782145.996  
                                
  19644801.759   105086452.872    19644803.225    81733919.141    19644802.921  
                                
  20515843.026   109707439.699    20515846.529    85328027.690    20515845.653  
                                
  26747086.473   140556946.129                                                  
  26747092.584   104961407.998  
  23609676.657   124069756.799                                                  
  23609679.998    92649533.725  
  23063692.234   121200552.581                                                  
  23063695.289    90506920.960  
  24652929.578   129551972.901                                                  
  24652931.437    96743337.237  
  23406669.421   123002908.620                                                  
  23406673.477    91852853.437  
 21  8 31 19 19 16.0000000  0 18G 5G10G13G15G18G23G24G29R 4R 5R18R19
                                R20E 3E 5E 9E11E36
  23315219.389   122522312.413                    95471930.157    23315218.477  
                                
  24460919.154   128543012.087    24460921.244   100163395.279    24460920.905  
  24460919.922    95989920.195  
  22955691.180   120632996.687                    93999737.216    22955689.161  
                                
  20765432.125   109123127.304    20765430.785    85031019.768    20765430.034  
                                
  20625550.894   108388036.205    20625549.553    84458240.418    20625549.071  
  20625553.753    80939141.618  
  22037338.101   115807040.870    22037337.207    90239274.399    22037336.814  
  22037341.264    86479332.243  
  21522500.814   113101572.011    21522502.780    88131131.830    21522502.119  
  21522503.656    84459016.405  
  22475927.587   118111788.599    22475927.551    92035161.406    22475926.783  
                                
  21276216.967   113933199.470    21276217.021    88614740.741    21276216.860  
                                
  20316597.309   108603928.217    20316598.792    84469759.964    20316598.935  
                                
  22782940.471   121616838.764    22782946.099    94590889.437    22782946.153  
                                
  19645188.016   105088519.071    19645189.482    81735526.182    19645189.178  
                                
  20515343.194   109704766.919    20515346.714    85325948.863    20515345.821  
                                
  26746706.381   140554948.773                                                  
  26746712.474   104959916.473  
  23609646.244   124069596.921                                                  
  23609649.567    92649414.338  
  23064053.099   121202449.007                                                  
  23064056.154    90508337.124  
  24653413.382   129554515.269                                                  
  24653415.258    96745235.748  
  23406778.297   123003480.725                                                  
  23406782.353    91853280.657  
 21  8 31 19 19 17.0000000  0 18G 5G10G13G15G18G23G24G29R 4R 5R18R19
                                R20E 3E 5E 9E11E36
  23315575.768   122524185.169                    95473389.431    23315574.875  
                                
  24460559.450   128541121.876    24460561.541   100161922.372    24460561.201  
  24460560.219    95988508.679  
  22956308.305   120636239.731                    94002264.270    22956306.268  
                                
  20765830.872   109125222.718    20765829.532    85032652.557    20765828.782  
                                
  20625220.656   108386300.796    20625219.334    84456888.151    20625218.834  
  20625223.533    80937845.689  
  22037089.882   115805736.385    22037088.989    90238257.921    22037088.578  
  22037093.045    86478358.108  
  21522065.614   113099285.013    21522067.580    88129349.757    21522066.919  
  21522068.456    84457308.584  
  22476489.068   118114739.198    22476489.032    92037460.570    22476488.264  
                                
  21276664.318   113935594.991    21276664.372    88616603.921    21276664.211  
                                
  20316615.768   108604026.850    20316617.251    84469836.679    20316617.376  
                                
  22783740.645   121621110.146    22783746.274    94594211.611    22783746.328  
                                
  19645574.398   105090586.031    19645575.881    81737133.815    19645575.577  
                                
  20514843.487   109702094.721    20514847.007    85323870.490    20514846.114  
                                
  26746326.324   140552951.582                                                  
  26746332.418   104958425.070  
  23609615.866   124069437.270                                                  
  23609619.190    92649295.115  
  23064413.999   121204345.476                                                  
  23064417.055    90509753.316  
  24653897.204   129557057.804                                                  
  24653899.080    96747134.377  
  23406887.226   123004053.178                                                  
  23406891.283    91853708.137  
 21  8 31 19 19 18.0000000  0 18G 5G10G13G15G18G23G24G29R 4R 5R18R19
                                R20E 3E 5E 9E11E36
  23315932.113   122526057.846                    95474848.676    23315931.219  
                                
  24460199.729   128539231.534    24460201.802   100160449.376    24460201.480  
  24460200.497    95987097.066  
  22956925.465   120639482.865                    94004791.386    22956923.428  
                                
  20766229.655   109127318.383    20766228.315    85034285.544    20766227.565  
                                
  20624890.472   108384565.680    20624889.132    84455536.113    20624888.650  
  20624893.331    80936549.990  
  22036841.628   115804431.838    22036840.734    90237241.391    22036840.323  
  22036844.791    86477383.941  
  21521630.468   113096998.350    21521632.451    88127567.939    21521631.790  
  21521633.327    84455601.007  
  22477050.584   118117689.939    22477050.548    92039759.846    22477049.780  
                                
  21277111.651   113937990.466    21277111.705    88618467.069    21277111.544  
                                
  20316634.262   108604125.702    20316635.745    84469913.565    20316635.871  
                                
  22784540.838   121625381.653    22784546.467    94597533.887    22784546.538  
                                
  19645960.923   105092653.672    19645962.406    81738741.978    19645962.102  
                                
  20514343.869   109699423.052    20514347.389    85321792.525    20514346.496  
                                
  26745946.286   140550954.496                                                  
  26745952.397   104956933.731  
  23609585.525   124069277.809                                                  
  23609588.848    92649176.039  
  23064774.882   121206241.940                                                  
  23064777.938    90511169.504  
  24654381.043   129559600.427                                                  
  24654382.902    96749033.113  
  23406996.227   123004625.938                                                  
  23407000.266    91854135.850  
 21  8 31 19 19 19.0000000  0 18G 5G10G13G15G18G23G24G29R 4R 5R18R19
                                R20E 3E 5E 9E11E36
  23316288.510   122527930.664                    95476308.008    23316287.599  
                                
  24459840.025   128537341.271    24459842.098   100158976.441    24459841.777  
  24459840.794    95985685.502  
  22957542.661   120642726.232                    94007318.680    22957540.624  
                                
  20766628.528   109129414.472    20766627.187    85035918.859    20766626.437  
                                
  20624560.378   108382831.042    20624559.056    84454184.450    20624558.573  
  20624563.255    80935254.641  
  22036593.409   115803127.434    22036592.516    90236224.971    22036592.105  
  22036596.572    86476409.870  
  21521195.429   113094712.174    21521197.394    88125786.501    21521196.733  
  21521198.270    84453893.802  
  22477612.154   118120641.011    22477612.118    92042059.378    22477611.349  
                                
  21277559.020   113940386.034    21277559.074    88620330.288    21277558.895  
                                
  20316652.828   108604224.962    20316654.311    84469990.766    20316654.436  
                                
  22785341.102   121629653.461    22785346.731    94600856.398    22785346.785  
                                
  19646347.626   105094722.212    19646349.092    81740350.843    19646348.788  
                                
  20513844.394   109696752.108    20513847.896    85319715.124    20513847.021  
                                
  26745566.319   140548957.695                                                  
  26745572.412   104955442.620  
  23609555.237   124069118.691                                                  
  23609558.578    92649057.218  
  23065135.801   121208138.559                                                  
  23065138.856    90512585.815  
  24654864.937   129562143.347                                                  
  24654866.813    96750932.038  
  23407105.318   123005199.191                                                  
  23407109.356    91854563.927  
 21  8 31 19 19 20.0000000  0 18G 5G10G13G15G18G23G24G29R 4R 5R18R19
                                R20E 3E 5E 9E11E36
  23316644.872   122529803.350                    95477767.248    23316643.961  
                                
  24459480.268   128535450.814    24459482.359   100157503.363    24459482.020  
  24459481.055    95984273.797  
  22958159.857   120645969.625                    94009845.992    22958157.820  
                                
  20767027.453   109131510.768    20767026.113    85037552.335    20767025.345  
                                
  20624230.337   108381096.639    20624229.015    84452832.962    20624228.514  
  20624233.214    80933959.466  
  22036345.173   115801822.913    22036344.279    90235208.461    22036343.868  
  22036348.336    86475435.712  
  21520760.425   113092426.277    21520762.409    88124005.285    21520761.748  
  21520763.284    84452186.798  
  22478173.741   118123592.180    22478173.706    92044358.983    22478172.937  
                                
  21278006.335   113942781.432    21278006.389    88622193.373    21278006.228  
                                
  20316671.430   108604324.381    20316672.913    84470068.091    20316673.038  
                                
  22786141.367   121633925.314    22786147.013    94604178.936    22786147.067  
                                
  19646734.437   105096791.371    19646735.902    81741960.189    19646735.599  
                                
  20513345.009   109694081.651    20513348.511    85317638.104    20513347.635  
                                
  26745186.334   140546960.920                                                  
  26745192.428   104953951.533  
  23609524.984   124068959.694                                                  
  23609528.308    92648938.484  
  23065496.701   121210035.119                                                  
  23065499.757    90514002.071  
  24655348.865   129564686.340                                                  
  24655350.759    96752831.008  
  23407214.444   123005772.682                                                  
  23407218.500    91854992.181  
 21  8 31 19 19 21.0000000  0 18G 5G10G13G15G18G23G24G29R 4R 5R18R19
                                R20E 3E 5E 9E11E36
  23317001.252   122531676.188                    95479226.602    23317000.341  
                                
  24459120.547   128533560.437    24459122.620   100156030.334    24459122.298  
  24459121.315    95982862.158  
  22958777.089   120649213.279                    94012373.526    22958775.052  
                                
  20767426.451   109133607.514    20767425.111    85039186.160    20767424.342  
                                
  20623900.386   108379362.729    20623899.045    84451481.864    20623898.563  
  20623903.245    80932664.670  
  22036096.954   115800518.554    22036096.061    90234192.079    22036095.650  
  22036100.117    86474461.678  
  21520325.529   113090140.894    21520327.495    88122224.466    21520326.833  
  21520328.370    84450480.194  
  22478735.400   118126543.701    22478735.365    92046658.868    22478734.596  
                                
  21278453.686   113945176.940    21278453.740    88624056.544    21278453.579  
                                
  20316690.103   108604424.256    20316691.586    84470145.772    20316691.729  
                                
  22786941.702   121638197.497    22786947.331    94607501.738    22786947.402  
                                
  19647121.409   105098861.432    19647122.892    81743570.234    19647122.588  
                                
  20512845.748   109691411.938    20512849.268    85315561.660    20512848.375  
                                
  26744806.403   140544964.462                                                  
  26744812.514   104952460.678  
  23609494.804   124068801.090                                                  
  23609498.127    92648820.050  
  23065857.638   121211931.871                                                  
  23065860.693    90515418.485  
  24655832.812   129567229.600                                                  
  24655834.688    96754730.209  
  23407323.677   123006346.690                                                  
  23407327.716    91855420.825  
 21  8 31 19 19 22.0000000  0 18G 5G10G13G15G18G23G24G29R 4R 5R18R19
                                R20E 3E 5E 9E11E36
  23317357.650   122533549.117                    95480686.053    23317356.720  
                                
  24458760.826   128531670.100    24458762.916   100154557.338    24458762.577  
  24458761.612    95981450.535  
  22959394.392   120652457.162                    94014901.223    22959392.355  
                                
  20767825.520   109135704.653    20767824.180    85040820.297    20767823.429  
                                
  20623570.523   108377629.280    20623569.183    84450131.124    20623568.701  
  20623573.382    80931370.209  
  22035848.754   115799214.283    22035847.860    90233175.766    22035847.449  
  22035851.916    86473487.713  
  21519890.740   113087856.006    21519892.706    88120444.041    21519892.044  
  21519893.581    84448773.942  
  22479297.113   118129495.524    22479297.077    92048958.987    22479296.309  
                                
  21278901.037   113947572.556    21278901.109    88625919.801    21278900.930  
                                
  20316708.866   108604524.534    20316710.349    84470223.766    20316710.492  
                                
  22787742.074   121642469.937    22787747.720    94610824.743    22787747.774  
                                
  19647508.541   105100932.332    19647510.024    81745180.934    19647509.721  
                                
  20512346.631   109688742.911    20512350.133    85313485.753    20512349.257  
                                
  26744426.561   140542968.283                                                  
  26744432.673   104950970.018  
  23609464.677   124068642.803                                                  
  23609468.018    92648701.847  
  23066218.610   121213828.771                                                  
  23066221.666    90516834.993  
  24656316.848   129569773.142                                                  
  24656318.724    96756629.616  
  23407432.982   123006921.152                                                  
  23407437.038    91855849.807  
 21  8 31 19 19 23.0000000  0 18G 5G10G13G15G18G23G24G29R 4R 5R18R19
                                R20E 3E 5E 9E11E36
  23317714.011   122535421.785                    95482145.259    23317713.100  
                                
  24458401.051   128529779.485    24458403.142   100153084.127    24458402.802  
  24458401.837    95980038.707  
  22960011.677   120655700.951                    94017428.837    22960009.640  
                                
  20768224.607   109137801.897    20768223.266    85042454.511    20768222.516  
                                
  20623240.679   108375895.966    20623239.357    84448780.490    20623238.857  
  20623243.556    80930075.849  
  22035600.535   115797909.821    22035599.641    90232159.300    22035599.230  
  22035603.698    86472513.598  
  21519455.969   113085571.280    21519457.934    88118663.732    21519457.273  
  21519458.810    84447067.815  
  22479858.826   118132447.353    22479858.790    92051259.114    22479858.022  
                                
  21279348.370   113949967.978    21279348.424    88627782.906    21279348.263  
                                
  20316727.628   108604624.887    20316729.111    84470301.818    20316729.254  
                                
  22788542.445   121646742.353    22788548.092    94614147.726    22788548.145  
                                
  19647895.781   105103003.779    19647897.264    81746792.059    19647896.960  
                                
  20511847.584   109686074.284    20511851.087    85311410.154    20511850.211  
                                
  26744046.666   140540972.007                                                  
  26744052.777   104949479.312  
  23609434.567   124068484.551                                                  
  23609437.891    92648583.672  
  23066579.546   121215725.496                                                  
  23066582.602    90518251.381  
  24656800.866   129572316.657                                                  
  24656802.743    96758528.977  
  23407542.340   123007495.773                                                  
  23407546.379    91856278.904  
 21  8 31 19 19 24.0000000  0 18G 5G10G13G15G18G23G24G29R 4R 5R18R19
                                R20E 3E 5E 9E11E36
  23318070.463   122537294.955                    95483604.867    23318069.551  
                                
  24458041.330   128527889.195    24458043.420   100151611.174    24458043.081  
  24458042.116    95978627.145  
  22960629.052   120658945.336                    94019956.927    22960627.015  
                                
  20768623.836   109139899.875    20768622.514    85044089.299    20768621.746  
                                
  20622910.996   108374163.439    20622909.656    84447430.468    20622909.173  
  20622913.855    80928782.078  
  22035352.388   115796605.787    22035351.494    90231143.170    22035351.083  
  22035355.551    86471539.804  
  21519021.340   113083287.366    21519023.324    88116884.060    21519022.663  
  21519024.200    84445362.298  
  22480420.664   118135399.805    22480420.628    92053559.721    22480419.860  
                                
  21279795.775   113952363.830    21279795.846    88629646.345    21279795.668  
                                
  20316746.533   108604725.950    20316748.017    84470380.426    20316748.160  
                                
  22789342.942   121651015.389    22789348.588    94617471.189    22789348.642  
                                
  19648283.235   105105076.394    19648284.718    81748404.088    19648284.414  
                                
  20511348.735   109683406.706    20511352.237    85309335.371    20511351.362  
                                
  26743666.913   140538976.365                                                  
  26743673.025   104947989.056  
  23609404.583   124068326.963                                                  
  23609407.907    92648465.990  
  23066940.572   121217622.705                                                  
  23066943.628    90519668.125  
  24657285.010   129574860.783                                                  
  24657286.886    96760428.798  
  23407651.842   123008071.186                                                  
  23407655.880    91856708.592  
