% program   : rnx2rtkp ver.2.4.3 b31
% inp file  : ngs/21_08_29_06_57_54_mifw.obs
% inp file  : ngs/21_08_29_06_57_54_mifw_P1.obs
% inp file  : ngs/21_08_29_06_57_54_brdc.nav
% obs start : 2021/08/29 06:00:00.0 GPST (week2173  21600.0s)
% obs end   : 2021/08/29 06:59:59.0 GPST (week2173  25199.0s)
% ref pos   :   560685.8970  -4688365.5500   4273678.3900
%
% (x/y/z-ecef=WGS84,Q=1:fix,2:float,3:sbas,4:dgps,5:single,6:ppp,ns=# of satellites)
%  GPST              x-ecef(m)      y-ecef(m)      z-ecef(m)   Q  ns   sdx(m)   sdy(m)   sdz(m)  sdxy(m)  sdyz(m)  sdzx(m) age(s)  ratio
2173  25049.000    568227.9177  -4690530.2393   4270317.1880   2   7   0.4759   0.9067   0.7163  -0.3579  -0.5988   0.2358 -30.00    2.2
2173  25050.000    568227.9176  -4690530.2432   4270317.1915   2   7   0.3386   0.6451   0.5097  -0.2540  -0.4259   0.1667 -29.00    2.3
2173  25051.000    568227.9166  -4690530.2483   4270317.1958   2   7   0.2772   0.5282   0.4173  -0.2079  -0.3487   0.1364 -28.00    2.6
2173  25052.000    568227.9181  -4690530.2563   4270317.1979   2   7   0.2405   0.4583   0.3620  -0.1804  -0.3026   0.1184 -27.00    2.6
2173  25053.000    568227.9202  -4690530.2502   4270317.1969   2   7   0.2154   0.4105   0.3242  -0.1617  -0.2710   0.1061 -26.00    2.7
2173  25054.000    568227.9193  -4690530.2548   4270317.2004   2   7   0.1969   0.3751   0.2963  -0.1478  -0.2477   0.0970 -25.00    2.8
2173  25055.000    568227.9202  -4690530.2541   4270317.2014   2   7   0.1824   0.3476   0.2745  -0.1370  -0.2295   0.0899 -24.00    3.0
2173  25056.000    568227.6938  -4690530.7604   4270317.4227   1   7   0.0204   0.0378   0.0297  -0.0193  -0.0265   0.0157 -23.00    3.1
2173  25057.000    568227.6925  -4690530.7577   4270317.4213   1   7   0.0196   0.0363   0.0285  -0.0185  -0.0254   0.0150 -22.00    3.2
2173  25058.000    568227.6920  -4690530.7623   4270317.4219   1   7   0.0187   0.0348   0.0273  -0.0177  -0.0243   0.0143 -21.00    3.2
2173  25059.000    568227.6911  -4690530.7582   4270317.4192   1   7   0.0179   0.0333   0.0261  -0.0169  -0.0233   0.0137 -20.00    3.3
2173  25060.000    568227.6915  -4690530.7555   4270317.4184   1   7   0.0171   0.0318   0.0249  -0.0161  -0.0222   0.0130 -19.00    3.3
2173  25061.000    568227.6897  -4690530.7606   4270317.4195   1   7   0.0163   0.0303   0.0237  -0.0153  -0.0211   0.0123 -18.00    3.3
2173  25062.000    568227.6902  -4690530.7594   4270317.4202   1   7   0.0155   0.0288   0.0226  -0.0145  -0.0201   0.0117 -17.00    3.4
2173  25063.000    568227.6909  -4690530.7614   4270317.4204   1   7   0.0147   0.0273   0.0214  -0.0137  -0.0190   0.0110 -16.00    3.4
2173  25064.000    568227.6915  -4690530.7689   4270317.4253   1   7   0.0139   0.0259   0.0202  -0.0129  -0.0180   0.0104 -15.00    3.5
2173  25065.000    568227.6933  -4690530.7712   4270317.4269   1   7   0.0130   0.0244   0.0191  -0.0121  -0.0169   0.0097 -14.00    3.6
2173  25066.000    568227.6925  -4690530.7730   4270317.4267   1   7   0.0123   0.0230   0.0179  -0.0113  -0.0159   0.0090 -13.00    3.7
2173  25067.000    568227.6912  -4690530.7723   4270317.4262   1   7   0.0115   0.0216   0.0168  -0.0105  -0.0149   0.0084 -12.00    3.9
2173  25068.000    568227.6920  -4690530.7741   4270317.4265   1   7   0.0107   0.0202   0.0157  -0.0097  -0.0139   0.0077 -11.00    4.0
2173  25069.000    568227.6928  -4690530.7742   4270317.4265   1   7   0.0099   0.0188   0.0146  -0.0090  -0.0129   0.0070 -10.00    4.0
2173  25070.000    568227.6923  -4690530.7784   4270317.4303   1   7   0.0092   0.0174   0.0135  -0.0082  -0.0119   0.0064  -9.00    4.1
2173  25071.000    568227.6934  -4690530.7821   4270317.4331   1   7   0.0085   0.0161   0.0125  -0.0074  -0.0110   0.0058  -8.00    4.2
2173  25072.000    568227.6927  -4690530.7824   4270317.4336   1   7   0.0078   0.0149   0.0115  -0.0067  -0.0101   0.0052  -7.00    4.4
2173  25073.000    568227.6936  -4690530.7815   4270317.4342   1   7   0.0071   0.0136   0.0105  -0.0061  -0.0092   0.0045  -6.00    4.6
2173  25074.000    568227.6933  -4690530.7792   4270317.4334   1   7   0.0064   0.0125   0.0097  -0.0053  -0.0084   0.0043  -5.00    4.5
2173  25075.000    568227.6939  -4690530.7743   4270317.4285   1   7   0.0061   0.0115   0.0089  -0.0048  -0.0077   0.0035  -4.00    4.4
2173  25076.000    568227.6929  -4690530.7761   4270317.4337   1   7   0.0054   0.0105   0.0082  -0.0043  -0.0070   0.0031  -3.00    4.4
2173  25077.000    568227.6954  -4690530.7757   4270317.4325   1   7   0.0052   0.0098   0.0075  -0.0041  -0.0066   0.0022  -2.00    4.4
2173  25078.000    568227.6957  -4690530.7775   4270317.4313   1   7   0.0049   0.0093   0.0074  -0.0038  -0.0062   0.0026  -1.00    4.3
2173  25079.000    568227.6983  -4690530.7829   4270317.4321   1   7   0.0048   0.0091   0.0073  -0.0038  -0.0060   0.0020   0.00    4.2
2173  25080.000    568228.0125  -4690530.3383   4270317.2480   2   7   0.4759   0.9070   0.7136  -0.3588  -0.5978   0.2370   0.00    1.4
2173  25081.000    568228.0074  -4690530.2425   4270317.2307   2   7   0.4759   0.9070   0.7136  -0.3589  -0.5978   0.2371   0.00    1.5
2173  25082.000    568228.0021  -4690530.2310   4270317.1222   2   7   0.4759   0.9071   0.7135  -0.3589  -0.5978   0.2371   0.00    1.5
2173  25083.000    568227.9585  -4690530.2433   4270317.1180   2   7   0.4760   0.9071   0.7135  -0.3590  -0.5978   0.2372   0.00    1.4
2173  25084.000    568228.0075  -4690530.3218   4270317.0421   2   7   0.4760   0.9072   0.7134  -0.3590  -0.5978   0.2373   0.00    1.6
2173  25085.000    568227.9388  -4690530.3506   4270317.0356   2   7   0.4760   0.9073   0.7134  -0.3591  -0.5978   0.2373   0.00    1.5
2173  25086.000    568227.9511  -4690530.4568   4270317.0614   2   7   0.4760   0.9073   0.7133  -0.3591  -0.5978   0.2374   0.00    1.5
2173  25087.000    568227.9660  -4690530.4077   4270317.0540   2   7   0.4761   0.9074   0.7133  -0.3592  -0.5979   0.2374   0.00    1.9
2173  25088.000    568227.9502  -4690530.5152   4270317.1563   2   7   0.4761   0.9074   0.7132  -0.3592  -0.5979   0.2375   0.00    1.6
2173  25089.000    568227.9279  -4690530.5546   4270317.2284   2   7   0.4761   0.9075   0.7132  -0.3593  -0.5979   0.2376   0.00    1.6
2173  25090.000    568227.9833  -4690530.5290   4270317.2366   2   7   0.4761   0.9075   0.7131  -0.3593  -0.5979   0.2376   0.00    1.6
2173  25091.000    568227.9284  -4690530.3944   4270317.2225   2   7   0.4762   0.9076   0.7131  -0.3594  -0.5979   0.2377   0.00    1.9
2173  25092.000    568227.9461  -4690530.3729   4270317.2150   2   7   0.4762   0.9077   0.7130  -0.3594  -0.5979   0.2378   0.00    1.6
2173  25093.000    568227.9479  -4690530.3222   4270317.1912   2   7   0.4762   0.9077   0.7130  -0.3595  -0.5979   0.2378   0.00    2.1
2173  25094.000    568227.9368  -4690530.2578   4270317.1458   2   7   0.4762   0.9078   0.7129  -0.3596  -0.5979   0.2379   0.00    1.3
2173  25095.000    568227.9128  -4690530.2208   4270317.1142   2   7   0.4763   0.9078   0.7129  -0.3596  -0.5979   0.2379   0.00    1.7
2173  25096.000    568227.8705  -4690530.1983   4270317.1383   2   7   0.4763   0.9079   0.7128  -0.3597  -0.5979   0.2380   0.00    1.3
2173  25097.000    568227.8654  -4690530.2017   4270317.1828   2   7   0.4763   0.9079   0.7128  -0.3597  -0.5979   0.2381   0.00    2.3
2173  25098.000    568227.8811  -4690530.2938   4270317.2940   2   7   0.4763   0.9080   0.7127  -0.3598  -0.5979   0.2381   0.00    1.9
2173  25099.000    568227.8398  -4690530.3049   4270317.3369   2   7   0.4763   0.9081   0.7127  -0.3598  -0.5979   0.2382   0.00    1.7
2173  25100.000    568227.8172  -4690530.3839   4270317.3166   2   7   0.4764   0.9081   0.7126  -0.3599  -0.5979   0.2383   0.00    1.9
2173  25101.000    568227.7663  -4690530.4958   4270317.2781   2   7   0.4764   0.9082   0.7126  -0.3599  -0.5979   0.2383   0.00    1.6
2173  25102.000    568227.7463  -4690530.5634   4270317.3751   2   7   0.4764   0.9082   0.7125  -0.3600  -0.5979   0.2384   0.00    2.3
2173  25103.000    568227.6882  -4690530.5537   4270317.3442   2   7   0.4764   0.9083   0.7125  -0.3600  -0.5979   0.2384   0.00    2.0
2173  25104.000    568227.6655  -4690530.5101   4270317.3350   2   7   0.4765   0.9083   0.7124  -0.3601  -0.5979   0.2385   0.00    2.3
2173  25105.000    568227.7015  -4690530.5463   4270317.2694   2   7   0.4765   0.9084   0.7124  -0.3601  -0.5979   0.2386   0.00    2.9
2173  25106.000    568227.7413  -4690530.5975   4270317.2944   2   7   0.4765   0.9085   0.7123  -0.3602  -0.5979   0.2386   0.00    1.9
2173  25107.000    568227.7390  -4690530.5117   4270317.2627   2   7   0.4765   0.9085   0.7123  -0.3602  -0.5979   0.2387   0.00    2.3
2173  25108.000    568227.7957  -4690530.5939   4270317.2628   2   7   0.4766   0.9086   0.7122  -0.3603  -0.5979   0.2388   0.00    2.2
2173  25109.000    568227.8267  -4690530.5986   4270317.2540   2   7   0.4766   0.9086   0.7122  -0.3603  -0.5979   0.2388   0.00    1.8
2173  25110.000    568227.8753  -4690530.5479   4270317.2175   2   7   0.4766   0.9087   0.7121  -0.3604  -0.5979   0.2389   0.00    2.9
2173  25111.000    568227.8524  -4690530.5156   4270317.2222   2   7   0.4766   0.9087   0.7121  -0.3605  -0.5980   0.2389   0.00    2.4
2173  25112.000    568227.8739  -4690530.4240   4270317.0935   2   7   0.4767   0.9088   0.7120  -0.3605  -0.5980   0.2390   0.00    1.8
2173  25113.000    568227.8657  -4690530.4317   4270317.0938   2   7   0.4767   0.9088   0.7120  -0.3606  -0.5980   0.2391   0.00    2.2
2173  25114.000    568227.8159  -4690530.3997   4270317.0038   2   7   0.4767   0.9089   0.7119  -0.3606  -0.5980   0.2391   0.00    2.7
2173  25115.000    568227.7740  -4690530.5109   4270317.0350   2   7   0.4767   0.9090   0.7119  -0.3607  -0.5980   0.2392   0.00    2.9
2173  25116.000    568227.7002  -4690530.7841   4270317.4420   1   7   0.0048   0.0092   0.0072  -0.0036  -0.0060   0.0024   0.00    3.5
2173  25117.000    568227.8066  -4690530.7454   4270317.2805   2   7   0.4768   0.9091   0.7118  -0.3608  -0.5980   0.2393   0.00    2.8
2173  25118.000    568227.7028  -4690530.7890   4270317.4449   1   7   0.0048   0.0092   0.0072  -0.0036  -0.0060   0.0024   0.00    3.1
2173  25119.000    568227.7817  -4690530.5676   4270317.3167   2   7   0.4768   0.9092   0.7117  -0.3609  -0.5980   0.2394   0.00    2.9
2173  25120.000    568227.7017  -4690530.7861   4270317.4430   1   7   0.0048   0.0092   0.0072  -0.0036  -0.0060   0.0024   0.00    3.1
2173  25121.000    568227.7061  -4690530.3636   4270317.2733   2   7   0.4769   0.9093   0.7116  -0.3610  -0.5980   0.2396   0.00    2.2
2173  25122.000    568227.6942  -4690530.2786   4270317.2664   2   7   0.4769   0.9094   0.7116  -0.3610  -0.5980   0.2396   0.00    2.7
2173  25123.000    568227.7001  -4690530.7908   4270317.4466   1   7   0.0048   0.0092   0.0072  -0.0036  -0.0060   0.0024   0.00    3.8
2173  25124.000    568227.6445  -4690530.0490   4270317.3230   2   7   0.4770   0.9095   0.7115  -0.3611  -0.5980   0.2397   0.00    2.7
2173  25125.000    568227.7017  -4690530.7880   4270317.4481   1   7   0.0048   0.0092   0.0072  -0.0036  -0.0060   0.0024   0.00    3.1
2173  25126.000    568227.7004  -4690530.7876   4270317.4458   1   7   0.0048   0.0092   0.0072  -0.0036  -0.0060   0.0024   0.00    3.2
2173  25127.000    568227.6608  -4690529.8769   4270317.3244   2   7   0.4770   0.9096   0.7113  -0.3613  -0.5980   0.2399   0.00    2.5
2173  25128.000    568227.7005  -4690530.7842   4270317.4477   1   7   0.0048   0.0092   0.0072  -0.0036  -0.0060   0.0024   0.00    3.1
2173  25129.000    568227.5908  -4690529.8564   4270317.3474   2   7   0.4771   0.9098   0.7112  -0.3614  -0.5980   0.2401   0.00    2.8
2173  25130.000    568227.7012  -4690530.7829   4270317.4466   1   7   0.0048   0.0092   0.0072  -0.0036  -0.0060   0.0024   0.00    3.2
2173  25131.000    568227.6404  -4690529.9783   4270317.3833   2   7   0.4771   0.9099   0.7111  -0.3615  -0.5981   0.2402   0.00    2.8
2173  25132.000    568227.7017  -4690530.7856   4270317.4481   1   7   0.0048   0.0092   0.0072  -0.0036  -0.0060   0.0024   0.00    4.1
2173  25133.000    568227.7007  -4690530.7831   4270317.4481   1   7   0.0048   0.0092   0.0072  -0.0036  -0.0060   0.0024   0.00    3.4
2173  25134.000    568227.7001  -4690530.7862   4270317.4500   1   7   0.0048   0.0092   0.0072  -0.0036  -0.0060   0.0024   0.00    4.4
2173  25135.000    568227.5853  -4690529.7201   4270317.3720   2   7   0.4772   0.9101   0.7109  -0.3617  -0.5981   0.2404   0.00    2.9
2173  25136.000    568227.7010  -4690530.7834   4270317.4497   1   7   0.0048   0.0092   0.0072  -0.0036  -0.0060   0.0024   0.00    3.4
2173  25137.000    568227.7009  -4690530.7861   4270317.4519   1   7   0.0048   0.0092   0.0072  -0.0036  -0.0060   0.0024   0.00    3.2
2173  25138.000    568227.6996  -4690530.7822   4270317.4498   1   7   0.0048   0.0092   0.0072  -0.0036  -0.0060   0.0024   0.00    3.4
2173  25139.000    568227.6523  -4690529.6931   4270317.4040   2   7   0.4773   0.9103   0.7108  -0.3619  -0.5981   0.2407   0.00    2.7
2173  25140.000    568227.6989  -4690530.7841   4270317.4499   1   7   0.0048   0.0092   0.0072  -0.0036  -0.0060   0.0024   0.00    3.8
2173  25141.000    568227.6989  -4690530.7820   4270317.4498   1   7   0.0048   0.0092   0.0072  -0.0036  -0.0060   0.0024   0.00    4.2
2173  25142.000    568227.6981  -4690530.7824   4270317.4499   1   7   0.0048   0.0092   0.0072  -0.0036  -0.0060   0.0024   0.00    3.5
2173  25143.000    568227.6990  -4690530.7851   4270317.4521   1   7   0.0048   0.0092   0.0072  -0.0036  -0.0060   0.0024   0.00    3.9
2173  25144.000    568227.6982  -4690530.7873   4270317.4521   1   7   0.0048   0.0092   0.0072  -0.0036  -0.0060   0.0024   0.00    4.3
2173  25145.000    568227.6987  -4690530.7832   4270317.4515   1   7   0.0048   0.0092   0.0072  -0.0036  -0.0060   0.0024   0.00    3.1
2173  25146.000    568227.6994  -4690530.7847   4270317.4501   1   7   0.0048   0.0092   0.0072  -0.0036  -0.0060   0.0024   0.00    4.5
2173  25147.000    568227.6983  -4690530.7833   4270317.4512   1   7   0.0048   0.0092   0.0072  -0.0036  -0.0060   0.0024   0.00    3.2
2173  25148.000    568227.6985  -4690530.7830   4270317.4528   1   7   0.0048   0.0092   0.0072  -0.0036  -0.0060   0.0024   0.00    4.8
2173  25149.000    568227.6983  -4690530.7867   4270317.4522   1   7   0.0048   0.0092   0.0072  -0.0036  -0.0060   0.0024   0.00    3.6
2173  25150.000    568227.7000  -4690530.7852   4270317.4523   1   7   0.0048   0.0092   0.0072  -0.0036  -0.0060   0.0024   0.00    4.4
2173  25151.000    568227.6986  -4690530.7852   4270317.4522   1   7   0.0048   0.0092   0.0072  -0.0036  -0.0060   0.0024   0.00    5.0
2173  25152.000    568227.6973  -4690530.7826   4270317.4530   1   7   0.0048   0.0092   0.0072  -0.0036  -0.0060   0.0024   0.00    4.9
2173  25153.000    568227.7001  -4690530.7845   4270317.4527   1   7   0.0048   0.0092   0.0072  -0.0036  -0.0060   0.0024   0.00    5.3
2173  25154.000    568227.6972  -4690530.7868   4270317.4533   1   7   0.0048   0.0092   0.0072  -0.0036  -0.0060   0.0024   0.00    4.3
2173  25155.000    568227.6978  -4690530.7833   4270317.4507   1   7   0.0048   0.0092   0.0072  -0.0036  -0.0060   0.0024   0.00    4.6
2173  25156.000    568227.6979  -4690530.7822   4270317.4513   1   7   0.0048   0.0092   0.0072  -0.0036  -0.0060   0.0024   0.00    4.6
2173  25157.000    568227.6988  -4690530.7786   4270317.4491   1   7   0.0048   0.0092   0.0072  -0.0036  -0.0060   0.0024   0.00    4.4
2173  25158.000    568227.6991  -4690530.7844   4270317.4495   1   7   0.0048   0.0092   0.0072  -0.0036  -0.0060   0.0024   0.00    4.6
2173  25159.000    568227.6981  -4690530.7847   4270317.4531   1   7   0.0048   0.0092   0.0072  -0.0036  -0.0060   0.0024   0.00    4.7
2173  25160.000    568227.6978  -4690530.7835   4270317.4511   1   7   0.0048   0.0092   0.0072  -0.0036  -0.0060   0.0024   0.00    4.4
2173  25161.000    568227.6976  -4690530.7825   4270317.4503   1   7   0.0048   0.0092   0.0072  -0.0036  -0.0060   0.0024   0.00    4.9
2173  25162.000    568227.6969  -4690530.7846   4270317.4523   1   7   0.0048   0.0092   0.0072  -0.0036  -0.0060   0.0024   0.00    6.7
2173  25163.000    568227.6961  -4690530.7862   4270317.4514   1   7   0.0048   0.0092   0.0072  -0.0036  -0.0060   0.0024   0.00    6.0
2173  25164.000    568227.6954  -4690530.7875   4270317.4538   1   7   0.0048   0.0092   0.0072  -0.0036  -0.0060   0.0024   0.00    5.1
2173  25165.000    568227.6967  -4690530.7857   4270317.4544   1   7   0.0048   0.0092   0.0072  -0.0036  -0.0060   0.0024   0.00    5.3
2173  25166.000    568227.6959  -4690530.7853   4270317.4514   1   7   0.0048   0.0092   0.0072  -0.0036  -0.0060   0.0024   0.00    4.8
2173  25167.000    568227.6963  -4690530.7877   4270317.4525   1   7   0.0048   0.0092   0.0072  -0.0036  -0.0060   0.0024   0.00    5.2
2173  25168.000    568227.6962  -4690530.7881   4270317.4529   1   7   0.0048   0.0092   0.0072  -0.0036  -0.0060   0.0024   0.00    6.5
2173  25169.000    568227.6974  -4690530.7847   4270317.4503   1   7   0.0048   0.0092   0.0072  -0.0036  -0.0060   0.0024   0.00    5.0
2173  25170.000    568227.6996  -4690530.7860   4270317.4512   1   7   0.0048   0.0092   0.0072  -0.0036  -0.0060   0.0024   0.00    4.9
2173  25171.000    568227.6963  -4690530.7856   4270317.4523   1   7   0.0048   0.0092   0.0072  -0.0036  -0.0060   0.0024   0.00    5.8
2173  25172.000    568227.6963  -4690530.7867   4270317.4543   1   7   0.0048   0.0092   0.0072  -0.0036  -0.0060   0.0024   0.00    5.5
2173  25173.000    568227.6988  -4690530.7847   4270317.4523   1   7   0.0048   0.0092   0.0072  -0.0036  -0.0060   0.0024   0.00    5.7
2173  25174.000    568227.6974  -4690530.7876   4270317.4540   1   7   0.0048   0.0092   0.0072  -0.0036  -0.0060   0.0024   0.00    6.3
2173  25175.000    568227.6993  -4690530.7841   4270317.4546   1   7   0.0048   0.0092   0.0072  -0.0036  -0.0060   0.0024   0.00    6.2
2173  25176.000    568227.6958  -4690530.7857   4270317.4547   1   7   0.0048   0.0092   0.0072  -0.0036  -0.0060   0.0024   0.00    7.8
2173  25177.000    568227.6969  -4690530.7833   4270317.4545   1   7   0.0048   0.0092   0.0072  -0.0036  -0.0060   0.0024   0.00    5.7
2173  25178.000    568227.6973  -4690530.7864   4270317.4529   1   7   0.0048   0.0092   0.0072  -0.0036  -0.0060   0.0024   0.00    6.2
2173  25179.000    568227.6970  -4690530.7851   4270317.4560   1   7   0.0048   0.0092   0.0072  -0.0036  -0.0060   0.0024   0.00    7.0
2173  25180.000    568227.6985  -4690530.7820   4270317.4517   1   7   0.0048   0.0092   0.0072  -0.0036  -0.0060   0.0024   0.00    6.0
2173  25181.000    568227.6970  -4690530.7836   4270317.4516   1   7   0.0048   0.0092   0.0072  -0.0037  -0.0060   0.0024   0.00    6.1
2173  25182.000    568227.6968  -4690530.7816   4270317.4502   1   7   0.0048   0.0092   0.0072  -0.0037  -0.0060   0.0024   0.00    6.0
2173  25183.000    568227.6980  -4690530.7877   4270317.4535   1   7   0.0048   0.0092   0.0072  -0.0037  -0.0060   0.0024   0.00    5.5
2173  25184.000    568227.6971  -4690530.7865   4270317.4541   1   7   0.0048   0.0092   0.0072  -0.0037  -0.0060   0.0024   0.00    6.2
2173  25185.000    568227.6985  -4690530.7847   4270317.4522   1   7   0.0048   0.0092   0.0072  -0.0037  -0.0060   0.0024   0.00    5.5
2173  25186.000    568227.6976  -4690530.7892   4270317.4561   1   7   0.0048   0.0092   0.0072  -0.0037  -0.0060   0.0024   0.00    6.5
2173  25187.000    568227.6979  -4690530.7858   4270317.4531   1   7   0.0048   0.0092   0.0072  -0.0037  -0.0060   0.0024   0.00    6.0
2173  25188.000    568227.6990  -4690530.7888   4270317.4544   1   7   0.0048   0.0092   0.0072  -0.0037  -0.0060   0.0024   0.00    6.5
2173  25189.000    568227.6985  -4690530.7891   4270317.4538   1   7   0.0048   0.0092   0.0072  -0.0037  -0.0060   0.0024   0.00    4.2
2173  25190.000    568227.7004  -4690530.7896   4270317.4540   1   7   0.0048   0.0092   0.0072  -0.0037  -0.0060   0.0024   0.00    5.8
2173  25191.000    568227.6965  -4690530.7897   4270317.4547   1   7   0.0048   0.0092   0.0072  -0.0037  -0.0060   0.0024   0.00    5.5
2173  25192.000    568227.6979  -4690530.7893   4270317.4570   1   7   0.0048   0.0092   0.0072  -0.0037  -0.0060   0.0024   0.00    6.0
2173  25193.000    568227.6998  -4690530.7909   4270317.4543   1   7   0.0048   0.0092   0.0072  -0.0037  -0.0060   0.0024   0.00    5.0
2173  25194.000    568227.6998  -4690530.7891   4270317.4564   1   7   0.0048   0.0092   0.0072  -0.0037  -0.0060   0.0024   0.00    5.9
2173  25195.000    568227.7004  -4690530.7906   4270317.4557   1   7   0.0048   0.0092   0.0072  -0.0037  -0.0060   0.0024   0.00    5.1
2173  25196.000    568227.6986  -4690530.7910   4270317.4543   1   7   0.0048   0.0092   0.0072  -0.0037  -0.0060   0.0024   0.00    6.4
2173  25197.000    568227.6994  -4690530.7905   4270317.4575   1   7   0.0048   0.0092   0.0072  -0.0037  -0.0060   0.0024   0.00    7.3
2173  25198.000    568227.6995  -4690530.7924   4270317.4562   1   7   0.0048   0.0092   0.0072  -0.0037  -0.0060   0.0024   0.00    5.3
2173  25199.000    568227.6985  -4690530.7901   4270317.4545   1   7   0.0048   0.0092   0.0072  -0.0037  -0.0060   0.0024   0.00    4.9
