     2.11           OBSERVATION DATA    M (MIXED)           RINEX VERSION / TYPE
CONVBIN 2.4.3                           20210901 004916 UTC PGM / RUN BY / DATE 
log: logs/21_08_31_18_48_31_moip_VZ.rtcm                    COMMENT             
format: RTCM 3, station ID: 2629                            COMMENT             
2629                                                        MARKER NAME         
                                                            MARKER NUMBER       
                                                            OBSERVER / AGENCY   
                    LEICA GR50                              REC # / TYPE / VERS 
                    GPPNULLANTENNA                          ANT # / TYPE        
  -379585.6102 -4941592.3870  4001595.9303                  APPROX POSITION XYZ 
        0.0000        0.0000        0.0000                  ANTENNA: DELTA H/E/N
     1     1                                                WAVELENGTH FACT L1/2
     7    C1    L1    C2    L2    P2    C5    L5            # / TYPES OF OBSERV 
  2021     8    31    18    48   40.0000000     GPS         TIME OF FIRST OBS   
  2021     8    31    19    18   35.0000000     GPS         TIME OF LAST OBS    
                                                            END OF HEADER       
 21  8 31 18 48 40.0000000  0 14G 5G10G13G15G18G23G29R 4R 5R19R20E 5
                                E 9E36
  23086260.703   121319145.242    23086259.970    94534400.994    23086259.648  
                                
  23844677.985   125304648.271    23844680.558    97640009.815    23844680.755  
  23844679.683    93571668.280  
  21962971.319   115416193.401                    89934694.515    21962969.800  
                                
  20284895.447   106597892.329    20284894.160    83063304.847    20284893.928  
                                
  20392833.959   107165086.089    20392832.887    83505271.171    20392832.958  
  20392837.193    80025917.777  
  21259207.641   111717923.697    21259206.694    87052948.435    21259206.783  
  21259211.000    83425760.087  
  22149899.758   116398500.430    22149899.240    90700125.042    22149899.043  
                                
  19854295.790   106318900.743    19854295.379    82692498.380    19854295.415  
                                
  19756177.307   105608135.430    19756178.468    82139693.637    19756178.504  
                                
  19764044.502   105724306.019    19764045.395    82230041.658    19764045.073  
                                
  20244746.147   108257780.311    20244749.327    84200506.262    20244748.416  
                                
  23842145.176   125291367.013                                                  
  23842148.679    93561769.870  
  22407882.401   117754253.056                                                  
  22407885.600    87933404.835  
  23719442.509   124646530.019                                                  
  23719446.565    93080219.888  
 21  8 31 18 48 41.0000000  0 14G 5G10G13G15G18G23G29R 4R 5R19R20E 5
                                E 9E36
  23086792.556   121321940.099    23086791.824    94536578.799    23086791.502  
                                
  23844199.346   125302133.018    23844201.901    97638049.883    23844202.097  
  23844201.043    93569790.021  
  21963375.677   115418318.379                    89936350.347    21963374.159  
                                
  20285032.145   106598610.635    20285030.858    83063864.568    20285030.608  
                                
  20392609.488   107163906.561    20392608.416    83504352.058    20392608.488  
  20392612.723    80025036.961  
  21258921.236   111716418.571    21258920.289    87051775.610    21258920.378  
  21258924.595    83424636.130  
  22150500.658   116401658.216    22150500.139    90702585.657    22150499.943  
                                
  19854705.920   106321097.035    19854705.509    82694206.610    19854705.563  
                                
  19755884.559   105606570.529    19755885.720    82138476.490    19755885.738  
                                
  19764389.034   105726149.036    19764389.928    82231475.118    19764389.588  
                                
  20244245.528   108255103.281    20244248.709    84198424.128    20244247.780  
                                
  23841865.526   125289897.412                                                  
  23841869.028    93560672.439  
  22408124.687   117755526.342                                                  
  22408127.904    87934355.676  
  23719612.693   124647424.281                                                  
  23719616.732    93080887.685  
 21  8 31 18 48 42.0000000  0 14G 5G10G13G15G18G23G29R 4R 5R19R20E 5
                                E 9E36
  23087324.374   121324734.879    23087323.641    94538756.553    23087323.320  
                                
  23843720.742   125299617.843    23843723.297    97636090.019    23843723.493  
  23843722.421    93567911.809  
  21963780.143   115420443.788                    89938006.510    21963778.624  
                                
  20285168.932   106599329.501    20285167.646    83064424.731    20285167.395  
                                
  20392385.089   107162727.297    20392384.017    83503433.149    20392384.088  
  20392388.323    80024156.337  
  21258634.849   111714913.613    21258633.902    87050602.919    21258633.991  
  21258638.209    83423512.304  
  22151101.611   116404816.237    22151101.093    90705046.457    22151100.896  
                                
  19855116.139   106323293.683    19855115.728    82695915.119    19855115.764  
                                
  19755591.918   105605006.130    19755593.061    82137259.739    19755593.097  
                                
  19764733.692   105727992.693    19764734.585    82232909.068    19764734.246  
                                
  20243744.981   108252426.607    20243748.162    84196342.273    20243747.232  
                                
  23841585.912   125288428.055                                                  
  23841589.414    93559575.189  
  22408367.027   117756799.860                                                  
  22408370.244    87935306.680  
  23719782.914   124648318.762                                                  
  23719786.952    93081555.645  
 21  8 31 18 48 43.0000000  0 14G 5G10G13G15G18G23G29R 4R 5R19R20E 5
                                E 9E36
  23087856.246   121327529.850    23087855.531    94540934.448    23087855.191  
                                
  23843242.138   125297102.886    23843244.711    97634130.319    23843244.907  
  23843243.835    93566033.767  
  21964184.715   115422569.855                    89939663.185    21964183.196  
                                
  20285305.880   106600049.145    20285304.594    83064985.488    20285304.344  
                                
  20392160.761   107161548.485    20392159.689    83502514.597    20392159.779  
  20392164.014    80023276.060  
  21258348.552   111713409.042    21258347.605    87049430.529    21258347.694  
  21258351.893    83422388.761  
  22151702.653   116407974.743    22151702.135    90707507.632    22151701.939  
                                
  19855526.448   106325490.947    19855526.037    82697624.100    19855526.090  
                                
  19755299.420   105603442.533    19755300.563    82136043.609    19755300.599  
                                
  19765078.493   105729837.120    19765079.386    82234343.621    19765079.046  
                                
  20243244.541   108249750.563    20243247.722    84194260.906    20243246.793  
                                
  23841306.404   125286959.181                                                  
  23841309.925    93558478.303  
  22408609.456   117758073.834                                                  
  22408612.673    87936258.020  
  23719953.206   124649213.649                                                  
  23719957.244    93082223.908  
 21  8 31 18 48 44.0000000  0 14G 5G10G13G15G18G23G29R 4R 5R19R20E 5
                                E 9E36
  23088388.135   121330324.942    23088387.402    94543112.436    23088387.063  
                                
  23842763.605   125294588.196    23842766.178    97632170.824    23842766.375  
  23842765.303    93564155.910  
  21964589.431   115424696.582                    89941320.372    21964587.912  
                                
  20285442.971   106600769.558    20285441.685    83065546.851    20285441.435  
                                
  20391936.541   107160370.146    20391935.469    83501596.408    20391935.540  
  20391939.775    80022396.129  
  21258062.308   111711904.861    21258061.361    87048258.440    21258061.450  
  21258065.667    83421265.505  
  22152303.785   116411133.726    22152303.267    90709969.176    22152303.070  
                                
  19855936.899   106327688.795    19855936.488    82699333.539    19855936.542  
                                
  19755007.047   105601879.692    19755008.190    82134828.063    19755008.226  
                                
  19765423.418   105731682.330    19765424.330    82235778.786    19765423.990  
                                
  20242744.226   108247075.120    20242747.425    84192180.005    20242746.496  
                                
  23841026.969   125285490.772                                                  
  23841030.489    93557381.761  
  22408851.957   117759348.250                                                  
  22408855.173    87937209.694  
  23720123.569   124650108.966                                                  
  23720127.625    93082892.488  
 21  8 31 18 48 45.0000000  0 14G 5G10G13G15G18G23G29R 4R 5R19R20E 5
                                E 9E36
  23088920.042   121333120.086    23088919.309    94545290.471    23088918.970  
                                
  23842285.109   125292073.593    23842287.664    97630211.396    23842287.878  
  23842286.806    93562278.123  
  21964994.218   115426823.805                    89942977.951    21964992.699  
                                
  20285580.188   106601490.608    20285578.901    83066108.708    20285578.651  
                                
  20391712.374   107159192.123    20391711.302    83500678.470    20391711.373  
  20391715.608    80021516.439  
  21257776.135   111710400.916    21257775.188    87047086.534    21257775.278  
  21257779.477    83420142.426  
  22152904.970   116414293.036    22152904.452    90712430.978    22152904.256  
                                
  19856347.404   106329887.067    19856346.993    82701043.306    19856347.047  
                                
  19754714.799   105600317.445    19754715.942    82133612.982    19754715.978  
                                
  19765768.505   105733528.280    19765769.398    82237214.525    19765769.059  
                                
  20242244.001   108244400.136    20242247.182    84190099.462    20242246.252  
                                
  23840747.586   125284022.688                                                  
  23840751.107    93556285.469  
  22409094.547   117760622.968                                                  
  22409097.745    87938161.592  
  23720293.986   124651004.551                                                  
  23720298.042    93083561.269  
 21  8 31 18 48 46.0000000  0 14G 5G10G13G15G18G23G29R 4R 5R19R20E 5
                                E 9E36
  23089451.949   121335915.386    23089451.217    94547468.617    23089450.895  
                                
  23841806.630   125289559.194    23841809.185    97628252.108    23841809.382  
  23841808.327    93560400.482  
  21965399.148   115428951.658                    89944636.016    21965397.611  
                                
  20285717.529   106602212.400    20285716.242    83066671.141    20285716.010  
                                
  20391488.296   107158014.538    20391487.206    83499760.874    20391487.296  
  20391491.531    80020637.075  
  21257489.999   111708897.328    21257489.052    87045914.900    21257489.141  
  21257493.340    83419019.615  
  22153506.263   116417452.794    22153505.745    90714893.118    22153505.548  
                                
  19856758.017   106332085.945    19856757.606    82702753.540    19856757.659  
                                
  19754422.676   105598755.944    19754423.837    82132398.484    19754423.855  
                                
  19766113.752   105735375.005    19766114.646    82238650.862    19766114.306  
                                
  20241743.865   108241725.764    20241747.045    84188019.397    20241746.116  
                                
  23840468.311   125282555.059                                                  
  23840471.814    93555189.514  
  22409337.190   117761898.107                                                  
  22409340.406    87939113.808  
  23720464.492   124651900.529                                                  
  23720468.530    93084230.343  
 21  8 31 18 48 47.0000000  0 14G 5G10G13G15G18G23G29R 4R 5R19R20E 5
                                E 9E36
  23089983.857   121338710.548    23089983.142    94549646.666    23089982.802  
                                
  23841328.151   125287044.765    23841330.706    97626292.817    23841330.903  
  23841329.848    93558522.815  
  21965804.113   115431079.873                    89946294.365    21965802.594  
                                
  20285854.978   106602934.685    20285853.691    83067233.961    20285853.459  
                                
  20391264.219   107156837.134    20391263.147    83498843.414    20391263.218  
  20391267.453    80019757.843  
  21257203.898   111707393.831    21257202.951    87044743.344    21257203.040  
  21257207.239    83417896.873  
  22154107.591   116420612.716    22154107.073    90717355.393    22154106.877  
                                
  19857168.700   106334285.102    19857168.289    82704463.993    19857168.325  
                                
  19754130.660   105597194.864    19754131.804    82131184.310    19754131.840  
                                
  19766459.071   105737222.228    19766459.965    82240087.591    19766459.625  
                                
  20241243.782   108239051.664    20241246.963    84185939.537    20241246.052  
                                
  23840189.072   125281087.614                                                  
  23840192.592    93554093.691  
  22409579.869   117763173.412                                                  
  22409583.068    87940066.142  
  23720635.034   124652796.645                                                  
  23720639.072    93084899.518  
 21  8 31 18 48 48.0000000  0 14G 5G10G13G15G18G23G29R 4R 5R19R20E 5
                                E 9E36
  23090515.799   121341505.906    23090515.085    94551824.863    23090514.745  
                                
  23840849.726   125284530.620    23840852.281    97624333.730    23840852.478  
  23840851.423    93556645.346  
  21966209.240   115433208.777                    89947953.249    21966207.721  
                                
  20285992.569   106603657.789    20285991.282    83067797.416    20285991.050  
                                
  20391040.266   107155660.239    20391039.194    83497926.355    20391039.266  
  20391043.501    80018878.995  
  21256917.868   111705890.759    21256916.921    87043572.118    21256917.011  
  21256921.210    83416774.450  
  22154708.991   116423773.170    22154708.473    90719818.073    22154708.277  
                                
  19857579.509   106336484.866    19857579.098    82706174.916    19857579.134  
                                
  19753838.752   105595634.554    19753839.896    82129970.736    19753839.931  
                                
  19766804.551   105739070.314    19766805.444    82241524.989    19766805.105  
                                
  20240743.861   108236378.215    20240747.041    84183860.199    20240746.112  
                                
  23839909.922   125279620.686                                                  
  23839913.443    93552998.258  
  22409822.656   117764449.213                                                  
  22409825.854    87941018.842  
  23720805.629   124653693.228                                                  
  23720809.686    93085569.038  
 21  8 31 18 48 49.0000000  0 14G 5G10G13G15G18G23G29R 4R 5R19R20E 5
                                E 9E36
  23091047.742   121344301.294    23091047.010    94554003.091    23091046.670  
                                
  23840371.318   125282016.581    23840373.874    97622374.741    23840374.070  
  23840373.016    93554767.992  
  21966614.438   115435338.183                    89949612.527    21966612.919  
                                
  20286130.303   106604381.524    20286129.017    83068361.365    20286128.767  
                                
  20390816.368   107154483.674    20390815.295    83497009.552    20390815.385  
  20390819.620    80018000.394  
  21256631.892   111704387.934    21256630.945    87042401.087    21256631.035  
  21256635.234    83415652.217  
  22155310.480   116426933.938    22155309.962    90722281.011    22155309.766  
                                
  19857990.372   106338685.085    19857989.961    82707886.200    19857990.014  
                                
  19753546.987   105594074.885    19753548.130    82128757.658    19753548.166  
                                
  19767150.156   105740919.078    19767151.049    82242962.919    19767150.710  
                                
  20240243.993   108233705.252    20240247.173    84181781.229    20240246.244  
                                
  23839630.826   125278154.099                                                  
  23839634.346    93551903.090  
  22410065.478   117765725.326                                                  
  22410068.694    87941971.792  
  23720976.296   124654590.092                                                  
  23720980.353    93086238.778  
 21  8 31 18 48 50.0000000  0 14G 5G10G13G15G18G23G29R 4R 5R19R20E 5
                                E 9E36
  23091579.685   121347096.653    23091578.953    94556181.293    23091578.613  
                                
  23839892.929   125279502.587    23839895.484    97620415.788    23839895.681  
  23839894.626    93552890.656  
  21967019.761   115437468.044                    89951272.156    21967018.242  
                                
  20286268.127   106605105.831    20286266.841    83068925.758    20286266.608  
                                
  20390592.540   107153307.377    20390591.450    83496092.959    20390591.540  
  20390595.775    80017121.990  
  21256345.952   111702885.306    21256345.005    87041230.210    21256345.095  
  21256349.294    83414530.120  
  22155911.988   116430094.987    22155911.487    90724744.157    22155911.291  
                                
  19858401.323   106340885.698    19858400.912    82709597.785    19858400.948  
                                
  19753255.328   105592515.769    19753256.472    82127545.015    19753256.490  
                                
  19767495.868   105742768.497    19767496.761    82244401.356    19767496.422  
                                
  20239744.196   108231032.690    20239747.377    84179702.569    20239746.465  
                                
  23839351.801   125276687.782                                                  
  23839355.321    93550808.106  
  22410308.371   117767001.685                                                  
  22410311.588    87942924.915  
  23721146.999   124655487.168                                                  
  23721151.056    93086908.670  
 21  8 31 18 48 51.0000000  0 15G 5G10G13G15G18G23G29R 4R 5R19R20E 3
                                E 5E 9E36
  23092111.646   121349892.114    23092110.914    94558359.583    23092110.574  
                                
  23839414.539   125276988.771    23839417.095    97618456.975    23839417.291  
  23839416.237    93551013.471  
  21967425.155   115439598.468                    89952932.232    21967423.637  
                                
  20286406.094   106605830.836    20286404.807    83069490.706    20286404.575  
                                
  20390368.766   107152131.470    20390367.694    83495176.668    20390367.766  
  20390372.001    80016243.878  
  21256060.066   111701382.974    21256059.101    87040059.567    21256059.190  
  21256063.390    83413408.255  
  22156513.602   116433256.430    22156513.084    90727207.626    22156512.887  
                                
  19858812.364   106343086.865    19858811.971    82711309.801    19858812.007  
                                
  19752963.777   105590957.355    19752964.921    82126332.905    19752964.957  
                                
  19767841.740   105744618.624    19767842.634    82245840.343    19767842.294  
                                
  20239244.525   108228360.686    20239247.705    84177624.342    20239246.776  
                                
  27619387.756   145140871.932                                                  
  27619392.009   108384432.029  
  23839072.866   125275221.863                                                  
  23839076.368    93549713.429  
  22410551.319   117768278.413                                                  
  22410554.517    87943878.318  
  23721317.791   124656384.590                                                  
  23721321.848    93087578.825  
 21  8 31 18 48 52.0000000  0 15G 5G10G13G15G18G23G29R 4R 5R19R20E 3
                                E 5E 9E36
  23092643.607   121352687.654    23092642.874    94560537.927    23092642.535  
                                
  23838936.221   125274475.140    23838938.777    97616498.302    23838938.973  
  23838937.919    93549136.398  
  21967830.693   115441729.500                    89954592.771    21967829.174  
                                
  20286544.204   106606556.563    20286542.917    83070056.206    20286542.685  
                                
  20390145.082   107150955.972    20390144.010    83494260.694    20390144.081  
  20390148.316    80015366.068  
  21255774.233   111699880.965    21255773.286    87038889.170    21255773.375  
  21255777.575    83412286.625  
  22157115.288   116436418.281    22157114.787    90729671.403    22157114.591  
                                
  19859223.513   106345288.512    19859223.102    82713022.194    19859223.155  
                                
  19752672.369   105589399.570    19752673.513    82125121.297    19752673.549  
                                
  19768187.738   105746469.506    19768188.632    82247279.912    19768188.292  
                                
  20238744.942   108225689.181    20238748.123    84175546.507    20238747.194  
                                
  27618825.793   145137918.809                                                  
  27618830.064   108382226.768  
  23838793.984   125273756.350                                                  
  23838797.486    93548619.057  
  22410794.355   117769555.535                                                  
  22410797.554    87944832.013  
  23721488.619   124657282.366                                                  
  23721492.675    93088249.245  
 21  8 31 18 48 53.0000000  0 15G 5G10G13G15G18G23G29R 4R 5R19R20E 3
                                E 5E 9E36
  23093175.586   121355483.286    23093174.871    94562716.341    23093174.531  
                                
  23838457.903   125271961.585    23838460.459    97614539.686    23838460.655  
  23838459.601    93547259.402  
  21968236.302   115443861.039                    89956253.713    21968234.783  
                                
  20286682.421   106607282.927    20286681.134    83070622.201    20286680.902  
                                
  20389921.451   107149780.807    20389920.379    83493344.982    20389920.451  
  20389924.685    80014488.510  
  21255488.472   111698379.217    21255487.525    87037718.974    21255487.614  
  21255491.813    83411165.186  
  22157717.027   116439580.472    22157716.527    90732135.446    22157716.330  
                                
  19859634.733   106347490.591    19859634.322    82714734.922    19859634.375  
                                
  19752381.069   105587842.373    19752382.212    82123910.146    19752382.248  
                                
  19768533.861   105748321.075    19768534.755    82248720.023    19768534.415  
                                
  20238245.450   108223018.103    20238248.630    84173469.004    20238247.701  
                                
  27618263.830   145134965.744                                                  
  27618268.119   108380021.556  
  23838515.156   125272291.194                                                  
  23838518.676    93547524.943  
  22411037.445   117770832.977                                                  
  22411040.662    87945785.947  
  23721659.519   124658180.446                                                  
  23721663.557    93088919.884  
 21  8 31 18 48 54.0000000  0 15G 5G10G13G15G18G23G29R 4R 5R19R20E 3
                                E 5E 9E36
  23093707.600   121358278.999    23093706.867    94564894.819    23093706.546  
                                
  23837979.657   125269448.263    23837982.212    97612581.252    23837982.409  
  23837981.354    93545382.564  
  21968642.036   115445993.192                    89957915.131    21968640.517  
                                
  20286820.798   106608010.028    20286819.512    83071188.771    20286819.261  
                                
  20389697.910   107148606.062    20389696.820    83492429.599    20389696.909  
  20389701.144    80013611.270  
  21255202.764   111696877.806    21255201.817    87036549.042    21255201.906  
  21255206.105    83410044.002  
  22158318.873   116442743.091    22158318.355    90734599.822    22158318.159  
                                
  19860046.060   106349693.249    19860045.649    82716448.098    19860045.702  
                                
  19752089.911   105586285.884    19752091.036    82122699.544    19752091.072  
                                
  19768880.163   105750173.418    19768881.056    82250160.730    19768880.717  
                                
  20237746.046   108220347.613    20237749.227    84171391.956    20237748.298  
                                
  27617701.867   145132012.797                                                  
  27617706.156   108377816.463  
  23838236.435   125270826.470                                                  
  23838239.955    93546431.155  
  22411280.589   117772110.818                                                  
  22411283.806    87946740.183  
  23721830.507   124659078.889                                                  
  23721834.546    93089590.804  
 21  8 31 18 48 55.0000000  0 15G 5G10G13G15G18G23G29R 4R 5R19R20E 3
                                E 5E 9E36
  23094239.632   121361074.903    23094238.900    94567073.443    23094238.578  
                                
  23837501.428   125266935.180    23837503.966    97610623.011    23837504.162  
  23837503.126    93543505.920  
  21969047.895   115448125.993                    89959577.056    21969046.376  
                                
  20286959.283   106608737.903    20286957.997    83071755.949    20286957.764  
                                
  20389474.458   107147431.799    20389473.368    83491514.586    20389473.457  
  20389477.692    80012734.383  
  21254917.127   111695376.783    21254916.180    87035379.416    21254916.270  
  21254920.469    83408923.104  
  22158920.774   116445906.183    22158920.255    90737064.569    22158920.059  
                                
  19860457.512   106351896.497    19860457.101    82718161.735    19860457.154  
                                
  19751798.878   105584730.162    19751800.022    82121489.538    19751800.057  
                                
  19769226.590   105752026.553    19769227.483    82251602.052    19769227.144  
                                
  20237246.750   108217677.744    20237249.931    84169315.391    20237249.001  
                                
  27617139.994   145129060.138                                                  
  27617144.318   108375611.533  
  23837957.785   125269362.222                                                  
  23837961.305    93545337.723  
  22411523.858   117773389.122                                                  
  22411527.057    87947694.761  
  23722001.550   124659977.775                                                  
  23722005.606    93090262.041  
 21  8 31 18 48 56.0000000  0 15G 5G10G13G15G18G23G29R 4R 5R19R20E 3
                                E 5E 9E36
  23094771.700   121363870.887    23094770.968    94569252.134    23094770.628  
                                
  23837023.235   125264422.271    23837025.773    97608664.914    23837025.987  
  23837024.933    93541629.410  
  21969453.861   115450259.357                    89961239.420    21969452.342  
                                
  20287097.929   106609466.448    20287096.642    83072323.650    20287096.410  
                                
  20389251.077   107146257.905    20389249.987    83490599.866    20389250.076  
  20389254.311    80011857.769  
  21254631.545   111693876.036    21254630.598    87034210.004    21254630.687  
  21254634.886    83407802.425  
  22159522.763   116449069.650    22159522.263    90739529.616    22159522.048  
                                
  19860869.035   106354100.238    19860868.642    82719875.754    19860868.678  
                                
  19751507.952   105583175.124    19751509.096    82120280.061    19751509.132  
                                
  19769573.141   105753880.443    19769574.035    82253043.965    19769573.695  
                                
  20236747.579   108215008.401    20236750.759    84167239.231    20236749.830  
                                
  27616578.102   145126107.540                                                  
  27616582.444   108373406.669  
  23837679.243   125267898.360                                                  
  23837682.763    93544244.575  
  22411767.181   117774667.776                                                  
  22411770.379    87948649.593  
  23722172.663   124660876.972                                                  
  23722176.702    93090933.518  
 21  8 31 18 48 57.0000000  0 15G 5G10G13G15G18G23G29R 4R 5R19R20E 3
                                E 5E 9E36
  23095303.768   121366666.903    23095303.036    94571430.845    23095302.696  
                                
  23836545.060   125261909.477    23836547.615    97606706.899    23836547.812  
  23836546.758    93539752.970  
  21969859.935   115452393.247                    89962902.194    21969858.416  
                                
  20287236.700   106610195.661    20287235.413    83072891.868    20287235.163  
                                
  20389027.750   107145084.360    20389026.660    83489685.415    20389026.749  
  20389030.984    80010981.430  
  21254346.016   111692375.573    21254345.069    87033040.813    21254345.158  
  21254349.357    83406681.952  
  22160124.806   116452233.473    22160124.306    90741994.932    22160124.109  
                                
  19861280.648   106356304.425    19861280.237    82721590.121    19861280.291  
                                
  19751217.170   105581620.718    19751218.313    82119071.081    19751218.349  
                                
  19769919.836   105755734.982    19769920.730    82254486.383    19769920.390  
                                
  20236248.479   108212339.533    20236251.660    84165163.449    20236250.731  
                                
  27616016.247   145123155.006                                                  
  27616020.589   108371201.875  
  23837400.736   125266434.848                                                  
  23837404.256    93543151.697  
  22412010.557   117775946.770                                                  
  22412013.755    87949604.686  
  23722343.831   124661776.483                                                  
  23722347.887    93091605.233  
 21  8 31 18 48 58.0000000  0 15G 5G10G13G15G18G23G29R 4R 5R19R20E 3
                                E 5E 9E36
  23095835.872   121369463.071    23095835.140    94573609.673    23095834.800  
                                
  23836066.921   125259396.855    23836069.476    97604749.021    23836069.673  
  23836068.618    93537876.673  
  21970266.116   115454527.744                    89964565.439    21970264.597  
                                
  20287375.596   106610925.605    20287374.309    83073460.656    20287374.077  
                                
  20388804.512   107143911.241    20388803.422    83488771.299    20388803.512  
  20388807.746    80010105.397  
  21254060.558   111690875.454    21254059.611    87031871.891    21254059.700  
  21254063.899    83405561.730  
  22160726.957   116455397.718    22160726.438    90744460.577    22160726.242  
                                
  19861692.386   106358509.179    19861691.975    82723304.933    19861692.029  
                                
  19750926.530   105580067.017    19750927.674    82117862.647    19750927.709  
                                
  19770266.674   105757590.318    19770267.567    82255929.423    19770267.228  
                                
  20235749.504   108209671.261    20235752.685    84163088.122    20235751.756  
                                
  27615454.409   145120202.681                                                  
  27615458.769   108368997.221  
  23837122.337   125264971.770                                                  
  23837125.857    93542059.141  
  22412254.022   117777226.166                                                  
  22412257.221    87950560.077  
  23722515.070   124662676.355                                                  
  23722519.126    93092277.217  
 21  8 31 18 48 59.0000000  0 15G 5G10G13G15G18G23G29R 4R 5R19R20E 3
                                E 5E 9E36
  23096367.958   121372259.269    23096367.243    94575788.531    23096366.904  
                                
  23835588.799   125256884.389    23835591.355    97602791.258    23835591.551  
  23835590.515    93536000.492  
  21970672.404   115456662.784                    89966229.104    21970670.885  
                                
  20287514.635   106611656.206    20287513.348    83074029.956    20287513.116  
                                
  20388581.346   107142738.474    20388580.256    83487857.452    20388580.345  
  20388584.580    80009229.627  
  21253775.136   111689375.596    21253774.189    87030703.170    21253774.278  
  21253778.460    83404441.706  
  22161329.161   116458562.315    22161328.642    90746926.490    22161328.446  
                                
  19862104.178   106360714.413    19862103.785    82725020.114    19862103.821  
                                
  19750635.998   105578513.948    19750637.141    82116654.702    19750637.177  
                                
  19770613.637   105759446.338    19770614.512    82257372.994    19770614.173  
                                
  20235250.601   108207003.474    20235253.782    84161013.179    20235252.853  
                                
  27614892.589   145117250.412                                                  
  27614896.967   108366792.593  
  23836843.973   125263509.056                                                  
  23836847.511    93540966.853  
  22412497.541   117778505.896                                                  
  22412500.740    87951515.720  
  23722686.380   124663576.556                                                  
  23722690.418    93092949.436  
 21  8 31 18 49  0.0000000  0 15G 5G10G13G15G18G23G29R 4R 5R19R20E 3
                                E 5E 9E36
  23096900.044   121375055.464    23096899.311    94577967.384    23096898.990  
                                
  23835110.714   125254371.982    23835113.269    97600833.549    23835113.466  
  23835112.411    93534124.359  
  21971078.781   115458798.300                    89967893.142    21971077.262  
                                
  20287653.781   106612387.418    20287652.494    83074599.729    20287652.262  
                                
  20388358.233   107141566.004    20388357.143    83486943.841    20388357.233  
  20388361.450    80008354.086  
  21253489.768   111687875.966    21253488.821    87029534.635    21253488.910  
  21253493.091    83403321.860  
  22161931.418   116461727.212    22161930.918    90749392.648    22161930.721  
                                
  19862516.059   106362920.073    19862515.666    82726735.623    19862515.702  
                                
  19750345.572   105576961.444    19750346.716    82115447.195    19750346.734  
                                
  19770960.725   105761303.024    19770961.618    82258817.085    19770961.279  
                                
  20234751.805   108204336.134    20234754.986    84158938.581    20234754.057  
                                
  27614330.787   145114298.148                                                  
  27614335.183   108364588.007  
  23836565.681   125262046.633                                                  
  23836569.201    93539874.788  
  22412741.132   117779785.903                                                  
  22412744.330    87952471.567  
  23722857.726   124664476.980                                                  
  23722861.764    93093621.846  
 21  8 31 18 49  1.0000000  0 15G 5G10G13G15G18G23G29R 4R 5R19R20E 3
                                E 5E 9E36
  23097432.112   121377851.456    23097431.379    94580146.079    23097431.058  
                                
  23834632.610   125251859.519    23834635.165    97598875.788    23834635.362  
  23834634.308    93532248.165  
  21971485.212   115460934.129                    89969557.429    21971483.693  
                                
  20287793.016   106613119.076    20287791.729    83075169.852    20287791.479  
                                
  20388135.139   107140393.680    20388134.066    83486030.342    20388134.138  
  20388138.373    80007478.642  
  21253204.399   111686376.381    21253203.452    87028366.124    21253203.542  
  21253207.741    83402202.038  
  22162533.711   116464892.261    22162533.193    90751858.916    22162532.997  
                                
  19862928.011   106365125.976    19862927.618    82728451.328    19862927.654  
                                
  19750055.201   105575409.340    19750056.344    82114240.005    19750056.380  
                                
  19771307.902   105763160.155    19771308.795    82260261.518    19771308.456  
                                
  20234253.045   108201669.042    20234256.208    84156864.176    20234255.279  
                                
  27613768.949   145111345.770                                                  
  27613773.345   108362383.320  
  23836287.425   125260584.368                                                  
  23836290.945    93538782.830  
  22412984.740   117781066.032                                                  
  22412987.921    87953427.505  
  23723029.090   124665377.518                                                  
  23723033.146    93094294.315  
 21  8 31 18 49  2.0000000  0 15G 5G10G13G15G18G23G29R 4R 5R19R20E 3
                                E 5E 9E36
  23097964.216   121380647.686    23097963.483    94582324.962    23097963.162  
                                
  23834154.560   125249347.341    23834157.098    97596918.249    23834157.312  
  23834156.258    93530372.190  
  21971891.786   115463070.675                    89971222.270    21971890.267  
                                
  20287932.394   106613851.555    20287931.108    83075740.615    20287930.876  
                                
  20387912.151   107139221.872    20387911.079    83485117.247    20387911.150  
  20387915.385    80006603.594  
  21252919.138   111684877.239    21252918.191    87027197.964    21252918.281  
  21252922.462    83401082.550  
  22163136.112   116468057.826    22163135.594    90754325.583    22163135.397  
                                
  19863340.071   106367332.513    19863339.660    82730167.521    19863339.696  
                                
  19749765.008   105573858.069    19749766.152    82113033.463    19749766.169  
                                
  19771655.240   105765018.225    19771656.133    82261706.683    19771655.794  
                                
  20233754.410   108199002.631    20233757.591    84154790.303    20233756.662  
                                
  27613207.183   145108393.689                                                  
  27613211.596   108360178.826  
  23836009.275   125259122.637                                                  
  23836012.813    93537691.275  
  22413228.420   117782346.670                                                  
  22413231.601    87954383.828  
  23723200.543   124666278.523                                                  
  23723204.582    93094967.147  
 21  8 31 18 49  3.0000000  0 15G 5G10G13G15G18G23G29R 4R 5R19R20E 3
                                E 5E 9E36
  23098496.337   121383443.969    23098495.605    94584503.886    23098495.283  
                                
  23833676.528   125246835.297    23833679.065    97594960.813    23833679.262  
  23833678.226    93528496.320  
  21972298.449   115465207.772                    89972887.547    21972296.930  
                                
  20288071.898   106614584.692    20288070.611    83076311.890    20288070.379  
                                
  20387689.235   107138050.429    20387688.145    83484204.432    20387688.234  
  20387692.451    80005728.823  
  21252633.913   111683378.364    21252632.966    87026030.012    21252633.055  
  21252637.237    83399963.265  
  22163738.566   116471223.756    22163738.048    90756792.544    22163737.851  
                                
  19863752.220   106369539.499    19863751.809    82731884.072    19863751.863  
                                
  19749474.940   105572307.418    19749476.066    82111827.406    19749476.102  
                                
  19772002.721   105766876.963    19772003.597    82263152.371    19772003.257  
                                
  20233255.882   108196336.665    20233259.045    84152716.777    20233258.116  
                                
  27612645.416   145105441.681                                                  
  27612649.848   108357974.413  
  23835731.198   125257661.270                                                  
  23835734.718    93536599.999  
  22413472.171   117783627.662                                                  
  22413475.370    87955340.413  
  23723372.068   124667179.862                                                  
  23723376.124    93095640.217  
 21  8 31 18 49  4.0000000  0 15G 5G10G13G15G18G23G29R 4R 5R19R20E 3
                                E 5E 9E36
  23099028.477   121386240.358    23099027.744    94586682.890    23099027.405  
                                
  23833198.550   125244323.451    23833201.105    97593003.527    23833201.301  
  23833200.247    93526620.564  
  21972705.237   115467345.421                    89974553.250    21972703.718  
                                
  20288211.544   106615318.533    20288210.258    83076883.717    20288210.025  
                                
  20387466.390   107136879.378    20387465.300    83483291.925    20387465.390  
  20387469.625    80004854.331  
  21252348.741   111681879.811    21252347.794    87024862.308    21252347.884  
  21252352.083    83398844.214  
  22164341.109   116474390.073    22164340.591    90759259.801    22164340.395  
                                
  19864164.441   106371747.013    19864164.048    82733601.026    19864164.083  
                                
  19749184.979   105570757.472    19749186.105    82110621.892    19749186.141  
                                
  19772350.327   105768736.442    19772351.203    82264598.630    19772350.863  
                                
  20232757.426   108193671.258    20232760.589    84150643.684    20232759.660  
                                
  27612083.668   145102489.781                                                  
  27612088.099   108355770.088  
  23835453.174   125256200.299                                                  
  23835456.694    93535509.012  
  22413716.012   117784909.009                                                  
  22413719.210    87956297.259  
  23723543.646   124668081.521                                                  
  23723547.685    93096313.536  
 21  8 31 18 49  5.0000000  0 15G 5G10G13G15G18G23G29R 4R 5R19R20E 3
                                E 5E 9E36
  23099560.599   121389036.658    23099559.866    94588861.826    23099559.526  
                                
  23832720.553   125241811.577    23832723.109    97591046.219    23832723.305  
  23832722.269    93524744.814  
  21973112.097   115469483.501                    89976219.289    21973110.578  
                                
  20288351.298   106616052.908    20288350.011    83077455.955    20288349.761  
                                
  20387243.582   107135708.551    20387242.509    83482379.592    20387242.581  
  20387246.816    80003980.012  
  21252063.587   111680381.391    21252062.640    87023694.708    21252062.730  
  21252066.929    83397725.264  
  22164943.671   116477556.624    22164943.170    90761727.242    22164942.956  
                                
  19864576.750   106373954.866    19864576.339    82735318.247    19864576.393  
                                
  19748895.126   105569208.015    19748896.252    82109416.757    19748896.287  
                                
  19772698.058   105770596.498    19772698.934    82266045.338    19772698.594  
                                
  20232259.059   108191006.214    20232262.222    84148570.873    20232261.293  
                                
  27611521.937   145099537.861                                                  
  27611526.404   108353565.717  
  23835175.203   125254739.548                                                  
  23835178.723    93534418.196  
  22413959.888   117786190.565                                                  
  22413963.087    87957254.263  
  23723715.260   124668983.365                                                  
  23723719.299    93096986.991  
 21  8 31 18 49  6.0000000  0 15G 5G10G13G15G18G23G29R 4R 5R19R20E 3
                                E 5E 9E36
  23100092.684   121391832.897    23100091.952    94591040.711    23100091.612  
                                
  23832242.539   125239299.731    23832245.076    97589088.933    23832245.273  
  23832244.237    93522869.111  
  21973519.028   115471621.998                    89977885.648    21973517.509  
                                
  20288491.141   106616787.835    20288489.854    83078028.630    20288489.622  
                                
  20387020.844   107134537.961    20387019.754    83481467.447    20387019.843  
  20387024.078    80003105.868  
  21251778.487   111678883.135    21251777.540    87022527.240    21251777.629  
  21251781.811    83396606.441  
  22165546.304   116480723.431    22165545.803    90764194.879    22165545.589  
                                
  19864989.132   106376163.089    19864988.721    82737035.754    19864988.774  
                                
  19748605.362   105567659.051    19748606.488    82108212.014    19748606.523  
                                
  19773045.879   105772457.148    19773046.754    82267492.510    19773046.415  
                                
  20231760.745   108188341.511    20231763.908    84146498.321    20231762.979  
                                
  27610960.171   145096585.879                                                  
  27610964.638   108351361.328  
  23834897.286   125253279.064                                                  
  23834900.806    93533327.573  
  22414203.801   117787472.329                                                  
  22414206.981    87958211.431  
  23723886.928   124669885.406                                                  
  23723890.966    93097660.593  
 21  8 31 18 49  7.0000000  0 15G 5G10G13G15G18G23G29R 4R 5R19R20E 3
                                E 5E 9E36
  23100624.806   121394629.168    23100624.073    94593219.621    23100623.734  
                                
  23831764.578   125236787.984    23831767.116    97587131.728    23831767.312  
  23831766.276    93520993.447  
  21973926.085   115473761.014                    89979552.409    21973924.566  
                                
  20288631.127   106617523.398    20288629.840    83078601.789    20288629.608  
                                
  20386798.143   107133367.721    20386797.070    83480555.569    20386797.160  
  20386801.377    80002231.989  
  21251493.441   111677385.134    21251492.476    87021359.965    21251492.583  
  21251496.764    83395487.801  
  22166148.990   116483890.569    22166148.490    90766662.781    22166148.275  
                                
  19865401.585   106378371.779    19865401.174    82738753.624    19865401.227  
                                
  19748315.705   105566110.705    19748316.849    82107007.743    19748316.884  
                                
  19773393.825   105774318.479    19773394.718    82268940.212    19773394.378  
                                
  20231262.521   108185677.304    20231265.684    84144426.160    20231264.755  
                                
  27610398.440   145093634.035                                                  
  27610402.925   108349157.009  
  23834619.423   125251818.927                                                  
  23834622.943    93532237.213  
  22414447.766   117788754.422                                                  
  22414450.965    87959168.836  
  23724058.614   124670787.731                                                  
  23724062.670    93098334.405  
 21  8 31 18 49  8.0000000  0 15G 5G10G13G15G18G23G29R 4R 5R19R20E 3
                                E 5E 9E36
  23101156.981   121397425.771    23101156.249    94595398.785    23101155.927  
                                
  23831286.689   125234276.642    23831289.227    97585174.842    23831289.423  
  23831288.387    93519118.094  
  21974333.284   115475900.808                    89981219.783    21974331.765  
                                
  20288771.274   106618259.874    20288769.987    83079175.669    20288769.755  
                                
  20386575.566   107132198.085    20386574.494    83479644.164    20386574.565  
  20386578.800    80001358.564  
  21251208.465   111675887.656    21251207.518    87020193.101    21251207.608  
  21251211.789    83394369.559  
  22166751.784   116487058.309    22166751.283    90769131.148    22166751.069  
                                
  19865814.180   106380581.202    19865813.787    82740472.061    19865813.823  
                                
  19748026.227   105564563.267    19748027.353    82105804.177    19748027.388  
                                
  19773741.967   105776180.745    19773742.842    82270388.642    19773742.503  
                                
  20230764.440   108183013.852    20230767.603    84142354.584    20230766.674  
                                
  27609836.781   145090682.500                                                  
  27609841.284   108346952.945  
  23834341.685   125250359.397                                                  
  23834345.205    93531147.304  
  22414691.857   117790037.116                                                  
  22414695.056    87960126.692  
  23724230.442   124671690.631                                                  
  23724234.498    93099008.653  
 21  8 31 18 49  9.0000000  0 15G 5G10G13G15G18G23G29R 4R 5R19R20E 3
                                E 5E 9E36
  23101689.228   121400222.699    23101688.495    94597578.203    23101688.156  
                                
  23830808.872   125231765.707    23830811.409    97583218.270    23830811.606  
  23830810.569    93517243.050  
  21974740.608   115478041.427                    89982887.802    21974739.089  
                                
  20288911.599   106618997.301    20288910.312    83079750.287    20288910.080  
                                
  20386353.115   107131029.089    20386352.042    83478733.258    20386352.114  
  20386356.349    80000485.610  
  21250923.633   111674390.738    21250922.686    87019026.669    21250922.775  
  21250926.957    83393251.724  
  22167354.720   116490226.704    22167354.220    90771600.029    22167354.005  
                                
  19866226.919   106382791.372    19866226.508    82742191.075    19866226.562  
                                
  19747736.910   105563016.747    19747738.053    82104601.331    19747738.089  
                                
  19774090.270   105778043.982    19774091.163    82271837.821    19774090.824  
                                
  20230266.520   108180351.183    20230269.683    84140283.624    20230268.754  
                                
  27609275.158   145087731.325                                                  
  27609279.679   108344749.150  
  23834064.071   125248900.524                                                  
  23834067.592    93530057.884  
  22414936.073   117791320.430                                                  
  22414939.272    87961085.008  
  23724402.378   124672594.122                                                  
  23724406.434    93099683.331  
 21  8 31 18 49 10.0000000  0 15G 5G10G13G15G18G23G29R 4R 5R19R20E 3
                                E 5E 9E36
  23102221.457   121403019.628    23102220.724    94599757.628    23102220.403  
                                
  23830331.072   125229254.861    23830333.609    97581261.781    23830333.806  
  23830332.769    93515368.070  
  21975148.058   115480182.509                    89984556.178    21975146.539  
                                
  20289052.032   106619735.315    20289050.763    83080325.365    20289050.513  
                                
  20386130.717   107129860.369    20386129.627    83477822.567    20386129.716  
  20386133.951    79999612.860  
  21250638.783   111672894.005    21250637.836    87017860.384    21250637.925  
  21250642.107    83392134.034  
  22167957.692   116493395.383    22167957.192    90774069.129    22167956.996  
                                
  19866639.729   106385001.960    19866639.336    82743910.422    19866639.372  
                                
  19747447.699   105561470.804    19747448.843    82103398.931    19747448.879  
                                
  19774438.716   105779907.879    19774439.609    82273287.519    19774439.270  
                                
  20229768.653   108177688.943    20229771.816    84138212.995    20229770.887  
                                
  27608713.552   145084780.182                                                  
  27608718.091   108342545.370  
  23833786.512   125247441.915                                                  
  23833790.032    93528968.665  
  22415180.325   117792604.002                                                  
  22415183.505    87962043.517  
  23724574.349   124673497.835                                                  
  23724578.406    93100358.179  
 21  8 31 18 49 11.0000000  0 15G 5G10G13G15G18G23G29R 4R 5R19R20E 3
                                E 5E 9E36
  23102753.704   121405816.524    23102752.971    94601937.030    23102752.631  
                                
  23829853.290   125226744.065    23829855.809    97579305.321    23829856.024  
  23829854.987    93513493.131  
  21975555.579   115482324.072                    89986224.929    21975554.060  
                                
  20289192.589   106620473.930    20289191.303    83080900.910    20289191.071  
                                
  20385908.372   107128691.956    20385907.282    83476912.116    20385907.372  
  20385911.607    79998740.342  
  21250354.022   111671397.495    21250353.075    87016694.270    21250353.165  
  21250357.346    83391016.510  
  22168560.736   116496564.349    22168560.236    90776538.452    22168560.039  
                                
  19867052.611   106387212.965    19867052.218    82745630.094    19867052.271  
                                
  19747158.614   105559925.446    19747159.758    82102196.988    19747159.794  
                                
  19774787.287   105781772.434    19774788.162    82274737.726    19774787.823  
                                
  20229270.876   108175027.134    20229274.039    84136142.699    20229273.127  
                                
  27608151.965   145081829.075                                                  
  27608156.503   108340341.610  
  23833509.006   125245983.632                                                  
  23833512.544    93527879.688  
  22415424.630   117793887.861                                                  
  22415427.829    87963002.241  
  23724746.374   124674401.804                                                  
  23724750.413    93101033.223  
 21  8 31 18 49 12.0000000  0 15G 5G10G13G15G18G23G29R 4R 5R19R20E 3
                                E 5E 9E36
  23103285.968   121408613.602    23103285.236    94604116.569    23103284.896  
                                
  23829375.544   125224233.507    23829378.063    97577349.041    23829378.260  
  23829377.223    93511618.374  
  21975963.225   115484466.284                    89987894.187    21975961.706  
                                
  20289333.272   106621213.318    20289331.986    83081477.055    20289331.753  
                                
  20385686.135   107127524.005    20385685.045    83476002.024    20385685.135  
  20385689.352    79997868.177  
  21250069.315   111669901.372    21250068.368    87015528.462    21250068.457  
  21250072.639    83389899.276  
  22169163.852   116499733.786    22169163.351    90779008.140    22169163.155  
                                
  19867465.600   106389424.543    19867465.207    82747350.211    19867465.260  
                                
  19746869.672   105558380.822    19746870.798    82100995.614    19746870.834  
                                
  19775135.983   105783637.753    19775136.858    82276188.532    19775136.519  
                                
  20228773.224   108172365.949    20228776.404    84134072.888    20228775.475  
                                
  27607590.413   145078878.159                                                  
  27607594.969   108338138.013  
  23833231.607   125244525.825                                                  
  23833235.127    93526791.067  
  22415669.025   117795172.163                                                  
  22415672.205    87963961.296  
