% program   : rnx2rtkp ver.2.4.3 b31
% inp file  : ngs/21_08_31_20_49_04_mada.obs
% inp file  : ngs/21_08_31_20_49_04_mada_SW.obs
% inp file  : ngs/21_08_31_20_49_04_brdc.nav
% obs start : 2021/08/31 20:00:00.0 GPST (week2173 244800.0s)
% obs end   : 2021/08/31 20:59:59.0 GPST (week2173 248399.0s)
% ref pos   :  1573307.6515  -4576524.1628   4140723.8171
%
% (x/y/z-ecef=WGS84,Q=1:fix,2:float,3:sbas,4:dgps,5:single,6:ppp,ns=# of satellites)
%  GPST              x-ecef(m)      y-ecef(m)      z-ecef(m)   Q  ns   sdx(m)   sdy(m)   sdz(m)  sdxy(m)  sdyz(m)  sdzx(m) age(s)  ratio
2173 247719.000   1551941.1316  -4514373.5966   4215782.8904   2   6   0.4979   1.0280   0.9933  -0.4018  -0.8432   0.3098 -30.00    1.1
2173 247720.000   1551941.1298  -4514373.5922   4215782.8991   2   6   0.3543   0.7309   0.7065  -0.2862  -0.5997   0.2214 -29.00    1.2
2173 247721.000   1551941.1289  -4514373.5880   4215782.8962   2   6   0.2901   0.5984   0.5784  -0.2344  -0.4910   0.1814 -28.00    1.2
2173 247722.000   1551941.1319  -4514373.5918   4215782.8936   2   6   0.2517   0.5191   0.5017  -0.2034  -0.4259   0.1573 -27.00    1.2
2173 247723.000   1551941.1319  -4514373.5896   4215782.8916   2   6   0.2255   0.4649   0.4493  -0.1822  -0.3814   0.1408 -26.00    1.2
2173 247724.000   1551941.1316  -4514373.5836   4215782.8892   2   6   0.2061   0.4248   0.4105  -0.1665  -0.3485   0.1287 -25.00    1.1
2173 247725.000   1551941.1314  -4514373.5859   4215782.8924   2   6   0.1909   0.3936   0.3803  -0.1543  -0.3228   0.1192 -24.00    1.1
2173 247726.000   1551941.1314  -4514373.5817   4215782.8881   2   6   0.1787   0.3684   0.3559  -0.1445  -0.3021   0.1115 -23.00    1.1
2173 247727.000   1551941.1326  -4514373.5760   4215782.8848   2   6   0.1686   0.3475   0.3357  -0.1363  -0.2849   0.1052 -22.00    1.1
2173 247728.000   1551941.1321  -4514373.5782   4215782.8839   2   6   0.1600   0.3297   0.3185  -0.1294  -0.2703   0.0998 -21.00    1.1
2173 247729.000   1551941.1330  -4514373.5815   4215782.8840   2   6   0.1526   0.3144   0.3037  -0.1234  -0.2578   0.0952 -20.00    1.1
2173 247730.000   1551941.1317  -4514373.5739   4215782.8783   2   6   0.1461   0.3010   0.2907  -0.1182  -0.2468   0.0912 -19.00    1.1
2173 247731.000   1551941.1323  -4514373.5709   4215782.8765   2   6   0.1404   0.2892   0.2792  -0.1136  -0.2370   0.0876 -18.00    1.0
2173 247732.000   1551941.1326  -4514373.5700   4215782.8753   2   6   0.1353   0.2786   0.2690  -0.1095  -0.2284   0.0845 -17.00    1.0
2173 247733.000   1551941.1362  -4514373.5714   4215782.8741   2   6   0.1307   0.2691   0.2598  -0.1058  -0.2205   0.0816 -16.00    1.0
2173 247734.000   1551941.1362  -4514373.5658   4215782.8689   2   6   0.1265   0.2605   0.2514  -0.1024  -0.2134   0.0791 -15.00    1.0
2173 247735.000   1551941.1348  -4514373.5607   4215782.8640   2   6   0.1227   0.2526   0.2438  -0.0994  -0.2070   0.0768 -14.00    1.0
2173 247736.000   1551941.1367  -4514373.5595   4215782.8628   2   6   0.1192   0.2453   0.2367  -0.0966  -0.2010   0.0746 -13.00    1.0
2173 247737.000   1551941.1359  -4514373.5589   4215782.8604   2   6   0.1160   0.2387   0.2303  -0.0940  -0.1955   0.0727 -12.00    1.0
2173 247738.000   1551941.1342  -4514373.5529   4215782.8551   2   6   0.1130   0.2325   0.2243  -0.0916  -0.1905   0.0708 -11.00    1.1
2173 247739.000   1551941.1387  -4514373.5514   4215782.8529   2   6   0.1103   0.2268   0.2187  -0.0894  -0.1857   0.0692 -10.00    1.1
2173 247740.000   1551941.1362  -4514373.5492   4215782.8527   2   6   0.1077   0.2214   0.2135  -0.0873  -0.1813   0.0676  -9.00    1.1
2173 247741.000   1551941.1356  -4514373.5473   4215782.8474   2   6   0.1053   0.2164   0.2086  -0.0854  -0.1772   0.0661  -8.00    1.0
2173 247742.000   1551941.1363  -4514373.5399   4215782.8396   2   6   0.1030   0.2118   0.2041  -0.0836  -0.1734   0.0648  -7.00    1.0
2173 247743.000   1551941.1368  -4514373.5376   4215782.8336   2   6   0.1009   0.2074   0.1997  -0.0819  -0.1697   0.0635  -6.00    1.0
2173 247744.000   1551941.1368  -4514373.5324   4215782.8295   2   6   0.0989   0.2032   0.1957  -0.0803  -0.1663   0.0622  -5.00    1.0
2173 247745.000   1551941.1362  -4514373.5284   4215782.8229   2   6   0.0971   0.1993   0.1918  -0.0788  -0.1631   0.0611  -4.00    1.0
2173 247746.000   1551941.1364  -4514373.5206   4215782.8142   2   6   0.0953   0.1956   0.1882  -0.0774  -0.1600   0.0600  -3.00    1.0
2173 247747.000   1551941.1359  -4514373.5164   4215782.8060   2   6   0.0936   0.1922   0.1847  -0.0760  -0.1571   0.0589  -2.00    1.0
2173 247748.000   1551941.1369  -4514373.5117   4215782.7987   2   6   0.0920   0.1889   0.1815  -0.0748  -0.1543   0.0579  -1.00    1.0
2173 247749.000   1551941.1374  -4514373.5039   4215782.7907   2   6   0.0905   0.1858   0.1784  -0.0736  -0.1518   0.0570   0.00    1.0
2173 247750.000   1551941.1386  -4514373.5001   4215782.7809   2   6   0.0891   0.1828   0.1755  -0.0724  -0.1493   0.0561   0.00    1.0
2173 247751.000   1551941.1384  -4514373.5035   4215782.7817   2   6   0.0878   0.1800   0.1727  -0.0713  -0.1469   0.0553   0.00    1.0
2173 247752.000   1551941.1369  -4514373.5007   4215782.7764   2   6   0.0865   0.1773   0.1700  -0.0703  -0.1447   0.0545   0.00    1.0
2173 247753.000   1551941.1359  -4514373.5046   4215782.7786   2   6   0.0852   0.1747   0.1674  -0.0693  -0.1425   0.0537   0.00    1.0
2173 247754.000   1551941.1350  -4514373.4992   4215782.7730   2   6   0.0841   0.1722   0.1649  -0.0683  -0.1404   0.0529   0.00    1.0
2173 247755.000   1551941.1328  -4514373.5030   4215782.7757   2   6   0.0829   0.1698   0.1625  -0.0674  -0.1384   0.0522   0.00    1.0
2173 247756.000   1551941.1318  -4514373.5041   4215782.7753   2   6   0.0818   0.1676   0.1602  -0.0665  -0.1365   0.0515   0.00    1.0
2173 247757.000   1551941.1310  -4514373.5019   4215782.7733   2   6   0.0808   0.1654   0.1580  -0.0657  -0.1346   0.0509   0.00    1.0
2173 247758.000   1551941.1325  -4514373.5102   4215782.7768   2   6   0.0798   0.1632   0.1559  -0.0649  -0.1328   0.0502   0.00    1.0
2173 247759.000   1551941.1288  -4514373.5347   4215782.8120   2   6   0.0788   0.1612   0.1538  -0.0641  -0.1311   0.0496   0.00    1.0
2173 247760.000   1551941.1293  -4514373.5421   4215782.8198   2   6   0.0779   0.1592   0.1518  -0.0634  -0.1294   0.0491   0.00    1.0
2173 247761.000   1551941.1312  -4514373.5455   4215782.8300   2   6   0.0770   0.1573   0.1498  -0.0627  -0.1278   0.0485   0.00    1.0
2173 247762.000   1551941.1307  -4514373.5462   4215782.8324   2   6   0.0761   0.1555   0.1479  -0.0619  -0.1262   0.0479   0.00    1.0
2173 247763.000   1551941.1291  -4514373.5524   4215782.8445   2   6   0.0752   0.1537   0.1460  -0.0613  -0.1247   0.0474   0.00    1.0
2173 247764.000   1551941.1305  -4514373.5586   4215782.8555   2   6   0.0744   0.1520   0.1442  -0.0606  -0.1232   0.0469   0.00    1.0
2173 247765.000   1551941.1297  -4514373.5629   4215782.8645   2   6   0.0737   0.1503   0.1425  -0.0600  -0.1218   0.0464   0.00    1.0
2173 247766.000   1551941.1290  -4514373.5660   4215782.8704   2   6   0.0729   0.1487   0.1408  -0.0594  -0.1203   0.0459   0.00    1.0
2173 247767.000   1551941.1258  -4514373.5649   4215782.8714   2   6   0.0721   0.1471   0.1391  -0.0588  -0.1190   0.0454   0.00    1.0
2173 247768.000   1551941.1307  -4514373.5700   4215782.8766   2   6   0.0714   0.1455   0.1375  -0.0582  -0.1176   0.0450   0.00    1.0
2173 247769.000   1551941.1285  -4514373.5656   4215782.8736   2   6   0.0707   0.1440   0.1359  -0.0576  -0.1163   0.0446   0.00    1.0
2173 247770.000   1551941.1295  -4514373.5710   4215782.8804   2   6   0.0701   0.1426   0.1343  -0.0571  -0.1151   0.0441   0.00    1.0
2173 247771.000   1551941.1285  -4514373.5709   4215782.8851   2   6   0.0694   0.1412   0.1328  -0.0566  -0.1138   0.0437   0.00    1.0
2173 247772.000   1551941.1294  -4514373.5757   4215782.8897   2   6   0.0687   0.1398   0.1313  -0.0560  -0.1126   0.0433   0.00    1.0
2173 247773.000   1551941.1297  -4514373.5797   4215782.8930   2   6   0.0681   0.1385   0.1298  -0.0555  -0.1114   0.0429   0.00    1.0
2173 247774.000   1551941.1282  -4514373.5771   4215782.8981   2   6   0.0675   0.1372   0.1284  -0.0551  -0.1102   0.0425   0.00    1.0
2173 247775.000   1551941.1283  -4514373.5763   4215782.8975   2   6   0.0669   0.1359   0.1270  -0.0546  -0.1091   0.0422   0.00    1.0
2173 247776.000   1551941.1278  -4514373.5692   4215782.8906   2   6   0.0664   0.1346   0.1256  -0.0541  -0.1080   0.0418   0.00    1.0
2173 247777.000   1551941.1288  -4514373.5727   4215782.8913   2   6   0.0658   0.1334   0.1242  -0.0537  -0.1069   0.0415   0.00    1.0
2173 247778.000   1551941.1285  -4514373.5665   4215782.8845   2   6   0.0652   0.1322   0.1229  -0.0532  -0.1058   0.0411   0.00    1.0
2173 247779.000   1551941.1275  -4514373.5623   4215782.8768   2   6   0.0647   0.1311   0.1216  -0.0528  -0.1048   0.0408   0.00    1.0
2173 247780.000   1551941.1295  -4514373.5652   4215782.8782   2   6   0.0642   0.1300   0.1203  -0.0524  -0.1037   0.0405   0.00    1.0
2173 247781.000   1551941.1290  -4514373.5676   4215782.8809   2   6   0.0637   0.1288   0.1190  -0.0520  -0.1027   0.0402   0.00    1.0
2173 247782.000   1551941.1285  -4514373.5772   4215782.8920   2   6   0.0632   0.1278   0.1178  -0.0516  -0.1017   0.0399   0.00    1.0
2173 247783.000   1551941.1286  -4514373.5761   4215782.8952   2   6   0.0627   0.1267   0.1165  -0.0512  -0.1008   0.0396   0.00    1.0
2173 247784.000   1551941.1282  -4514373.5805   4215782.9006   2   6   0.0622   0.1257   0.1153  -0.0508  -0.0998   0.0393   0.00    1.0
2173 247785.000   1551941.1273  -4514373.5775   4215782.8964   2   6   0.0618   0.1246   0.1142  -0.0505  -0.0989   0.0390   0.00    1.0
2173 247786.000   1551941.1277  -4514373.5808   4215782.9010   2   6   0.0613   0.1237   0.1130  -0.0501  -0.0979   0.0387   0.00    1.0
2173 247787.000   1551941.1272  -4514373.5819   4215782.8977   2   6   0.0609   0.1227   0.1118  -0.0498  -0.0970   0.0384   0.00    1.0
2173 247788.000   1551941.1285  -4514373.5827   4215782.8971   2   6   0.0605   0.1217   0.1107  -0.0494  -0.0962   0.0382   0.00    1.0
2173 247789.000   1551941.1268  -4514373.5821   4215782.9011   2   6   0.0600   0.1208   0.1096  -0.0491  -0.0953   0.0379   0.00    1.0
2173 247790.000   1551941.1279  -4514373.5890   4215782.9075   2   6   0.0596   0.1199   0.1085  -0.0488  -0.0944   0.0377   0.00    1.0
2173 247791.000   1551941.1261  -4514373.5834   4215782.9035   2   6   0.0592   0.1190   0.1074  -0.0484  -0.0936   0.0374   0.00    1.0
2173 247792.000   1551941.1250  -4514373.5838   4215782.9047   2   6   0.0588   0.1181   0.1063  -0.0481  -0.0927   0.0372   0.00    1.0
2173 247793.000   1551941.1247  -4514373.5838   4215782.9046   2   6   0.0584   0.1172   0.1053  -0.0478  -0.0919   0.0369   0.00    1.0
2173 247794.000   1551941.1256  -4514373.5803   4215782.9017   2   6   0.0580   0.1164   0.1043  -0.0475  -0.0911   0.0367   0.00    1.0
2173 247795.000   1551941.1246  -4514373.5757   4215782.8923   2   6   0.0577   0.1155   0.1032  -0.0472  -0.0903   0.0365   0.00    1.0
2173 247796.000   1551941.1233  -4514373.5748   4215782.8931   2   6   0.0573   0.1147   0.1022  -0.0469  -0.0895   0.0362   0.00    1.0
2173 247797.000   1551941.1225  -4514373.5659   4215782.8811   2   6   0.0570   0.1139   0.1012  -0.0466  -0.0888   0.0360   0.00    1.0
2173 247798.000   1551941.1189  -4514373.5684   4215782.8800   2   6   0.0566   0.1131   0.1002  -0.0463  -0.0880   0.0358   0.00    1.0
2173 247799.000   1551941.1208  -4514373.5778   4215782.8835   2   6   0.0563   0.1123   0.0993  -0.0461  -0.0873   0.0356   0.00    1.0
2173 247800.000   1551941.1192  -4514373.5784   4215782.8853   2   6   0.0559   0.1116   0.0983  -0.0458  -0.0865   0.0354   0.00    1.0
2173 247801.000   1551941.1191  -4514373.5950   4215782.8975   2   6   0.0556   0.1108   0.0974  -0.0455  -0.0858   0.0352   0.00    1.0
2173 247802.000   1551941.1179  -4514373.6001   4215782.9030   2   6   0.0553   0.1101   0.0965  -0.0452  -0.0851   0.0350   0.00    1.0
2173 247803.000   1551941.1197  -4514373.6108   4215782.9186   2   6   0.0550   0.1093   0.0956  -0.0450  -0.0844   0.0348   0.00    1.0
2173 247804.000   1551941.1183  -4514373.6210   4215782.9337   2   6   0.0546   0.1086   0.0946  -0.0448  -0.0837   0.0346   0.00    1.0
2173 247805.000   1551941.1190  -4514373.6204   4215782.9429   2   6   0.0543   0.1079   0.0938  -0.0445  -0.0830   0.0344   0.00    1.0
2173 247806.000   1551941.1184  -4514373.6198   4215782.9496   2   6   0.0540   0.1072   0.0929  -0.0443  -0.0823   0.0342   0.00    1.0
2173 247807.000   1551941.1173  -4514373.6190   4215782.9572   2   6   0.0537   0.1066   0.0920  -0.0440  -0.0817   0.0340   0.00    1.0
2173 247808.000   1551941.1174  -4514373.6232   4215782.9563   2   6   0.0534   0.1059   0.0912  -0.0438  -0.0810   0.0338   0.00    1.0
2173 247809.000   1551941.1161  -4514373.6177   4215782.9572   2   6   0.0531   0.1052   0.0903  -0.0436  -0.0804   0.0337   0.00    1.0
2173 247810.000   1551941.1171  -4514373.6157   4215782.9542   2   6   0.0528   0.1046   0.0895  -0.0433  -0.0797   0.0335   0.00    1.0
2173 247811.000   1551941.1164  -4514373.6093   4215782.9485   2   6   0.0525   0.1040   0.0886  -0.0431  -0.0791   0.0333   0.00    1.0
2173 247812.000   1551941.1153  -4514373.6063   4215782.9429   2   6   0.0523   0.1033   0.0878  -0.0429  -0.0785   0.0332   0.00    1.0
2173 247813.000   1551941.1135  -4514373.5990   4215782.9333   2   6   0.0520   0.1027   0.0870  -0.0427  -0.0779   0.0330   0.00    1.0
2173 247814.000   1551941.1145  -4514373.5991   4215782.9286   2   6   0.0517   0.1021   0.0862  -0.0425  -0.0773   0.0328   0.00    1.0
2173 247815.000   1551941.1156  -4514373.5993   4215782.9264   2   6   0.0515   0.1015   0.0855  -0.0422  -0.0767   0.0327   0.00    1.0
2173 247816.000   1551941.1146  -4514373.5992   4215782.9279   2   6   0.0512   0.1009   0.0847  -0.0420  -0.0761   0.0325   0.00    1.0
2173 247817.000   1551941.1040  -4514373.5837   4215782.8987   2   6   0.0509   0.1003   0.0839  -0.0418  -0.0756   0.0324   0.00    1.0
2173 247818.000   1551941.1073  -4514373.5700   4215782.8737   2   6   0.0507   0.0997   0.0832  -0.0416  -0.0750   0.0322   0.00    1.0
2173 247819.000   1551941.1020  -4514373.5484   4215782.8407   2   6   0.0504   0.0992   0.0824  -0.0414  -0.0744   0.0320   0.00    1.0
2173 247820.000   1551941.1053  -4514373.5407   4215782.8155   2   6   0.0502   0.0986   0.0817  -0.0412  -0.0739   0.0319   0.00    1.0
2173 247821.000   1551941.1044  -4514373.5276   4215782.7895   2   6   0.0500   0.0981   0.0810  -0.0411  -0.0733   0.0318   0.00    1.0
2173 247822.000   1551941.1065  -4514373.5116   4215782.7629   2   6   0.0497   0.0976   0.0803  -0.0409  -0.0728   0.0316   0.00    1.1
2173 247823.000   1551941.1036  -4514373.4989   4215782.7365   2   6   0.0495   0.0970   0.0796  -0.0406  -0.0723   0.0315   0.00    1.1
2173 247824.000   1551941.1068  -4514373.4844   4215782.7070   2   6   0.0493   0.0965   0.0789  -0.0405  -0.0718   0.0313   0.00    1.1
2173 247825.000   1551941.1074  -4514373.4755   4215782.6884   2   6   0.0490   0.0960   0.0782  -0.0403  -0.0713   0.0312   0.00    1.1
2173 247826.000   1551941.1102  -4514373.4654   4215782.6666   2   6   0.0488   0.0955   0.0775  -0.0401  -0.0708   0.0311   0.00    1.1
2173 247827.000   1551941.1097  -4514373.4531   4215782.6419   2   6   0.0486   0.0950   0.0768  -0.0400  -0.0702   0.0310   0.00    1.1
2173 247828.000   1551941.1107  -4514373.4457   4215782.6242   2   6   0.0484   0.0945   0.0762  -0.0397  -0.0698   0.0308   0.00    1.1
2173 247829.000   1551941.1144  -4514373.4416   4215782.6060   2   6   0.0481   0.0940   0.0755  -0.0396  -0.0693   0.0306   0.00    1.1
2173 247830.000   1551941.1140  -4514373.4270   4215782.5813   2   6   0.0480   0.0935   0.0749  -0.0394  -0.0688   0.0306   0.00    1.1
2173 247831.000   1551941.1113  -4514373.4201   4215782.5675   2   6   0.0477   0.0930   0.0742  -0.0392  -0.0683   0.0304   0.00    1.1
2173 247832.000   1551941.1141  -4514373.4134   4215782.5530   2   6   0.0475   0.0925   0.0736  -0.0391  -0.0679   0.0303   0.00    1.1
2173 247833.000   1551941.1134  -4514373.4035   4215782.5343   2   6   0.0473   0.0921   0.0730  -0.0389  -0.0674   0.0301   0.00    1.1
2173 247834.000   1551941.1136  -4514373.3933   4215782.5129   2   6   0.0471   0.0916   0.0724  -0.0388  -0.0670   0.0301   0.00    1.1
2173 247835.000   1551941.1162  -4514373.3868   4215782.4981   2   6   0.0469   0.0912   0.0718  -0.0386  -0.0665   0.0299   0.00    1.1
2173 247836.000   1551941.1130  -4514373.3720   4215782.4759   2   6   0.0467   0.0907   0.0712  -0.0385  -0.0661   0.0298   0.00    1.1
2173 247837.000   1551941.1134  -4514373.3674   4215782.4626   2   6   0.0465   0.0903   0.0706  -0.0383  -0.0656   0.0297   0.00    1.1
2173 247838.000   1551941.1141  -4514373.3556   4215782.4408   2   6   0.0463   0.0899   0.0701  -0.0382  -0.0652   0.0296   0.00    1.1
2173 247839.000   1551941.1138  -4514373.3449   4215782.4183   2   6   0.0461   0.0894   0.0695  -0.0380  -0.0648   0.0295   0.00    1.1
2173 247840.000   1551941.1144  -4514373.3311   4215782.3994   2   6   0.0460   0.0890   0.0689  -0.0379  -0.0644   0.0294   0.00    1.1
2173 247841.000   1551941.1171  -4514373.3288   4215782.3877   2   6   0.0458   0.0886   0.0683  -0.0377  -0.0640   0.0292   0.00    1.1
2173 247842.000   1551941.1155  -4514373.3161   4215782.3705   2   6   0.0456   0.0882   0.0678  -0.0376  -0.0636   0.0292   0.00    1.1
2173 247843.000   1551941.1154  -4514373.3113   4215782.3552   2   6   0.0454   0.0878   0.0672  -0.0374  -0.0631   0.0290   0.00    1.1
2173 247844.000   1551941.1151  -4514373.3035   4215782.3397   2   6   0.0452   0.0874   0.0667  -0.0373  -0.0628   0.0289   0.00    1.1
2173 247845.000   1551941.1190  -4514373.3006   4215782.3294   2   6   0.0451   0.0870   0.0662  -0.0371  -0.0624   0.0288   0.00    1.1
2173 247846.000   1551941.1175  -4514373.2960   4215782.3212   2   6   0.0449   0.0866   0.0657  -0.0370  -0.0620   0.0287   0.00    1.1
2173 247847.000   1551941.1181  -4514373.2909   4215782.3107   2   6   0.0447   0.0862   0.0651  -0.0369  -0.0616   0.0286   0.00    1.1
2173 247848.000   1551941.1172  -4514373.2840   4215782.3011   2   6   0.0445   0.0858   0.0647  -0.0367  -0.0612   0.0285   0.00    1.1
2173 247849.000   1551941.1188  -4514373.2758   4215782.2878   2   6   0.0444   0.0855   0.0642  -0.0366  -0.0609   0.0284   0.00    1.1
2173 247850.000   1551941.1172  -4514373.2667   4215782.2736   2   6   0.0442   0.0851   0.0637  -0.0364  -0.0605   0.0283   0.00    1.1
2173 247851.000   1551941.1197  -4514373.2636   4215782.2611   2   6   0.0440   0.0847   0.0632  -0.0363  -0.0601   0.0282   0.00    1.1
2173 247852.000   1551941.1204  -4514373.2564   4215782.2508   2   6   0.0439   0.0844   0.0627  -0.0362  -0.0598   0.0281   0.00    1.1
2173 247853.000   1551941.1217  -4514373.2547   4215782.2474   2   6   0.0437   0.0840   0.0622  -0.0361  -0.0594   0.0280   0.00    1.1
2173 247854.000   1551941.1216  -4514373.2522   4215782.2375   2   6   0.0436   0.0836   0.0617  -0.0359  -0.0591   0.0279   0.00    1.1
2173 247855.000   1551941.1207  -4514373.2461   4215782.2292   2   6   0.0434   0.0833   0.0613  -0.0358  -0.0588   0.0278   0.00    1.1
2173 247856.000   1551941.1232  -4514373.2444   4215782.2245   2   6   0.0432   0.0829   0.0608  -0.0357  -0.0584   0.0277   0.00    1.1
2173 247857.000   1551941.1199  -4514373.2406   4215782.2195   2   6   0.0431   0.0826   0.0604  -0.0356  -0.0581   0.0276   0.00    1.1
2173 247858.000   1551941.1227  -4514373.2475   4215782.2209   2   6   0.0429   0.0823   0.0599  -0.0355  -0.0577   0.0275   0.00    1.1
2173 247859.000   1551941.1214  -4514373.2502   4215782.2238   2   6   0.0428   0.0819   0.0595  -0.0353  -0.0574   0.0275   0.00    1.1
2173 247860.000   1551941.1199  -4514373.2599   4215782.2269   2   6   0.0426   0.0816   0.0590  -0.0352  -0.0571   0.0273   0.00    1.1
2173 247861.000   1551941.1219  -4514373.2308   4215782.2463   2   6   0.0425   0.0813   0.0586  -0.0351  -0.0568   0.0273   0.00    1.1
2173 247862.000   1551941.1219  -4514373.2455   4215782.2663   2   6   0.0423   0.0809   0.0582  -0.0350  -0.0565   0.0272   0.00    1.1
2173 247863.000   1551941.1192  -4514373.2507   4215782.2854   2   6   0.0422   0.0806   0.0578  -0.0348  -0.0562   0.0270   0.00    1.1
2173 247864.000   1551941.1189  -4514373.2572   4215782.3024   2   6   0.0421   0.0803   0.0574  -0.0347  -0.0559   0.0270   0.00    1.1
2173 247865.000   1551941.1190  -4514373.2658   4215782.3200   2   6   0.0419   0.0800   0.0569  -0.0346  -0.0555   0.0269   0.00    1.1
2173 247866.000   1551941.1176  -4514373.2673   4215782.3303   2   6   0.0417   0.0797   0.0565  -0.0345  -0.0553   0.0268   0.00    1.2
2173 247867.000   1551941.1229  -4514373.2802   4215782.3482   2   6   0.0416   0.0794   0.0561  -0.0344  -0.0550   0.0267   0.00    1.2
2173 247868.000   1551941.1213  -4514373.2922   4215782.3653   2   6   0.0415   0.0791   0.0557  -0.0343  -0.0547   0.0266   0.00    1.2
2173 247869.000   1551941.1221  -4514373.3019   4215782.3806   2   6   0.0414   0.0788   0.0553  -0.0342  -0.0544   0.0266   0.00    1.2
2173 247870.000   1551941.1217  -4514373.3069   4215782.3961   2   6   0.0412   0.0785   0.0550  -0.0341  -0.0541   0.0265   0.00    1.2
2173 247871.000   1551941.1206  -4514373.3160   4215782.4104   2   6   0.0411   0.0782   0.0546  -0.0340  -0.0538   0.0264   0.00    1.2
2173 247872.000   1551941.1189  -4514373.3226   4215782.4273   2   6   0.0410   0.0779   0.0542  -0.0338  -0.0535   0.0263   0.00    1.2
2173 247873.000   1551941.1176  -4514373.3363   4215782.4465   2   6   0.0408   0.0776   0.0538  -0.0337  -0.0533   0.0262   0.00    1.2
2173 247874.000   1551941.1182  -4514373.3383   4215782.4588   2   6   0.0407   0.0773   0.0535  -0.0336  -0.0530   0.0261   0.00    1.2
2173 247875.000   1551941.1271  -4514373.3501   4215782.4896   2   6   0.0406   0.0771   0.0532  -0.0335  -0.0528   0.0261   0.00    1.2
2173 247876.000   1551941.1296  -4514373.3549   4215782.4946   2   6   0.0404   0.0768   0.0528  -0.0334  -0.0525   0.0260   0.00    1.2
2173 247877.000   1551941.1290  -4514373.3597   4215782.4969   2   6   0.0403   0.0765   0.0524  -0.0333  -0.0522   0.0259   0.00    1.2
2173 247878.000   1551941.1300  -4514373.3577   4215782.4969   2   6   0.0402   0.0762   0.0520  -0.0332  -0.0520   0.0258   0.00    1.2
2173 247879.000   1551941.1306  -4514373.3597   4215782.4985   2   6   0.0401   0.0760   0.0517  -0.0331  -0.0517   0.0258   0.00    1.2
2173 247880.000   1551941.1331  -4514373.3624   4215782.5001   2   6   0.0399   0.0757   0.0514  -0.0330  -0.0515   0.0257   0.00    1.2
2173 247881.000   1551941.1345  -4514373.3664   4215782.5028   2   6   0.0398   0.0754   0.0510  -0.0329  -0.0512   0.0256   0.00    1.2
2173 247882.000   1551941.1349  -4514373.3709   4215782.5083   2   6   0.0397   0.0752   0.0507  -0.0328  -0.0510   0.0255   0.00    1.2
2173 247883.000   1551941.1384  -4514373.3753   4215782.5134   2   6   0.0396   0.0749   0.0504  -0.0327  -0.0507   0.0255   0.00    1.2
2173 247884.000   1551941.1395  -4514373.3814   4215782.5219   2   6   0.0395   0.0747   0.0501  -0.0326  -0.0505   0.0254   0.00    1.2
2173 247885.000   1551941.1379  -4514373.3819   4215782.5275   2   6   0.0393   0.0744   0.0498  -0.0325  -0.0503   0.0253   0.00    1.2
2173 247886.000   1551941.1406  -4514373.3850   4215782.5311   2   6   0.0392   0.0742   0.0494  -0.0324  -0.0500   0.0253   0.00    1.2
2173 247887.000   1551941.1395  -4514373.3869   4215782.5340   2   6   0.0391   0.0739   0.0491  -0.0324  -0.0498   0.0252   0.00    1.3
2173 247888.000   1551941.1391  -4514373.3873   4215782.5350   2   6   0.0390   0.0737   0.0488  -0.0322  -0.0496   0.0251   0.00    1.3
2173 247889.000   1551941.1390  -4514373.3954   4215782.5419   2   6   0.0389   0.0734   0.0485  -0.0321  -0.0493   0.0250   0.00    1.3
2173 247890.000   1551941.1427  -4514373.4017   4215782.5482   2   6   0.0388   0.0732   0.0482  -0.0321  -0.0491   0.0250   0.00    1.3
2173 247891.000   1551941.1400  -4514373.4054   4215782.5521   2   6   0.0386   0.0729   0.0479  -0.0320  -0.0489   0.0249   0.00    1.3
2173 247892.000   1551941.1439  -4514373.4116   4215782.5589   2   6   0.0386   0.0727   0.0476  -0.0319  -0.0487   0.0248   0.00    1.3
2173 247893.000   1551941.1440  -4514373.4129   4215782.5647   2   6   0.0384   0.0725   0.0473  -0.0318  -0.0485   0.0247   0.00    1.3
2173 247894.000   1551941.1445  -4514373.4215   4215782.5733   2   6   0.0383   0.0722   0.0470  -0.0317  -0.0482   0.0247   0.00    1.3
2173 247895.000   1551941.1429  -4514373.4207   4215782.5749   2   6   0.0382   0.0720   0.0468  -0.0316  -0.0480   0.0246   0.00    1.3
2173 247896.000   1551941.1452  -4514373.4206   4215782.5719   2   6   0.0381   0.0718   0.0464  -0.0315  -0.0478   0.0246   0.00    1.3
2173 247897.000   1551941.1428  -4514373.4194   4215782.5706   2   6   0.0380   0.0715   0.0462  -0.0314  -0.0477   0.0245   0.00    1.3
2173 247898.000   1551941.1436  -4514373.4236   4215782.5746   2   6   0.0379   0.0713   0.0459  -0.0313  -0.0474   0.0244   0.00    1.3
2173 247899.000   1551941.1457  -4514373.4251   4215782.5769   2   6   0.0378   0.0711   0.0457  -0.0312  -0.0472   0.0244   0.00    1.3
2173 247900.000   1551941.1471  -4514373.4288   4215782.5809   2   6   0.0377   0.0709   0.0454  -0.0312  -0.0470   0.0243   0.00    1.3
2173 247901.000   1551941.1479  -4514373.4287   4215782.5806   2   6   0.0376   0.0707   0.0451  -0.0311  -0.0468   0.0242   0.00    1.3
2173 247902.000   1551941.1477  -4514373.4292   4215782.5799   2   6   0.0375   0.0704   0.0448  -0.0310  -0.0466   0.0241   0.00    1.3
2173 247903.000   1551941.1499  -4514373.4309   4215782.5819   2   6   0.0374   0.0702   0.0446  -0.0309  -0.0465   0.0241   0.00    1.3
2173 247904.000   1551941.1515  -4514373.4317   4215782.5834   2   6   0.0373   0.0700   0.0443  -0.0309  -0.0463   0.0241   0.00    1.3
2173 247905.000   1551941.1509  -4514373.4321   4215782.5851   2   6   0.0372   0.0698   0.0441  -0.0308  -0.0461   0.0240   0.00    1.3
2173 247906.000   1551941.1530  -4514373.4320   4215782.5871   2   6   0.0371   0.0696   0.0439  -0.0307  -0.0459   0.0239   0.00    1.3
2173 247907.000   1551941.1543  -4514373.4375   4215782.5890   2   6   0.0370   0.0694   0.0436  -0.0306  -0.0457   0.0239   0.00    1.3
2173 247908.000   1551941.1555  -4514373.4415   4215782.5890   2   6   0.0369   0.0692   0.0433  -0.0305  -0.0455   0.0239   0.00    1.3
2173 247909.000   1551941.1551  -4514373.4452   4215782.5922   2   6   0.0368   0.0690   0.0431  -0.0304  -0.0453   0.0237   0.00    1.3
2173 247910.000   1551941.1577  -4514373.4469   4215782.5953   2   6   0.0367   0.0688   0.0429  -0.0304  -0.0451   0.0237   0.00    1.3
2173 247911.000   1551941.1570  -4514373.4503   4215782.5977   2   6   0.0366   0.0686   0.0427  -0.0303  -0.0450   0.0236   0.00    1.3
2173 247912.000   1551941.1564  -4514373.4505   4215782.5978   2   6   0.0365   0.0684   0.0425  -0.0302  -0.0448   0.0236   0.00    1.3
2173 247913.000   1551941.1575  -4514373.4537   4215782.5967   2   6   0.0364   0.0682   0.0422  -0.0302  -0.0446   0.0235   0.00    1.3
2173 247914.000   1551941.1597  -4514373.4527   4215782.5951   2   6   0.0364   0.0680   0.0419  -0.0301  -0.0445   0.0234   0.00    1.3
2173 247915.000   1551941.1599  -4514373.4513   4215782.5942   2   6   0.0362   0.0678   0.0417  -0.0300  -0.0443   0.0234   0.00    1.3
2173 247916.000   1551941.1619  -4514373.4545   4215782.5956   2   6   0.0361   0.0676   0.0415  -0.0299  -0.0441   0.0233   0.00    1.3
2173 247917.000   1551941.1626  -4514373.4523   4215782.5924   2   6   0.0360   0.0674   0.0413  -0.0298  -0.0440   0.0233   0.00    1.3
2173 247918.000   1551941.1648  -4514373.4515   4215782.5881   2   6   0.0359   0.0672   0.0411  -0.0298  -0.0438   0.0232   0.00    1.3
2173 247919.000   1551941.1645  -4514373.4490   4215782.5857   2   6   0.0359   0.0671   0.0408  -0.0297  -0.0436   0.0232   0.00    1.3
2173 247920.000   1551941.1662  -4514373.4536   4215782.5876   2   6   0.0358   0.0669   0.0406  -0.0296  -0.0435   0.0231   0.00    1.3
2173 247921.000   1551941.1654  -4514373.4522   4215782.5855   2   6   0.0357   0.0667   0.0404  -0.0295  -0.0433   0.0230   0.00    1.3
2173 247922.000   1551941.1684  -4514373.4558   4215782.5851   2   6   0.0356   0.0665   0.0402  -0.0295  -0.0431   0.0230   0.00    1.3
2173 247923.000   1551941.1668  -4514373.4519   4215782.5821   2   6   0.0355   0.0663   0.0400  -0.0294  -0.0430   0.0229   0.00    1.3
2173 247924.000   1551941.1666  -4514373.4558   4215782.5791   2   6   0.0354   0.0662   0.0398  -0.0293  -0.0428   0.0229   0.00    1.3
2173 247925.000   1551941.1687  -4514373.4604   4215782.5798   2   6   0.0354   0.0660   0.0396  -0.0292  -0.0427   0.0228   0.00    1.3
2173 247926.000   1551941.1675  -4514373.4522   4215782.5754   2   6   0.0353   0.0658   0.0394  -0.0292  -0.0425   0.0228   0.00    1.2
2173 247927.000   1551941.1614  -4514373.4471   4215782.5726   2   6   0.0352   0.0656   0.0392  -0.0291  -0.0424   0.0228   0.00    1.2
2173 247928.000   1551941.1710  -4514373.4598   4215782.5771   2   6   0.0351   0.0654   0.0390  -0.0290  -0.0422   0.0227   0.00    1.2
2173 247929.000   1551941.1686  -4514373.4573   4215782.5757   2   6   0.0350   0.0653   0.0388  -0.0290  -0.0421   0.0226   0.00    1.2
2173 247930.000   1551941.1687  -4514373.4539   4215782.5724   2   6   0.0349   0.0651   0.0387  -0.0289  -0.0419   0.0226   0.00    1.2
2173 247931.000   1551941.1712  -4514373.4584   4215782.5725   2   6   0.0348   0.0649   0.0385  -0.0288  -0.0418   0.0225   0.00    1.2
2173 247932.000   1551941.1689  -4514373.4518   4215782.5663   2   6   0.0347   0.0648   0.0383  -0.0287  -0.0417   0.0225   0.00    1.2
2173 247933.000   1551941.1705  -4514373.4568   4215782.5672   2   6   0.0346   0.0646   0.0381  -0.0287  -0.0415   0.0224   0.00    1.2
2173 247934.000   1551941.1707  -4514373.4558   4215782.5645   2   6   0.0346   0.0644   0.0379  -0.0286  -0.0414   0.0223   0.00    1.2
2173 247935.000   1551941.1724  -4514373.4567   4215782.5634   2   6   0.0345   0.0643   0.0377  -0.0285  -0.0413   0.0224   0.00    1.2
2173 247936.000   1551941.1723  -4514373.4579   4215782.5644   2   6   0.0344   0.0641   0.0375  -0.0285  -0.0411   0.0223   0.00    1.2
2173 247937.000   1551941.1715  -4514373.4448   4215782.5404   2   6   0.0344   0.0639   0.0374  -0.0284  -0.0410   0.0222   0.00    1.2
2173 247938.000   1551941.1701  -4514373.4486   4215782.5495   2   6   0.0343   0.0638   0.0372  -0.0283  -0.0408   0.0222   0.00    1.2
2173 247939.000   1551941.1701  -4514373.4554   4215782.5608   2   6   0.0342   0.0636   0.0370  -0.0283  -0.0407   0.0221   0.00    1.2
2173 247940.000   1551941.1669  -4514373.4608   4215782.5706   2   6   0.0341   0.0634   0.0369  -0.0282  -0.0406   0.0221   0.00    1.2
2173 247941.000   1551941.1654  -4514373.4631   4215782.5784   2   6   0.0341   0.0633   0.0367  -0.0282  -0.0404   0.0220   0.00    1.2
2173 247942.000   1551941.1644  -4514373.4697   4215782.5846   2   6   0.0340   0.0631   0.0365  -0.0281  -0.0403   0.0220   0.00    1.2
2173 247943.000   1551941.1629  -4514373.4728   4215782.5948   2   6   0.0339   0.0630   0.0364  -0.0280  -0.0402   0.0219   0.00    1.2
2173 247944.000   1551941.1612  -4514373.4755   4215782.6027   2   6   0.0338   0.0628   0.0362  -0.0279  -0.0400   0.0219   0.00    1.2
2173 247945.000   1551941.1587  -4514373.4801   4215782.6118   2   6   0.0338   0.0627   0.0360  -0.0279  -0.0399   0.0218   0.00    1.2
2173 247946.000   1551941.1581  -4514373.4806   4215782.6184   2   6   0.0337   0.0625   0.0359  -0.0278  -0.0398   0.0218   0.00    1.2
2173 247947.000   1551941.1568  -4514373.4828   4215782.6281   2   6   0.0336   0.0624   0.0357  -0.0278  -0.0397   0.0217   0.00    1.3
2173 247948.000   1551941.1541  -4514373.4834   4215782.6324   2   6   0.0335   0.0622   0.0356  -0.0277  -0.0396   0.0217   0.00    1.3
2173 247949.000   1551941.1516  -4514373.4862   4215782.6406   2   6   0.0334   0.0621   0.0354  -0.0276  -0.0394   0.0216   0.00    1.3
2173 247950.000   1551941.1491  -4514373.4831   4215782.6445   2   6   0.0334   0.0619   0.0352  -0.0276  -0.0393   0.0216   0.00    1.3
2173 247951.000   1551941.1467  -4514373.4857   4215782.6497   2   6   0.0333   0.0618   0.0351  -0.0275  -0.0392   0.0215   0.00    1.3
2173 247952.000   1551941.1439  -4514373.4857   4215782.6544   2   6   0.0332   0.0616   0.0350  -0.0275  -0.0391   0.0215   0.00    1.3
2173 247953.000   1551941.1430  -4514373.4879   4215782.6612   2   6   0.0332   0.0615   0.0348  -0.0274  -0.0390   0.0214   0.00    1.3
2173 247954.000   1551941.1426  -4514373.4916   4215782.6689   2   6   0.0331   0.0614   0.0346  -0.0273  -0.0388   0.0214   0.00    1.3
2173 247955.000   1551941.1410  -4514373.4920   4215782.6756   2   6   0.0330   0.0612   0.0345  -0.0273  -0.0387   0.0213   0.00    1.3
2173 247956.000   1551941.1423  -4514373.4927   4215782.6783   2   6   0.0330   0.0611   0.0344  -0.0272  -0.0386   0.0213   0.00    1.3
2173 247957.000   1551941.1416  -4514373.4972   4215782.6835   2   6   0.0329   0.0609   0.0342  -0.0272  -0.0385   0.0213   0.00    1.3
2173 247958.000   1551941.1395  -4514373.4955   4215782.6892   2   6   0.0328   0.0608   0.0341  -0.0271  -0.0384   0.0212   0.00    1.3
2173 247959.000   1551941.1389  -4514373.4954   4215782.6938   2   6   0.0327   0.0606   0.0339  -0.0270  -0.0383   0.0212   0.00    1.3
2173 247960.000   1551941.1372  -4514373.4967   4215782.6995   2   6   0.0327   0.0605   0.0338  -0.0270  -0.0382   0.0211   0.00    1.3
2173 247961.000   1551941.1367  -4514373.4953   4215782.7010   2   6   0.0326   0.0604   0.0336  -0.0270  -0.0380   0.0211   0.00    1.3
2173 247962.000   1551941.1362  -4514373.4959   4215782.7095   2   6   0.0325   0.0602   0.0335  -0.0268  -0.0379   0.0210   0.00    1.3
2173 247963.000   1551941.1314  -4514373.4983   4215782.7153   2   6   0.0325   0.0601   0.0333  -0.0268  -0.0378   0.0210   0.00    1.3
2173 247964.000   1551941.1298  -4514373.5010   4215782.7199   2   6   0.0324   0.0599   0.0332  -0.0268  -0.0377   0.0210   0.00    1.3
2173 247965.000   1551941.1273  -4514373.5019   4215782.7232   2   6   0.0323   0.0598   0.0331  -0.0267  -0.0376   0.0209   0.00    1.3
2173 247966.000   1551941.1239  -4514373.5057   4215782.7301   2   6   0.0322   0.0597   0.0330  -0.0266  -0.0375   0.0209   0.00    1.3
2173 247967.000   1551941.1239  -4514373.5049   4215782.7355   2   6   0.0322   0.0596   0.0328  -0.0266  -0.0374   0.0208   0.00    1.3
2173 247968.000   1551941.1217  -4514373.5083   4215782.7401   2   6   0.0322   0.0594   0.0328  -0.0265  -0.0373   0.0208   0.00    1.3
2173 247969.000   1551941.1210  -4514373.5103   4215782.7455   2   6   0.0321   0.0593   0.0325  -0.0265  -0.0372   0.0208   0.00    1.3
2173 247970.000   1551941.1213  -4514373.5080   4215782.7508   2   6   0.0320   0.0592   0.0325  -0.0264  -0.0371   0.0207   0.00    1.3
2173 247971.000   1551941.1182  -4514373.5085   4215782.7553   2   6   0.0319   0.0590   0.0323  -0.0264  -0.0370   0.0207   0.00    1.3
2173 247972.000   1551941.1164  -4514373.5079   4215782.7571   2   6   0.0319   0.0589   0.0322  -0.0263  -0.0369   0.0206   0.00    1.3
2173 247973.000   1551941.1175  -4514373.5041   4215782.7578   2   6   0.0318   0.0588   0.0321  -0.0263  -0.0368   0.0206   0.00    1.3
2173 247974.000   1551941.1149  -4514373.5042   4215782.7594   2   6   0.0317   0.0586   0.0320  -0.0262  -0.0367   0.0205   0.00    1.3
2173 247975.000   1551941.1139  -4514373.5028   4215782.7647   2   6   0.0317   0.0585   0.0319  -0.0262  -0.0366   0.0205   0.00    1.3
2173 247976.000   1551941.1128  -4514373.4987   4215782.7621   2   6   0.0316   0.0584   0.0317  -0.0261  -0.0365   0.0204   0.00    1.3
2173 247977.000   1551941.1113  -4514373.4931   4215782.7591   2   6   0.0315   0.0583   0.0315  -0.0260  -0.0364   0.0204   0.00    1.3
2173 247978.000   1551941.1105  -4514373.4913   4215782.7638   2   6   0.0315   0.0581   0.0315  -0.0260  -0.0363   0.0203   0.00    1.3
2173 247979.000   1551941.1099  -4514373.4899   4215782.7642   2   6   0.0314   0.0580   0.0314  -0.0260  -0.0362   0.0203   0.00    1.3
2173 247980.000   1551941.1110  -4514373.4872   4215782.7623   2   6   0.0314   0.0579   0.0313  -0.0259  -0.0361   0.0203   0.00    1.3
2173 247981.000   1551941.1069  -4514373.4887   4215782.7627   2   6   0.0313   0.0578   0.0311  -0.0258  -0.0360   0.0203   0.00    1.3
2173 247982.000   1551941.1056  -4514373.4868   4215782.7651   2   6   0.0313   0.0577   0.0310  -0.0258  -0.0359   0.0202   0.00    1.3
2173 247983.000   1551941.1035  -4514373.4858   4215782.7674   2   6   0.0312   0.0575   0.0309  -0.0257  -0.0358   0.0202   0.00    1.3
2173 247984.000   1551941.1037  -4514373.4849   4215782.7647   2   6   0.0312   0.0574   0.0308  -0.0257  -0.0358   0.0201   0.00    1.3
2173 247985.000   1551941.1022  -4514373.4822   4215782.7640   2   6   0.0311   0.0573   0.0307  -0.0257  -0.0356   0.0201   0.00    1.3
2173 247986.000   1551941.1007  -4514373.4778   4215782.7634   2   6   0.0310   0.0572   0.0306  -0.0256  -0.0355   0.0201   0.00    1.3
2173 247987.000   1551941.0947  -4514373.4739   4215782.7655   2   6   0.0310   0.0571   0.0305  -0.0255  -0.0354   0.0200   0.00    1.3
2173 247988.000   1551941.1024  -4514373.4834   4215782.7696   2   6   0.0310   0.0569   0.0304  -0.0255  -0.0354   0.0200   0.00    1.2
2173 247989.000   1551941.0984  -4514373.4824   4215782.7716   2   6   0.0309   0.0568   0.0303  -0.0254  -0.0353   0.0200   0.00    1.2
2173 247990.000   1551941.0985  -4514373.4817   4215782.7724   2   6   0.0308   0.0567   0.0302  -0.0254  -0.0352   0.0199   0.00    1.2
2173 247991.000   1551941.0937  -4514373.4768   4215782.7705   2   6   0.0307   0.0566   0.0300  -0.0253  -0.0351   0.0198   0.00    1.2
2173 247992.000   1551941.0928  -4514373.4751   4215782.7689   2   6   0.0307   0.0565   0.0299  -0.0252  -0.0350   0.0198   0.00    1.2
2173 247993.000   1551941.0891  -4514373.4726   4215782.7735   2   6   0.0306   0.0563   0.0299  -0.0253  -0.0349   0.0198   0.00    1.2
2173 247994.000   1551941.0874  -4514373.4677   4215782.7710   2   6   0.0305   0.0563   0.0298  -0.0252  -0.0349   0.0197   0.00    1.2
2173 247995.000   1551941.0773  -4514373.4389   4215782.7180   2   6   0.0305   0.0562   0.0296  -0.0251  -0.0348   0.0197   0.00    1.2
2173 247996.000   1551941.0763  -4514373.4306   4215782.7139   2   6   0.0304   0.0560   0.0295  -0.0250  -0.0347   0.0197   0.00    1.3
2173 247997.000   1551941.0748  -4514373.4264   4215782.7076   2   6   0.0304   0.0559   0.0294  -0.0250  -0.0346   0.0197   0.00    1.3
2173 247998.000   1551941.0683  -4514373.4160   4215782.7002   2   6   0.0303   0.0558   0.0294  -0.0250  -0.0345   0.0196   0.00    1.3
2173 247999.000   1551941.0664  -4514373.4041   4215782.6920   2   6   0.0302   0.0557   0.0292  -0.0249  -0.0344   0.0196   0.00    1.3
2173 248000.000   1551941.0626  -4514373.3921   4215782.6827   2   6   0.0302   0.0556   0.0292  -0.0249  -0.0343   0.0195   0.00    1.3
2173 248001.000   1551941.0587  -4514373.3853   4215782.6790   2   6   0.0302   0.0555   0.0291  -0.0249  -0.0343   0.0195   0.00    1.3
2173 248002.000   1551941.0559  -4514373.3773   4215782.6710   2   6   0.0301   0.0554   0.0289  -0.0248  -0.0342   0.0195   0.00    1.3
2173 248003.000   1551941.0533  -4514373.3669   4215782.6622   2   6   0.0300   0.0553   0.0289  -0.0247  -0.0341   0.0194   0.00    1.3
2173 248004.000   1551941.0504  -4514373.3578   4215782.6552   2   6   0.0300   0.0552   0.0288  -0.0247  -0.0340   0.0194   0.00    1.3
2173 248005.000   1551941.0471  -4514373.3491   4215782.6480   2   6   0.0300   0.0551   0.0287  -0.0246  -0.0340   0.0193   0.00    1.3
2173 248006.000   1551941.0427  -4514373.3377   4215782.6393   2   6   0.0299   0.0550   0.0287  -0.0246  -0.0339   0.0193   0.00    1.3
2173 248007.000   1551941.0394  -4514373.3317   4215782.6340   2   6   0.0299   0.0548   0.0285  -0.0246  -0.0338   0.0193   0.00    1.3
2173 248008.000   1551941.0354  -4514373.3208   4215782.6247   2   6   0.0298   0.0547   0.0284  -0.0245  -0.0337   0.0193   0.00    1.3
2173 248009.000   1551941.0335  -4514373.3142   4215782.6172   2   6   0.0298   0.0546   0.0283  -0.0244  -0.0336   0.0193   0.00    1.3
2173 248010.000   1551941.0314  -4514373.3112   4215782.6167   2   6   0.0297   0.0545   0.0282  -0.0245  -0.0336   0.0192   0.00    1.3
2173 248011.000   1551941.0287  -4514373.3046   4215782.6116   2   6   0.0297   0.0544   0.0281  -0.0244  -0.0335   0.0192   0.00    1.3
2173 248012.000   1551941.0264  -4514373.2965   4215782.6044   2   6   0.0296   0.0543   0.0281  -0.0243  -0.0334   0.0191   0.00    1.3
2173 248013.000   1551941.0239  -4514373.2880   4215782.5976   2   6   0.0295   0.0542   0.0279  -0.0243  -0.0333   0.0190   0.00    1.3
2173 248014.000   1551941.0192  -4514373.2804   4215782.5900   2   6   0.0295   0.0541   0.0279  -0.0242  -0.0333   0.0191   0.00    1.3
2173 248015.000   1551941.0167  -4514373.2742   4215782.5845   2   6   0.0294   0.0540   0.0278  -0.0242  -0.0332   0.0190   0.00    1.3
2173 248016.000   1551941.0150  -4514373.2666   4215782.5775   2   6   0.0294   0.0539   0.0276  -0.0241  -0.0331   0.0189   0.00    1.3
2173 248017.000   1551941.0098  -4514373.2574   4215782.5707   2   6   0.0293   0.0538   0.0276  -0.0241  -0.0330   0.0189   0.00    1.3
2173 248018.000   1551941.0067  -4514373.2462   4215782.5610   2   6   0.0293   0.0537   0.0275  -0.0240  -0.0330   0.0189   0.00    1.3
2173 248019.000   1551941.0051  -4514373.2375   4215782.5563   2   6   0.0292   0.0536   0.0275  -0.0240  -0.0329   0.0189   0.00    1.3
2173 248020.000   1551941.0018  -4514373.2299   4215782.5498   2   6   0.0292   0.0535   0.0274  -0.0240  -0.0328   0.0189   0.00    1.3
2173 248021.000   1551940.9991  -4514373.2232   4215782.5430   2   6   0.0292   0.0534   0.0273  -0.0240  -0.0328   0.0188   0.00    1.3
2173 248022.000   1551940.9964  -4514373.2115   4215782.5346   2   6   0.0290   0.0534   0.0272  -0.0238  -0.0327   0.0188   0.00    1.3
2173 248023.000   1551940.9929  -4514373.2151   4215782.5347   2   6   0.0291   0.0532   0.0271  -0.0238  -0.0326   0.0188   0.00    1.3
2173 248024.000   1551940.9897  -4514373.2116   4215782.5294   2   6   0.0290   0.0531   0.0271  -0.0238  -0.0326   0.0187   0.00    1.4
2173 248025.000   1551940.9869  -4514373.2101   4215782.5264   2   6   0.0288   0.0531   0.0270  -0.0237  -0.0325   0.0187   0.00    1.4
2173 248026.000   1551940.9814  -4514373.2044   4215782.5221   2   6   0.0289   0.0530   0.0269  -0.0237  -0.0324   0.0186   0.00    1.4
2173 248027.000   1551940.9785  -4514373.2059   4215782.5235   2   6   0.0288   0.0529   0.0268  -0.0236  -0.0323   0.0186   0.00    1.4
2173 248028.000   1551940.9769  -4514373.1998   4215782.5191   2   6   0.0288   0.0528   0.0268  -0.0236  -0.0323   0.0186   0.00    1.4
2173 248029.000   1551940.9511  -4514373.2114   4215782.5354   2   6   0.0287   0.0527   0.0267  -0.0236  -0.0322   0.0185   0.00    1.4
2173 248030.000   1551940.9478  -4514373.2030   4215782.5344   2   6   0.0287   0.0526   0.0266  -0.0235  -0.0321   0.0185   0.00    1.4
2173 248031.000   1551940.9474  -4514373.2008   4215782.5358   2   6   0.0287   0.0525   0.0265  -0.0235  -0.0321   0.0185   0.00    1.4
2173 248032.000   1551940.9443  -4514373.1958   4215782.5329   2   6   0.0286   0.0524   0.0266  -0.0234  -0.0320   0.0185   0.00    1.4
2173 248033.000   1551940.9407  -4514373.1867   4215782.5303   2   6   0.0286   0.0523   0.0264  -0.0234  -0.0320   0.0184   0.00    1.3
2173 248034.000   1551940.9394  -4514373.1829   4215782.5268   2   6   0.0285   0.0522   0.0263  -0.0233  -0.0319   0.0184   0.00    1.3
2173 248035.000   1551940.9396  -4514373.1778   4215782.5259   2   6   0.0285   0.0521   0.0263  -0.0233  -0.0318   0.0184   0.00    1.3
2173 248036.000   1551940.9363  -4514373.1693   4215782.5192   2   6   0.0284   0.0520   0.0262  -0.0233  -0.0317   0.0183   0.00    1.3
2173 248037.000   1551940.9358  -4514373.1674   4215782.5235   2   6   0.0283   0.0519   0.0261  -0.0232  -0.0317   0.0183   0.00    1.3
2173 248038.000   1551940.9335  -4514373.1637   4215782.5205   2   6   0.0283   0.0518   0.0260  -0.0232  -0.0316   0.0183   0.00    1.3
2173 248039.000   1551940.9349  -4514373.1638   4215782.5210   2   6   0.0283   0.0517   0.0260  -0.0232  -0.0316   0.0183   0.00    1.3
2173 248040.000   1551940.9312  -4514373.1620   4215782.5228   2   6   0.0282   0.0517   0.0259  -0.0231  -0.0315   0.0182   0.00    1.3
2173 248041.000   1551940.9273  -4514373.1554   4215782.5193   2   6   0.0282   0.0516   0.0258  -0.0230  -0.0314   0.0182   0.00    1.3
2173 248042.000   1551940.9252  -4514373.1516   4215782.5196   2   6   0.0282   0.0515   0.0257  -0.0230  -0.0313   0.0182   0.00    1.3
2173 248043.000   1551940.9215  -4514373.1443   4215782.5169   2   6   0.0280   0.0514   0.0257  -0.0229  -0.0313   0.0181   0.00    1.3
2173 248044.000   1551940.9204  -4514373.1397   4215782.5156   2   6   0.0280   0.0513   0.0256  -0.0229  -0.0312   0.0181   0.00    1.3
2173 248045.000   1551940.9199  -4514373.1353   4215782.5150   2   6   0.0280   0.0512   0.0255  -0.0229  -0.0312   0.0181   0.00    1.3
2173 248046.000   1551940.9156  -4514373.1270   4215782.5097   2   6   0.0280   0.0511   0.0255  -0.0229  -0.0311   0.0180   0.00    1.3
2173 248047.000   1551940.9145  -4514373.1245   4215782.5084   2   6   0.0279   0.0510   0.0254  -0.0229  -0.0310   0.0180   0.00    1.3
2173 248048.000   1551940.9152  -4514373.1181   4215782.5076   2   6   0.0279   0.0510   0.0253  -0.0228  -0.0310   0.0179   0.00    1.3
2173 248049.000   1551940.9123  -4514373.1132   4215782.5040   2   6   0.0278   0.0509   0.0253  -0.0228  -0.0309   0.0179   0.00    1.3
2173 248050.000   1551940.9122  -4514373.1105   4215782.5008   2   6   0.0278   0.0508   0.0252  -0.0227  -0.0309   0.0179   0.00    1.3
2173 248051.000   1551940.9100  -4514373.1055   4215782.4998   2   6   0.0277   0.0507   0.0252  -0.0226  -0.0308   0.0179   0.00    1.3
2173 248052.000   1551940.9095  -4514373.1025   4215782.4941   2   6   0.0277   0.0506   0.0251  -0.0227  -0.0307   0.0179   0.00    1.3
2173 248053.000   1551940.9062  -4514373.1031   4215782.4996   2   6   0.0277   0.0505   0.0250  -0.0226  -0.0307   0.0178   0.00    1.3
2173 248054.000   1551940.9028  -4514373.0968   4215782.4974   2   6   0.0276   0.0505   0.0249  -0.0225  -0.0306   0.0178   0.00    1.3
2173 248055.000   1551940.8983  -4514373.0925   4215782.5034   2   6   0.0275   0.0504   0.0248  -0.0224  -0.0306   0.0177   0.00    1.3
2173 248056.000   1551940.8948  -4514373.0848   4215782.4965   2   6   0.0275   0.0503   0.0248  -0.0225  -0.0305   0.0177   0.00    1.3
2173 248057.000   1551940.8956  -4514373.0855   4215782.4955   2   6   0.0274   0.0502   0.0247  -0.0224  -0.0304   0.0177   0.00    1.3
2173 248058.000   1551940.8922  -4514373.0779   4215782.4926   2   6   0.0275   0.0501   0.0248  -0.0224  -0.0304   0.0177   0.00    1.3
2173 248059.000   1551940.8927  -4514373.0803   4215782.4948   2   6   0.0274   0.0500   0.0247  -0.0223  -0.0304   0.0176   0.00    1.3
2173 248060.000   1551940.8884  -4514373.0723   4215782.4921   2   6   0.0274   0.0500   0.0246  -0.0223  -0.0303   0.0176   0.00    1.3
2173 248061.000   1551940.8849  -4514373.0690   4215782.4939   2   6   0.0273   0.0499   0.0245  -0.0223  -0.0302   0.0176   0.00    1.3
2173 248062.000   1551940.8844  -4514373.0656   4215782.4927   2   6   0.0273   0.0498   0.0245  -0.0222  -0.0302   0.0176   0.00    1.3
2173 248063.000   1551940.8812  -4514373.0592   4215782.4883   2   6   0.0272   0.0497   0.0244  -0.0222  -0.0301   0.0175   0.00    1.3
2173 248064.000   1551940.8776  -4514373.0529   4215782.4880   2   6   0.0272   0.0496   0.0244  -0.0221  -0.0301   0.0175   0.00    1.3
2173 248065.000   1551940.8748  -4514373.0484   4215782.4862   2   6   0.0271   0.0495   0.0242  -0.0221  -0.0300   0.0174   0.00    1.3
2173 248066.000   1551940.8732  -4514373.0369   4215782.4803   2   6   0.0270   0.0495   0.0243  -0.0221  -0.0300   0.0175   0.00    1.3
2173 248067.000   1551940.8695  -4514373.0309   4215782.4746   2   6   0.0270   0.0494   0.0242  -0.0220  -0.0299   0.0174   0.00    1.3
2173 248068.000   1551940.8699  -4514373.0277   4215782.4778   2   6   0.0270   0.0493   0.0241  -0.0220  -0.0298   0.0174   0.00    1.3
2173 248069.000   1551940.8679  -4514373.0208   4215782.4708   2   6   0.0270   0.0492   0.0240  -0.0220  -0.0298   0.0174   0.00    1.3
2173 248070.000   1551940.8658  -4514373.0157   4215782.4706   2   6   0.0269   0.0492   0.0240  -0.0219  -0.0297   0.0173   0.00    1.3
2173 248071.000   1551940.8620  -4514373.0146   4215782.4730   2   6   0.0269   0.0491   0.0239  -0.0219  -0.0297   0.0173   0.00    1.3
2173 248072.000   1551940.8620  -4514373.0111   4215782.4688   2   6   0.0269   0.0490   0.0239  -0.0219  -0.0296   0.0173   0.00    1.3
2173 248073.000   1551940.8589  -4514373.0051   4215782.4682   2   6   0.0268   0.0489   0.0239  -0.0218  -0.0296   0.0172   0.00    1.3
2173 248074.000   1551940.8558  -4514373.0025   4215782.4642   2   6   0.0268   0.0488   0.0238  -0.0218  -0.0295   0.0173   0.00    1.3
2173 248075.000   1551940.8549  -4514372.9978   4215782.4648   2   6   0.0267   0.0488   0.0237  -0.0218  -0.0295   0.0172   0.00    1.3
2173 248076.000   1551940.8525  -4514372.9945   4215782.4676   2   6   0.0267   0.0487   0.0237  -0.0217  -0.0294   0.0171   0.00    1.3
2173 248077.000   1551940.8487  -4514372.9917   4215782.4651   2   6   0.0267   0.0486   0.0236  -0.0217  -0.0293   0.0172   0.00    1.3
2173 248078.000   1551940.8493  -4514372.9852   4215782.4591   2   6   0.0266   0.0486   0.0236  -0.0216  -0.0293   0.0171   0.00    1.3
2173 248079.000   1551940.8467  -4514372.9850   4215782.4650   2   6   0.0266   0.0485   0.0235  -0.0216  -0.0293   0.0171   0.00    1.3
2173 248080.000   1551940.8464  -4514372.9793   4215782.4571   2   6   0.0266   0.0484   0.0235  -0.0216  -0.0292   0.0171   0.00    1.3
2173 248081.000   1551940.8428  -4514372.9741   4215782.4565   2   6   0.0265   0.0483   0.0234  -0.0215  -0.0292   0.0171   0.00    1.3
2173 248082.000   1551940.8426  -4514372.9696   4215782.4526   2   6   0.0264   0.0482   0.0234  -0.0215  -0.0291   0.0170   0.00    1.3
2173 248083.000   1551940.8402  -4514372.9685   4215782.4517   2   6   0.0265   0.0482   0.0234  -0.0215  -0.0291   0.0170   0.00    1.3
2173 248084.000   1551940.8366  -4514372.9624   4215782.4480   2   6   0.0264   0.0481   0.0232  -0.0214  -0.0290   0.0170   0.00    1.3
2173 248085.000   1551940.8369  -4514372.9623   4215782.4506   2   6   0.0264   0.0480   0.0232  -0.0214  -0.0289   0.0170   0.00    1.3
2173 248086.000   1551940.8366  -4514372.9584   4215782.4510   2   6   0.0263   0.0480   0.0231  -0.0213  -0.0289   0.0169   0.00    1.3
2173 248087.000   1551940.8336  -4514372.9564   4215782.4486   2   6   0.0263   0.0479   0.0231  -0.0213  -0.0289   0.0169   0.00    1.3
2173 248088.000   1551940.8309  -4514372.9527   4215782.4437   2   6   0.0262   0.0478   0.0231  -0.0213  -0.0288   0.0168   0.00    1.3
2173 248089.000   1551940.8297  -4514372.9498   4215782.4437   2   6   0.0262   0.0477   0.0230  -0.0212  -0.0288   0.0168   0.00    1.3
2173 248090.000   1551940.8282  -4514372.9468   4215782.4429   2   6   0.0261   0.0476   0.0230  -0.0212  -0.0287   0.0168   0.00    1.3
2173 248091.000   1551940.8265  -4514372.9420   4215782.4395   2   6   0.0261   0.0476   0.0229  -0.0212  -0.0287   0.0168   0.00    1.3
2173 248092.000   1551940.8232  -4514372.9382   4215782.4386   2   6   0.0261   0.0475   0.0228  -0.0211  -0.0286   0.0167   0.00    1.3
2173 248093.000   1551940.8226  -4514372.9346   4215782.4360   2   6   0.0260   0.0474   0.0228  -0.0211  -0.0285   0.0167   0.00    1.3
2173 248094.000   1551940.8207  -4514372.9320   4215782.4332   2   6   0.0260   0.0473   0.0228  -0.0211  -0.0285   0.0167   0.00    1.3
2173 248095.000   1551940.8187  -4514372.9289   4215782.4330   2   6   0.0260   0.0473   0.0228  -0.0210  -0.0285   0.0167   0.00    1.3
2173 248096.000   1551940.8173  -4514372.9209   4215782.4283   2   6   0.0259   0.0472   0.0227  -0.0210  -0.0284   0.0167   0.00    1.3
2173 248097.000   1551940.8153  -4514372.9165   4215782.4277   2   6   0.0259   0.0471   0.0226  -0.0210  -0.0284   0.0166   0.00    1.3
2173 248098.000   1551940.8133  -4514372.9152   4215782.4274   2   6   0.0258   0.0471   0.0226  -0.0209  -0.0283   0.0166   0.00    1.3
2173 248099.000   1551940.8123  -4514372.9124   4215782.4236   2   6   0.0259   0.0470   0.0225  -0.0209  -0.0283   0.0166   0.00    1.3
2173 248100.000   1551940.8128  -4514372.9096   4215782.4189   2   6   0.0258   0.0470   0.0225  -0.0208  -0.0283   0.0166   0.00    1.3
2173 248101.000   1551940.8107  -4514372.9085   4215782.4191   2   6   0.0258   0.0469   0.0224  -0.0209  -0.0282   0.0165   0.00    1.3
2173 248102.000   1551940.8073  -4514372.9019   4215782.4209   2   6   0.0257   0.0468   0.0224  -0.0208  -0.0282   0.0165   0.00    1.3
2173 248103.000   1551940.8044  -4514372.8948   4215782.4176   2   6   0.0257   0.0467   0.0223  -0.0208  -0.0281   0.0164   0.00    1.3
2173 248104.000   1551940.8046  -4514372.8935   4215782.4151   2   6   0.0257   0.0467   0.0223  -0.0207  -0.0280   0.0164   0.00    1.3
2173 248105.000   1551940.8008  -4514372.8848   4215782.4128   2   6   0.0256   0.0466   0.0223  -0.0207  -0.0280   0.0164   0.00    1.3
2173 248106.000   1551940.7943  -4514372.8790   4215782.4097   2   6   0.0256   0.0465   0.0223  -0.0207  -0.0280   0.0165   0.00    1.3
2173 248107.000   1551940.7904  -4514372.8727   4215782.4110   2   6   0.0255   0.0465   0.0222  -0.0206  -0.0279   0.0163   0.00    1.3
2173 248108.000   1551940.7947  -4514372.8780   4215782.4066   2   6   0.0255   0.0463   0.0222  -0.0207  -0.0279   0.0163   0.00    1.3
2173 248109.000   1551940.7914  -4514372.8725   4215782.4055   2   6   0.0255   0.0463   0.0221  -0.0205  -0.0278   0.0163   0.00    1.3
2173 248110.000   1551940.7890  -4514372.8725   4215782.4058   2   6   0.0254   0.0463   0.0220  -0.0205  -0.0278   0.0163   0.00    1.3
2173 248111.000   1551940.7890  -4514372.8679   4215782.4014   2   6   0.0254   0.0462   0.0220  -0.0205  -0.0277   0.0162   0.00    1.2
2173 248112.000   1551940.7861  -4514372.8640   4215782.4008   2   6   0.0253   0.0461   0.0219  -0.0204  -0.0277   0.0162   0.00    1.2
2173 248113.000   1551940.7841  -4514372.8621   4215782.3989   2   6   0.0253   0.0461   0.0218  -0.0204  -0.0276   0.0162   0.00    1.2
2173 248114.000   1551940.7829  -4514372.8544   4215782.3985   2   6   0.0253   0.0460   0.0219  -0.0204  -0.0276   0.0162   0.00    1.2
2173 248115.000   1551940.7820  -4514372.8540   4215782.3972   2   6   0.0253   0.0459   0.0219  -0.0204  -0.0276   0.0162   0.00    1.2
2173 248116.000   1551940.7938  -4514372.8687   4215782.4075   2   6   0.0252   0.0459   0.0217  -0.0203  -0.0275   0.0162   0.00    1.2
2173 248117.000   1551940.7941  -4514372.8690   4215782.4052   2   6   0.0252   0.0458   0.0218  -0.0203  -0.0275   0.0162   0.00    1.2
2173 248118.000   1551940.7954  -4514372.8694   4215782.4067   2   6   0.0252   0.0457   0.0217  -0.0203  -0.0274   0.0161   0.00    1.2
2173 248119.000   1551940.7943  -4514372.8703   4215782.4104   2   6   0.0251   0.0457   0.0216  -0.0203  -0.0273   0.0161   0.00    1.2
2173 248120.000   1551940.7926  -4514372.8656   4215782.4110   2   6   0.0251   0.0456   0.0217  -0.0202  -0.0274   0.0161   0.00    1.2
2173 248121.000   1551940.7933  -4514372.8652   4215782.4092   2   6   0.0251   0.0455   0.0216  -0.0202  -0.0273   0.0161   0.00    1.2
2173 248122.000   1551940.7921  -4514372.8649   4215782.4063   2   6   0.0250   0.0455   0.0215  -0.0201  -0.0273   0.0159   0.00    1.2
2173 248123.000   1551940.7921  -4514372.8607   4215782.4085   2   6   0.0250   0.0454   0.0215  -0.0201  -0.0272   0.0159   0.00    1.2
2173 248124.000   1551940.7924  -4514372.8593   4215782.4080   2   6   0.0249   0.0453   0.0215  -0.0201  -0.0272   0.0159   0.00    1.2
2173 248125.000   1551940.7922  -4514372.8585   4215782.4085   2   6   0.0249   0.0453   0.0214  -0.0200  -0.0271   0.0159   0.00    1.2
2173 248126.000   1551940.7916  -4514372.8583   4215782.4084   2   6   0.0249   0.0452   0.0214  -0.0201  -0.0271   0.0159   0.00    1.2
2173 248127.000   1551940.7924  -4514372.8600   4215782.4099   2   6   0.0249   0.0451   0.0214  -0.0200  -0.0271   0.0159   0.00    1.2
2173 248128.000   1551940.7894  -4514372.8597   4215782.4082   2   6   0.0248   0.0451   0.0212  -0.0200  -0.0270   0.0159   0.00    1.2
2173 248129.000   1551940.7911  -4514372.8611   4215782.4097   2   6   0.0248   0.0450   0.0213  -0.0199  -0.0270   0.0159   0.00    1.2
2173 248130.000   1551940.7922  -4514372.8625   4215782.4114   2   6   0.0248   0.0450   0.0213  -0.0199  -0.0269   0.0158   0.00    1.2
2173 248131.000   1551940.7905  -4514372.8629   4215782.4111   2   6   0.0248   0.0449   0.0211  -0.0199  -0.0269   0.0158   0.00    1.2
2173 248132.000   1551940.7905  -4514372.8593   4215782.4106   2   6   0.0247   0.0448   0.0212  -0.0198  -0.0269   0.0158   0.00    1.2
2173 248133.000   1551940.7911  -4514372.8589   4215782.4120   2   6   0.0247   0.0448   0.0210  -0.0198  -0.0268   0.0158   0.00    1.2
2173 248134.000   1551940.7941  -4514372.8621   4215782.4110   2   6   0.0246   0.0447   0.0210  -0.0197  -0.0267   0.0157   0.00    1.2
2173 248135.000   1551940.7927  -4514372.8611   4215782.4137   2   6   0.0246   0.0447   0.0210  -0.0197  -0.0267   0.0157   0.00    1.2
2173 248136.000   1551940.7917  -4514372.8589   4215782.4113   2   6   0.0245   0.0446   0.0209  -0.0197  -0.0267   0.0157   0.00    1.2
2173 248137.000   1551940.7912  -4514372.8656   4215782.4152   2   6   0.0245   0.0445   0.0209  -0.0197  -0.0266   0.0157   0.00    1.2
2173 248138.000   1551940.7928  -4514372.8673   4215782.4161   2   6   0.0245   0.0445   0.0209  -0.0196  -0.0266   0.0157   0.00    1.2
2173 248139.000   1551940.7916  -4514372.8651   4215782.4169   2   6   0.0245   0.0444   0.0209  -0.0196  -0.0265   0.0157   0.00    1.2
2173 248140.000   1551940.7902  -4514372.8631   4215782.4167   2   6   0.0244   0.0443   0.0208  -0.0196  -0.0265   0.0156   0.00    1.2
2173 248141.000   1551940.7909  -4514372.8604   4215782.4137   2   6   0.0244   0.0443   0.0208  -0.0195  -0.0265   0.0156   0.00    1.2
2173 248142.000   1551940.7911  -4514372.8615   4215782.4145   2   6   0.0244   0.0442   0.0208  -0.0195  -0.0264   0.0156   0.00    1.2
2173 248143.000   1551940.7898  -4514372.8583   4215782.4153   2   6   0.0243   0.0442   0.0206  -0.0194  -0.0264   0.0155   0.00    1.2
2173 248144.000   1551940.7892  -4514372.8579   4215782.4138   2   6   0.0243   0.0441   0.0207  -0.0195  -0.0263   0.0155   0.00    1.2
2173 248145.000   1551940.7913  -4514372.8624   4215782.4177   2   6   0.0242   0.0441   0.0206  -0.0194  -0.0263   0.0155   0.00    1.2
2173 248146.000   1551940.7904  -4514372.8592   4215782.4171   2   6   0.0243   0.0440   0.0207  -0.0194  -0.0263   0.0155   0.00    1.2
2173 248147.000   1551940.7913  -4514372.8589   4215782.4112   2   6   0.0242   0.0439   0.0206  -0.0194  -0.0262   0.0154   0.00    1.2
2173 248148.000   1551940.7903  -4514372.8594   4215782.4123   2   6   0.0242   0.0439   0.0205  -0.0193  -0.0262   0.0155   0.00    1.2
2173 248149.000   1551940.7910  -4514372.8591   4215782.4074   2   6   0.0242   0.0438   0.0205  -0.0193  -0.0261   0.0154   0.00    1.2
2173 248150.000   1551940.7906  -4514372.8592   4215782.4098   2   6   0.0241   0.0438   0.0205  -0.0193  -0.0261   0.0154   0.00    1.2
2173 248151.000   1551940.7894  -4514372.8560   4215782.4070   2   6   0.0241   0.0437   0.0204  -0.0193  -0.0261   0.0153   0.00    1.2
