% program   : rnx2rtkp ver.2.4.3 b31
% inp file  : ngs/21_08_29_15_04_25_njtw.obs
% inp file  : ngs/21_08_29_15_04_25_njtw_P1.obs
% inp file  : ngs/21_08_29_15_04_25_brdc.nav
% obs start : 2021/08/29 15:00:16.0 GPST (week2173  54016.0s)
% obs end   : 2021/08/29 15:59:59.0 GPST (week2173  57599.0s)
% ref pos   :  1238368.0130  -4739513.0300   4070968.8630
%
% (x/y/z-ecef=WGS84,Q=1:fix,2:float,3:sbas,4:dgps,5:single,6:ppp,ns=# of satellites)
%  GPST              x-ecef(m)      y-ecef(m)      z-ecef(m)   Q  ns   sdx(m)   sdy(m)   sdz(m)  sdxy(m)  sdyz(m)  sdzx(m) age(s)  ratio
2173  54260.000   1271652.5616  -4729242.3599   4072560.1953   2   7   0.5393   0.8928   0.7737  -0.5325  -0.5664   0.0919 -30.00    1.0
2173  54261.000   1271652.6028  -4729242.3949   4072560.2443   2   7   0.3836   0.6348   0.5499  -0.3786  -0.4024   0.0643 -29.00    1.0
2173  54262.000   1271652.6133  -4729242.3722   4072560.2534   2   7   0.3141   0.5197   0.4501  -0.3100  -0.3294   0.0526 -28.00    1.1
2173  54263.000   1271652.5827  -4729242.2962   4072560.2004   2   7   0.2725   0.4508   0.3905  -0.2689  -0.2857   0.0457 -27.00    1.0
2173  54264.000   1271652.5833  -4729242.3020   4072560.2077   2   7   0.2440   0.4038   0.3498  -0.2409  -0.2559   0.0410 -26.00    1.1
2173  54265.000   1271652.5881  -4729242.3306   4072560.2427   2   7   0.2230   0.3690   0.3196  -0.2201  -0.2338   0.0374 -25.00    1.1
2173  54266.000   1271652.5634  -4729242.2685   4072560.2125   2   7   0.2066   0.3418   0.2961  -0.2040  -0.2167   0.0347 -24.00    1.1
2173  54267.000   1271652.5658  -4729242.2569   4072560.2048   2   7   0.1934   0.3199   0.2772  -0.1909  -0.2028   0.0324 -23.00    1.1
2173  54268.000   1271652.5531  -4729242.2205   4072560.1863   2   7   0.1824   0.3018   0.2614  -0.1801  -0.1912   0.0306 -22.00    1.1
2173  54269.000   1271652.5563  -4729242.2127   4072560.1814   2   7   0.1731   0.2864   0.2481  -0.1709  -0.1814   0.0289 -21.00    1.2
2173  54270.000   1271652.5475  -4729242.1861   4072560.1791   2   7   0.1651   0.2731   0.2366  -0.1630  -0.1730   0.0275 -20.00    1.2
2173  54271.000   1271652.5385  -4729242.1627   4072560.1725   2   7   0.1581   0.2614   0.2265  -0.1560  -0.1656   0.0262 -19.00    1.2
2173  54272.000   1271652.5365  -4729242.1708   4072560.1911   2   7   0.1519   0.2512   0.2176  -0.1499  -0.1591   0.0250 -18.00    1.2
2173  54273.000   1271652.5251  -4729242.1565   4072560.1964   2   7   0.1464   0.2420   0.2096  -0.1445  -0.1532   0.0240 -17.00    1.3
2173  54274.000   1271652.5377  -4729242.1713   4072560.2020   2   7   0.1414   0.2337   0.2024  -0.1395  -0.1479   0.0230 -16.00    1.4
2173  54275.000   1271652.5347  -4729242.1599   4072560.1989   2   7   0.1369   0.2262   0.1959  -0.1351  -0.1432   0.0222 -15.00    1.4
2173  54276.000   1271652.5376  -4729242.1574   4072560.1937   2   7   0.1327   0.2194   0.1900  -0.1310  -0.1388   0.0213 -14.00    1.4
2173  54277.000   1271652.5403  -4729242.1573   4072560.1904   2   7   0.1290   0.2131   0.1845  -0.1273  -0.1348   0.0206 -13.00    1.5
2173  54278.000   1271652.5468  -4729242.1458   4072560.1799   2   7   0.1255   0.2073   0.1795  -0.1238  -0.1311   0.0199 -12.00    1.5
2173  54279.000   1271652.5510  -4729242.1479   4072560.1827   2   7   0.1223   0.2020   0.1748  -0.1206  -0.1277   0.0192 -11.00    1.6
2173  54280.000   1271652.5551  -4729242.1494   4072560.1783   2   7   0.1193   0.1970   0.1705  -0.1177  -0.1245   0.0186 -10.00    1.6
2173  54281.000   1271652.5558  -4729242.1510   4072560.1766   2   7   0.1165   0.1924   0.1664  -0.1149  -0.1215   0.0181  -9.00    1.7
2173  54282.000   1271652.5564  -4729242.1523   4072560.1829   2   7   0.1139   0.1880   0.1626  -0.1123  -0.1187   0.0175  -8.00    1.7
2173  54283.000   1271652.5576  -4729242.1544   4072560.1816   2   7   0.1115   0.1840   0.1591  -0.1099  -0.1161   0.0171  -7.00    1.8
2173  54284.000   1271652.5644  -4729242.1594   4072560.1849   2   7   0.1092   0.1802   0.1557  -0.1077  -0.1137   0.0166  -6.00    1.7
2173  54285.000   1271652.5690  -4729242.1534   4072560.1763   2   7   0.1070   0.1766   0.1526  -0.1055  -0.1114   0.0162  -5.00    1.7
2173  54286.000   1271652.5723  -4729242.1503   4072560.1624   2   7   0.1050   0.1732   0.1496  -0.1035  -0.1092   0.0159  -4.00    1.7
2173  54287.000   1271652.5720  -4729242.1420   4072560.1505   2   7   0.1031   0.1700   0.1468  -0.1016  -0.1072   0.0156  -3.00    1.7
2173  54288.000   1271652.5720  -4729242.1475   4072560.1533   2   7   0.1012   0.1670   0.1441  -0.0998  -0.1052   0.0153  -2.00    1.7
2173  54289.000   1271652.5721  -4729242.1437   4072560.1444   2   7   0.0996   0.1642   0.1416  -0.0981  -0.1034   0.0150  -1.00    1.7
2173  54290.000   1271652.5742  -4729242.1474   4072560.1385   2   7   0.0979   0.1615   0.1392  -0.0965  -0.1016   0.0149   0.00    1.7
2173  54291.000   1271652.8817  -4729242.2853   4072559.9463   2   7   0.5971   0.8912   0.9148  -0.5236  -0.5775  -0.3454   0.00    1.0
2173  54292.000   1271652.6694  -4729242.2529   4072560.1408   2   7   0.5400   0.8905   0.7725  -0.5322  -0.5621   0.0743   0.00    1.1
2173  54293.000   1271652.9274  -4729242.4297   4072559.8719   2   7   0.5973   0.8912   0.9149  -0.5237  -0.5773  -0.3458   0.00    1.0
2173  54294.000   1271652.6429  -4729241.9262   4072559.7776   2   7   0.5973   0.8912   0.9149  -0.5237  -0.5772  -0.3460   0.00    1.1
2173  54295.000   1271652.5707  -4729241.6800   4072559.5498   2   7   0.5974   0.8911   0.9150  -0.5237  -0.5771  -0.3462   0.00    1.1
2173  54296.000   1271652.7961  -4729242.0010   4072559.5475   2   7   0.5974   0.8911   0.9150  -0.5238  -0.5770  -0.3463   0.00    1.1
2173  54297.000   1271652.7039  -4729241.8317   4072559.7128   2   7   0.5975   0.8911   0.9151  -0.5238  -0.5769  -0.3465   0.00    1.1
2173  54298.000   1271652.5448  -4729241.5853   4072559.7292   2   7   0.5976   0.8911   0.9151  -0.5238  -0.5768  -0.3467   0.00    1.0
2173  54299.000   1271652.5318  -4729241.7729   4072559.6030   2   7   0.5976   0.8910   0.9152  -0.5238  -0.5767  -0.3469   0.00    1.1
2173  54300.000   1271652.6151  -4729241.9104   4072559.7883   2   7   0.5977   0.8910   0.9152  -0.5239  -0.5766  -0.3471   0.00    1.0
2173  54301.000   1271652.4153  -4729241.7968   4072559.8695   2   7   0.5977   0.8910   0.9153  -0.5239  -0.5765  -0.3473   0.00    1.1
2173  54302.000   1271652.3613  -4729241.7654   4072559.8650   2   7   0.5978   0.8910   0.9154  -0.5239  -0.5763  -0.3475   0.00    1.1
2173  54303.000   1271652.2609  -4729241.4537   4072559.7292   2   7   0.5979   0.8909   0.9154  -0.5239  -0.5762  -0.3477   0.00    1.1
2173  54304.000   1271652.4282  -4729241.8242   4072560.1010   2   7   0.5979   0.8909   0.9155  -0.5240  -0.5761  -0.3479   0.00    1.0
2173  54305.000   1271652.6557  -4729241.9353   4072559.9085   2   7   0.5980   0.8909   0.9155  -0.5240  -0.5760  -0.3480   0.00    1.0
2173  54306.000   1271652.7779  -4729241.9089   4072559.6768   2   7   0.5980   0.8908   0.9156  -0.5240  -0.5759  -0.3482   0.00    1.0
2173  54307.000   1271652.8475  -4729241.8596   4072559.2769   2   7   0.5981   0.8908   0.9156  -0.5241  -0.5758  -0.3484   0.00    1.0
2173  54308.000   1271652.9716  -4729242.1911   4072559.9265   2   7   0.5982   0.8908   0.9157  -0.5241  -0.5757  -0.3486   0.00    1.0
2173  54309.000   1271652.9267  -4729241.8686   4072559.4831   2   7   0.5982   0.8908   0.9157  -0.5241  -0.5756  -0.3488   0.00    1.1
2173  54310.000   1271652.8191  -4729242.0357   4072559.5365   2   7   0.5983   0.8907   0.9158  -0.5241  -0.5755  -0.3490   0.00    1.2
2173  54311.000   1271652.5775  -4729241.8501   4072559.8038   2   7   0.5983   0.8907   0.9158  -0.5242  -0.5754  -0.3492   0.00    1.2
2173  54312.000   1271652.6487  -4729241.7783   4072559.8995   2   7   0.5984   0.8907   0.9159  -0.5242  -0.5753  -0.3494   0.00    1.0
2173  54313.000   1271652.7985  -4729241.9637   4072560.0540   2   7   0.5985   0.8907   0.9160  -0.5242  -0.5752  -0.3496   0.00    1.0
2173  54314.000   1271652.9626  -4729242.5257   4072560.3908   2   7   0.5985   0.8906   0.9160  -0.5242  -0.5750  -0.3497   0.00    1.2
2173  54315.000   1271652.8346  -4729242.1272   4072560.4985   2   7   0.5986   0.8906   0.9161  -0.5243  -0.5749  -0.3499   0.00    1.1
2173  54316.000   1271652.9510  -4729242.2248   4072560.4978   2   7   0.5986   0.8906   0.9161  -0.5243  -0.5748  -0.3501   0.00    1.1
2173  54317.000   1271653.0233  -4729242.7294   4072560.7835   2   7   0.5987   0.8906   0.9162  -0.5243  -0.5747  -0.3503   0.00    1.1
2173  54318.000   1271652.8510  -4729242.4427   4072560.7885   2   7   0.5988   0.8905   0.9162  -0.5244  -0.5746  -0.3505   0.00    1.3
2173  54319.000   1271652.9464  -4729242.5506   4072560.7550   2   7   0.4254   0.6323   0.6501  -0.3723  -0.4075  -0.2493   1.00    1.2
