% program   : rnx2rtkp ver.2.4.3 b31
% inp file  : ngs/21_09_01_06_41_38_sacr.obs
% inp file  : ngs/21_09_01_06_41_38_sacr_VZ.obs
% inp file  : ngs/21_09_01_06_41_38_brdc.nav
% obs start : 2021/09/01 06:00:00.0 GPST (week2173 280800.0s)
% obs end   : 2021/09/01 06:59:59.0 GPST (week2173 284399.0s)
% ref pos   : -2599095.5841  -4260310.4995   3958450.7559
%
% (x/y/z-ecef=WGS84,Q=1:fix,2:float,3:sbas,4:dgps,5:single,6:ppp,ns=# of satellites)
%  GPST              x-ecef(m)      y-ecef(m)      z-ecef(m)   Q  ns   sdx(m)   sdy(m)   sdz(m)  sdxy(m)  sdyz(m)  sdzx(m) age(s)  ratio
2173 283276.000  -2595053.8013  -4259027.4338   3962484.9038   2   5   0.6791   1.5127   1.2620   0.6691  -1.2604  -0.5602 -30.00    1.8
2173 283277.000  -2595053.8376  -4259027.5357   3962484.9393   2   5   0.4840   1.0774   0.8976   0.4782  -0.8972  -0.3999 -29.00    1.8
2173 283278.000  -2595053.8712  -4259027.6791   3962485.1411   2   5   0.3965   0.8824   0.7349   0.3918  -0.7347  -0.3276 -28.00    1.7
2173 283279.000  -2595053.8599  -4259027.7332   3962485.2450   2   5   0.3440   0.7657   0.6375   0.3399  -0.6375  -0.2842 -27.00    1.6
2173 283280.000  -2595053.9209  -4259027.7439   3962485.2497   2   5   0.3081   0.6858   0.5709   0.3043  -0.5709  -0.2544 -26.00    1.8
2173 283281.000  -2595053.9424  -4259027.7675   3962485.3272   2   5   0.2815   0.6267   0.5217   0.2780  -0.5217  -0.2324 -25.00    1.8
2173 283282.000  -2595053.9185  -4259027.7557   3962485.3386   2   5   0.2608   0.5807   0.4833   0.2574  -0.4833  -0.2153 -24.00    1.8
2173 283283.000  -2595053.8985  -4259027.6698   3962485.2963   2   5   0.2441   0.5435   0.4523   0.2409  -0.4524  -0.2014 -23.00    1.8
2173 283284.000  -2595053.8876  -4259027.6798   3962485.2578   2   5   0.2303   0.5127   0.4266   0.2271  -0.4266  -0.1899 -22.00    1.9
2173 283285.000  -2595053.8989  -4259027.6722   3962485.2162   2   5   0.2185   0.4865   0.4047   0.2155  -0.4048  -0.1802 -21.00    2.1
2173 283286.000  -2595053.9016  -4259027.7442   3962485.2700   2   5   0.2084   0.4640   0.3859   0.2055  -0.3860  -0.1718 -20.00    2.0
2173 283287.000  -2595053.9145  -4259027.7280   3962485.2565   2   5   0.1995   0.4443   0.3694   0.1967  -0.3696  -0.1645 -19.00    2.1
2173 283288.000  -2595053.9168  -4259027.7411   3962485.2772   2   5   0.1917   0.4269   0.3548   0.1890  -0.3550  -0.1580 -18.00    2.1
2173 283289.000  -2595053.9212  -4259027.7202   3962485.2548   2   5   0.1847   0.4113   0.3418   0.1821  -0.3420  -0.1522 -17.00    2.3
2173 283290.000  -2595053.9228  -4259027.7215   3962485.2346   2   5   0.1784   0.3973   0.3300   0.1760  -0.3303  -0.1470 -16.00    2.4
2173 283291.000  -2595053.9255  -4259027.7219   3962485.2208   2   5   0.1727   0.3846   0.3194   0.1704  -0.3197  -0.1423 -15.00    2.6
2173 283292.000  -2595053.9286  -4259027.6888   3962485.1913   2   5   0.1675   0.3730   0.3097   0.1653  -0.3101  -0.1380 -14.00    2.8
2173 283293.000  -2595053.9384  -4259027.7156   3962485.1939   2   5   0.1628   0.3624   0.3008   0.1606  -0.3012  -0.1341 -13.00    2.9
2173 283294.000  -2595054.1983  -4259027.1351   3962484.5601   1   5   0.0145   0.0356   0.0325   0.0082  -0.0307  -0.0091 -12.00    3.2
2173 283295.000  -2595054.1990  -4259027.1344   3962484.5622   1   5   0.0136   0.0333   0.0303   0.0081  -0.0287  -0.0087 -11.00    3.4
2173 283296.000  -2595054.1976  -4259027.1367   3962484.5594   1   5   0.0127   0.0311   0.0281   0.0080  -0.0267  -0.0083 -10.00    3.5
2173 283297.000  -2595054.1974  -4259027.1369   3962484.5608   1   5   0.0119   0.0289   0.0260   0.0079  -0.0247  -0.0080  -9.00    3.8
2173 283298.000  -2595054.1960  -4259027.1399   3962484.5626   1   5   0.0110   0.0267   0.0239   0.0078  -0.0229  -0.0076  -8.00    4.3
2173 283299.000  -2595054.1925  -4259027.1376   3962484.5605   1   5   0.0103   0.0247   0.0218   0.0077  -0.0210  -0.0073  -7.00    4.8
2173 283300.000  -2595054.1914  -4259027.1419   3962484.5644   1   5   0.0095   0.0227   0.0199   0.0076  -0.0193  -0.0070  -6.00    5.6
2173 283301.000  -2595054.1910  -4259027.1384   3962484.5584   1   5   0.0088   0.0209   0.0181   0.0075  -0.0176  -0.0067  -5.00    6.3
2173 283302.000  -2595054.1884  -4259027.1361   3962484.5565   1   5   0.0082   0.0192   0.0164   0.0073  -0.0161  -0.0064  -4.00    7.0
2173 283303.000  -2595054.1873  -4259027.1399   3962484.5611   1   5   0.0077   0.0177   0.0149   0.0071  -0.0148  -0.0061  -3.00    7.6
2173 283304.000  -2595054.1851  -4259027.1403   3962484.5604   1   5   0.0073   0.0164   0.0137   0.0070  -0.0137  -0.0060  -2.00    7.6
2173 283305.000  -2595054.1843  -4259027.1373   3962484.5555   1   5   0.0071   0.0156   0.0129   0.0069  -0.0130  -0.0058  -1.00    7.6
2173 283306.000  -2595054.1844  -4259027.1342   3962484.5556   1   5   0.0068   0.0154   0.0127   0.0068  -0.0127  -0.0056   0.00    7.5
2173 283307.000  -2595054.1860  -4259027.1344   3962484.5564   1   5   0.0069   0.0154   0.0126   0.0068  -0.0128  -0.0058   0.00    7.5
2173 283308.000  -2595054.1858  -4259027.1357   3962484.5551   1   5   0.0069   0.0153   0.0126   0.0068  -0.0128  -0.0057   0.00    7.2
2173 283309.000  -2595054.1849  -4259027.1378   3962484.5572   1   5   0.0069   0.0154   0.0127   0.0069  -0.0127  -0.0057   0.00    6.7
2173 283310.000  -2595054.1863  -4259027.1330   3962484.5536   1   5   0.0069   0.0154   0.0127   0.0068  -0.0127  -0.0057   0.00    6.2
2173 283311.000  -2595054.1881  -4259027.1291   3962484.5516   1   5   0.0069   0.0154   0.0127   0.0068  -0.0127  -0.0057   0.00    5.9
2173 283312.000  -2595054.1870  -4259027.1305   3962484.5512   1   5   0.0069   0.0153   0.0126   0.0069  -0.0127  -0.0057   0.00    5.8
2173 283313.000  -2595054.1835  -4259027.1313   3962484.5543   1   5   0.0069   0.0153   0.0126   0.0068  -0.0128  -0.0057   0.00    5.5
2173 283314.000  -2595054.1879  -4259027.1398   3962484.5581   1   5   0.0069   0.0154   0.0127   0.0069  -0.0127  -0.0057   0.00    5.4
2173 283315.000  -2595054.1861  -4259027.1385   3962484.5556   1   5   0.0068   0.0154   0.0126   0.0069  -0.0127  -0.0057   0.00    5.3
2173 283316.000  -2595054.1876  -4259027.1347   3962484.5538   1   5   0.0068   0.0153   0.0126   0.0069  -0.0127  -0.0057   0.00    5.3
2173 283317.000  -2595054.1869  -4259027.1390   3962484.5551   1   5   0.0069   0.0153   0.0126   0.0068  -0.0128  -0.0057   0.00    5.2
2173 283318.000  -2595054.1889  -4259027.1408   3962484.5580   1   5   0.0068   0.0154   0.0128   0.0068  -0.0127  -0.0056   0.00    5.2
2173 283319.000  -2595054.1789  -4259027.1345   3962484.5503   1   5   0.0069   0.0154   0.0127   0.0068  -0.0127  -0.0057   0.00    5.2
2173 283320.000  -2595054.1840  -4259027.1393   3962484.5541   1   5   0.0069   0.0154   0.0127   0.0069  -0.0127  -0.0058   0.00    5.2
2173 283321.000  -2595054.1863  -4259027.1399   3962484.5552   1   5   0.0069   0.0154   0.0127   0.0069  -0.0127  -0.0057   0.00    5.1
2173 283322.000  -2595054.1809  -4259027.1372   3962484.5549   1   5   0.0068   0.0154   0.0126   0.0069  -0.0127  -0.0057   0.00    5.1
2173 283323.000  -2595054.1838  -4259027.1382   3962484.5578   1   5   0.0069   0.0154   0.0127   0.0068  -0.0127  -0.0057   0.00    5.0
2173 283324.000  -2595054.1881  -4259027.1453   3962484.5598   1   5   0.0069   0.0154   0.0127   0.0069  -0.0127  -0.0057   0.00    5.0
2173 283325.000  -2595054.1842  -4259027.1378   3962484.5530   1   5   0.0070   0.0154   0.0126   0.0068  -0.0127  -0.0057   0.00    4.9
2173 283326.000  -2595054.1871  -4259027.1444   3962484.5587   1   5   0.0069   0.0154   0.0127   0.0068  -0.0127  -0.0057   0.00    4.8
2173 283327.000  -2595054.1897  -4259027.1405   3962484.5579   1   5   0.0069   0.0154   0.0127   0.0069  -0.0127  -0.0058   0.00    4.8
2173 283328.000  -2595054.1815  -4259027.1323   3962484.5501   1   5   0.0068   0.0154   0.0127   0.0068  -0.0127  -0.0057   0.00    4.7
2173 283329.000  -2595054.0909  -4259027.5446   3962485.0187   2   6   0.0937   0.2046   0.1681   0.0917  -0.1685  -0.0761   0.00    1.1
2173 283330.000  -2595054.0868  -4259027.5388   3962485.0123   2   6   0.0928   0.1993   0.1640   0.0904  -0.1638  -0.0750   0.00    1.1
2173 283331.000  -2595054.0857  -4259027.5152   3962485.0026   2   6   0.0920   0.1945   0.1604   0.0893  -0.1595  -0.0740   0.00    1.1
2173 283332.000  -2595054.0896  -4259027.5089   3962484.9987   2   6   0.0911   0.1901   0.1570   0.0882  -0.1556  -0.0731   0.00    1.2
2173 283333.000  -2595054.0856  -4259027.4929   3962484.9882   2   6   0.0903   0.1860   0.1539   0.0872  -0.1519  -0.0722   0.00    1.2
2173 283334.000  -2595054.0886  -4259027.4696   3962484.9714   2   6   0.0895   0.1822   0.1510   0.0862  -0.1485  -0.0713   0.00    1.2
2173 283335.000  -2595054.0870  -4259027.4601   3962484.9649   2   6   0.0888   0.1787   0.1482   0.0852  -0.1453  -0.0705   0.00    1.2
2173 283336.000  -2595054.0860  -4259027.4403   3962484.9504   2   6   0.0881   0.1753   0.1456   0.0843  -0.1424  -0.0697   0.00    1.2
2173 283337.000  -2595054.0832  -4259027.4381   3962484.9554   2   6   0.0873   0.1722   0.1432   0.0835  -0.1395  -0.0690   0.00    1.2
2173 283338.000  -2595054.0873  -4259027.4337   3962484.9536   2   6   0.0866   0.1692   0.1408   0.0826  -0.1369  -0.0682   0.00    1.2
2173 283339.000  -2595054.0892  -4259027.4373   3962484.9575   2   6   0.0859   0.1664   0.1386   0.0818  -0.1344  -0.0675   0.00    1.2
2173 283340.000  -2595054.0886  -4259027.4280   3962484.9560   2   6   0.0853   0.1638   0.1365   0.0810  -0.1320  -0.0669   0.00    1.1
2173 283341.000  -2595054.0883  -4259027.4352   3962484.9648   2   6   0.0846   0.1612   0.1346   0.0803  -0.1298  -0.0662   0.00    1.1
2173 283342.000  -2595054.0937  -4259027.4362   3962484.9655   2   6   0.0840   0.1588   0.1326   0.0795  -0.1276  -0.0656   0.00    1.1
2173 283343.000  -2595054.0936  -4259027.4308   3962484.9581   2   6   0.0833   0.1565   0.1308   0.0788  -0.1256  -0.0650   0.00    1.1
2173 283344.000  -2595054.0916  -4259027.4238   3962484.9607   2   6   0.0827   0.1543   0.1291   0.0782  -0.1237  -0.0644   0.00    1.1
2173 283345.000  -2595054.0908  -4259027.4170   3962484.9593   2   6   0.0821   0.1522   0.1274   0.0775  -0.1218  -0.0638   0.00    1.1
2173 283346.000  -2595054.0896  -4259027.4045   3962484.9527   2   6   0.0816   0.1502   0.1258   0.0768  -0.1200  -0.0632   0.00    1.1
2173 283347.000  -2595054.0895  -4259027.3955   3962484.9480   2   6   0.0810   0.1483   0.1242   0.0762  -0.1183  -0.0627   0.00    1.1
2173 283348.000  -2595054.0822  -4259027.3767   3962484.9344   2   6   0.0804   0.1465   0.1227   0.0756  -0.1167  -0.0621   1.00    1.1
2173 283349.000  -2595054.0797  -4259027.3644   3962484.9234   2   6   0.0799   0.1447   0.1213   0.0750  -0.1151  -0.0616   0.00    1.1
2173 283350.000  -2595054.0786  -4259027.3553   3962484.9203   2   6   0.0793   0.1430   0.1199   0.0744  -0.1136  -0.0611   0.00    1.1
2173 283351.000  -2595054.0750  -4259027.3508   3962484.9159   2   6   0.0788   0.1413   0.1186   0.0738  -0.1122  -0.0606   0.00    1.1
2173 283352.000  -2595054.0795  -4259027.3447   3962484.9130   2   6   0.0783   0.1398   0.1173   0.0733  -0.1108  -0.0601   0.00    1.1
2173 283353.000  -2595054.0787  -4259027.3340   3962484.9058   2   6   0.0778   0.1382   0.1160   0.0727  -0.1094  -0.0597   0.00    1.1
2173 283354.000  -2595054.0689  -4259027.3251   3962484.8973   2   6   0.0773   0.1367   0.1148   0.0722  -0.1081  -0.0592   0.00    1.1
2173 283355.000  -2595054.0709  -4259027.3185   3962484.8906   2   6   0.0768   0.1353   0.1136   0.0717  -0.1068  -0.0588   0.00    1.1
2173 283356.000  -2595054.0730  -4259027.3152   3962484.8882   2   6   0.0763   0.1339   0.1124   0.0712  -0.1056  -0.0583   0.00    1.1
2173 283357.000  -2595054.0677  -4259027.3051   3962484.8838   2   6   0.0758   0.1326   0.1113   0.0707  -0.1044  -0.0579   0.00    1.1
2173 283358.000  -2595054.0688  -4259027.2967   3962484.8721   2   6   0.0754   0.1313   0.1102   0.0702  -0.1033  -0.0575   0.00    1.1
2173 283359.000  -2595054.0654  -4259027.2939   3962484.8792   2   6   0.0749   0.1300   0.1092   0.0697  -0.1022  -0.0570   0.00    1.1
2173 283360.000  -2595054.0661  -4259027.2870   3962484.8748   2   6   0.0745   0.1288   0.1081   0.0693  -0.1011  -0.0566   0.00    1.1
2173 283361.000  -2595054.0665  -4259027.2879   3962484.8778   2   6   0.0740   0.1276   0.1071   0.0688  -0.1001  -0.0562   0.00    1.1
2173 283362.000  -2595054.0702  -4259027.2873   3962484.8790   2   6   0.0736   0.1265   0.1061   0.0684  -0.0990  -0.0558   0.00    1.1
2173 283363.000  -2595054.0729  -4259027.2842   3962484.8766   2   6   0.0732   0.1253   0.1052   0.0679  -0.0981  -0.0555   0.00    1.1
2173 283364.000  -2595054.0714  -4259027.2825   3962484.8749   2   6   0.0728   0.1242   0.1043   0.0675  -0.0971  -0.0551   0.00    1.1
2173 283365.000  -2595054.0723  -4259027.2878   3962484.8805   2   6   0.0724   0.1232   0.1033   0.0671  -0.0962  -0.0547   0.00    1.1
2173 283366.000  -2595054.0751  -4259027.2803   3962484.8764   2   6   0.0719   0.1222   0.1025   0.0667  -0.0953  -0.0544   0.00    1.1
2173 283367.000  -2595054.0745  -4259027.2728   3962484.8711   2   6   0.0715   0.1211   0.1016   0.0663  -0.0944  -0.0540   0.00    1.1
2173 283368.000  -2595054.0780  -4259027.2774   3962484.8778   2   6   0.0712   0.1202   0.1007   0.0659  -0.0935  -0.0536   0.00    1.1
2173 283369.000  -2595054.0851  -4259027.2828   3962484.8753   2   6   0.0708   0.1192   0.0999   0.0655  -0.0927  -0.0533   0.00    1.0
2173 283370.000  -2595054.0861  -4259027.2850   3962484.8765   2   6   0.0704   0.1183   0.0991   0.0651  -0.0919  -0.0529   0.00    1.0
2173 283371.000  -2595054.0873  -4259027.2758   3962484.8644   2   6   0.0700   0.1174   0.0983   0.0647  -0.0911  -0.0526   0.00    1.0
2173 283372.000  -2595054.0874  -4259027.2713   3962484.8617   2   6   0.0697   0.1165   0.0975   0.0643  -0.0903  -0.0523   0.00    1.0
2173 283373.000  -2595054.0925  -4259027.2683   3962484.8602   2   6   0.0693   0.1156   0.0967   0.0640  -0.0895  -0.0520   0.00    1.0
2173 283374.000  -2595054.0916  -4259027.2655   3962484.8546   2   6   0.0690   0.1147   0.0960   0.0636  -0.0888  -0.0517   0.00    1.0
2173 283375.000  -2595054.0963  -4259027.2639   3962484.8560   2   6   0.0686   0.1139   0.0953   0.0633  -0.0880  -0.0513   0.00    1.0
2173 283376.000  -2595054.0974  -4259027.2533   3962484.8446   2   6   0.0682   0.1131   0.0945   0.0629  -0.0873  -0.0510   0.00    1.0
2173 283377.000  -2595054.0948  -4259027.2482   3962484.8425   2   6   0.0679   0.1123   0.0938   0.0626  -0.0866  -0.0507   0.00    1.0
2173 283378.000  -2595054.0920  -4259027.2479   3962484.8419   2   6   0.0676   0.1115   0.0931   0.0623  -0.0859  -0.0504   0.00    1.1
2173 283379.000  -2595054.0930  -4259027.2390   3962484.8337   2   6   0.0672   0.1108   0.0924   0.0619  -0.0853  -0.0501   0.00    1.1
2173 283380.000  -2595054.0965  -4259027.2427   3962484.8367   2   6   0.0669   0.1100   0.0918   0.0616  -0.0846  -0.0498   0.00    1.1
2173 283381.000  -2595054.0959  -4259027.2326   3962484.8265   2   6   0.0666   0.1093   0.0911   0.0613  -0.0840  -0.0495   0.00    1.1
2173 283382.000  -2595054.0926  -4259027.2303   3962484.8247   2   6   0.0663   0.1086   0.0905   0.0609  -0.0833  -0.0492   0.00    1.1
2173 283383.000  -2595054.0970  -4259027.2284   3962484.8187   2   6   0.0660   0.1079   0.0898   0.0606  -0.0827  -0.0490   0.00    1.1
2173 283384.000  -2595054.0990  -4259027.2338   3962484.8233   2   6   0.0657   0.1072   0.0892   0.0603  -0.0821  -0.0487   0.00    1.1
2173 283385.000  -2595054.0994  -4259027.2331   3962484.8257   2   6   0.0654   0.1065   0.0886   0.0600  -0.0815  -0.0484   0.00    1.1
2173 283386.000  -2595054.1006  -4259027.2270   3962484.8238   2   6   0.0651   0.1058   0.0880   0.0597  -0.0810  -0.0482   0.00    1.1
2173 283387.000  -2595054.1038  -4259027.2292   3962484.8259   2   6   0.0648   0.1052   0.0874   0.0594  -0.0804  -0.0479   0.00    1.1
2173 283388.000  -2595054.1079  -4259027.2331   3962484.8296   2   6   0.0645   0.1046   0.0868   0.0591  -0.0798  -0.0476   0.00    1.1
2173 283389.000  -2595054.1081  -4259027.2275   3962484.8206   2   6   0.0642   0.1039   0.0862   0.0589  -0.0793  -0.0474   0.00    1.1
2173 283390.000  -2595054.1074  -4259027.2297   3962484.8201   2   6   0.0639   0.1033   0.0856   0.0586  -0.0787  -0.0471   0.00    1.2
2173 283391.000  -2595054.1135  -4259027.2279   3962484.8174   2   6   0.0636   0.1027   0.0850   0.0583  -0.0782  -0.0469   0.00    1.2
2173 283392.000  -2595054.1080  -4259027.2215   3962484.8099   2   6   0.0633   0.1021   0.0845   0.0580  -0.0777  -0.0466   0.00    1.2
2173 283393.000  -2595054.1116  -4259027.2178   3962484.8038   2   6   0.0631   0.1015   0.0839   0.0578  -0.0772  -0.0464   0.00    1.2
2173 283394.000  -2595054.1080  -4259027.2135   3962484.8005   2   6   0.0628   0.1010   0.0834   0.0575  -0.0767  -0.0461   0.00    1.2
2173 283395.000  -2595054.1084  -4259027.2113   3962484.7983   2   6   0.0625   0.1004   0.0829   0.0572  -0.0762  -0.0459   0.00    1.2
2173 283396.000  -2595054.1100  -4259027.2132   3962484.7972   2   6   0.0623   0.0998   0.0824   0.0570  -0.0757  -0.0456   0.00    1.2
2173 283397.000  -2595054.1074  -4259027.2114   3962484.7973   2   6   0.0620   0.0993   0.0819   0.0567  -0.0752  -0.0454   0.00    1.2
2173 283398.000  -2595054.1043  -4259027.2069   3962484.7900   2   6   0.0618   0.0988   0.0813   0.0564  -0.0747  -0.0452   0.00    1.2
2173 283399.000  -2595054.1053  -4259027.2075   3962484.7932   2   6   0.0615   0.0982   0.0808   0.0562  -0.0743  -0.0449   0.00    1.2
2173 283400.000  -2595054.1087  -4259027.2096   3962484.7871   2   6   0.0613   0.0977   0.0803   0.0560  -0.0738  -0.0447   0.00    1.2
2173 283401.000  -2595054.1110  -4259027.2054   3962484.7782   2   6   0.0610   0.0972   0.0798   0.0557  -0.0734  -0.0445   0.00    1.2
2173 283402.000  -2595054.1046  -4259027.1967   3962484.7674   2   6   0.0608   0.0967   0.0794   0.0555  -0.0729  -0.0443   0.00    1.2
2173 283403.000  -2595054.1054  -4259027.1936   3962484.7634   2   6   0.0605   0.0962   0.0789   0.0552  -0.0725  -0.0441   0.00    1.2
2173 283404.000  -2595054.1008  -4259027.1826   3962484.7476   2   6   0.0603   0.0957   0.0784   0.0550  -0.0721  -0.0438   0.00    1.2
2173 283405.000  -2595054.1037  -4259027.1863   3962484.7495   2   6   0.0600   0.0952   0.0780   0.0548  -0.0716  -0.0436   0.00    1.2
2173 283406.000  -2595054.1031  -4259027.1834   3962484.7446   2   6   0.0598   0.0948   0.0775   0.0545  -0.0712  -0.0434   0.00    1.2
2173 283407.000  -2595054.1088  -4259027.1884   3962484.7461   2   6   0.0596   0.0943   0.0770   0.0543  -0.0708  -0.0432   0.00    1.2
2173 283408.000  -2595054.1047  -4259027.1840   3962484.7403   2   6   0.0593   0.0938   0.0766   0.0541  -0.0704  -0.0430   0.00    1.2
2173 283409.000  -2595054.1138  -4259027.1868   3962484.7404   2   6   0.0591   0.0934   0.0762   0.0539  -0.0700  -0.0428   0.00    1.2
2173 283410.000  -2595054.1194  -4259027.1908   3962484.7400   2   6   0.0589   0.0930   0.0757   0.0536  -0.0696  -0.0426   0.00    1.2
2173 283411.000  -2595054.1224  -4259027.1857   3962484.7349   2   6   0.0587   0.0925   0.0753   0.0534  -0.0692  -0.0424   0.00    1.2
2173 283412.000  -2595054.1239  -4259027.1851   3962484.7319   2   6   0.0585   0.0921   0.0749   0.0532  -0.0689  -0.0422   0.00    1.2
2173 283413.000  -2595054.1206  -4259027.1838   3962484.7283   2   6   0.0582   0.0917   0.0744   0.0530  -0.0685  -0.0420   0.00    1.2
2173 283414.000  -2595054.1238  -4259027.1875   3962484.7277   2   6   0.0580   0.0912   0.0740   0.0528  -0.0681  -0.0418   0.00    1.2
2173 283415.000  -2595054.1194  -4259027.1823   3962484.7228   2   6   0.0578   0.0908   0.0736   0.0526  -0.0677  -0.0416   0.00    1.2
2173 283416.000  -2595054.1221  -4259027.1880   3962484.7238   2   6   0.0576   0.0904   0.0732   0.0524  -0.0674  -0.0414   0.00    1.2
2173 283417.000  -2595054.1245  -4259027.1899   3962484.7270   2   6   0.0574   0.0900   0.0728   0.0522  -0.0670  -0.0412   0.00    1.2
2173 283418.000  -2595054.1274  -4259027.1922   3962484.7282   2   6   0.0572   0.0896   0.0724   0.0520  -0.0667  -0.0410   0.00    1.1
2173 283419.000  -2595054.1299  -4259027.1915   3962484.7272   2   6   0.0570   0.0892   0.0720   0.0518  -0.0663  -0.0408   0.00    1.1
2173 283420.000  -2595054.1330  -4259027.1949   3962484.7292   2   6   0.0568   0.0888   0.0716   0.0516  -0.0660  -0.0406   0.00    1.1
2173 283421.000  -2595054.1329  -4259027.1937   3962484.7260   2   6   0.0566   0.0884   0.0712   0.0514  -0.0656  -0.0405   0.00    1.1
2173 283422.000  -2595054.1350  -4259027.1944   3962484.7221   2   6   0.0564   0.0881   0.0708   0.0512  -0.0653  -0.0403   0.00    1.1
2173 283423.000  -2595054.1397  -4259027.1951   3962484.7236   2   6   0.0562   0.0877   0.0704   0.0510  -0.0650  -0.0401   0.00    1.1
2173 283424.000  -2595054.1375  -4259027.1878   3962484.7204   2   6   0.0560   0.0873   0.0701   0.0508  -0.0647  -0.0399   0.00    1.1
2173 283425.000  -2595054.1355  -4259027.1850   3962484.7191   2   6   0.0558   0.0870   0.0697   0.0506  -0.0643  -0.0398   0.00    1.1
2173 283426.000  -2595054.1366  -4259027.1882   3962484.7245   2   6   0.0556   0.0866   0.0693   0.0504  -0.0640  -0.0396   0.00    1.1
2173 283427.000  -2595054.1388  -4259027.1864   3962484.7218   2   6   0.0554   0.0863   0.0690   0.0502  -0.0637  -0.0394   0.00    1.1
2173 283428.000  -2595054.1443  -4259027.1891   3962484.7239   2   6   0.0552   0.0859   0.0686   0.0501  -0.0634  -0.0393   0.00    1.1
2173 283429.000  -2595054.1471  -4259027.1927   3962484.7259   2   6   0.0551   0.0855   0.0683   0.0499  -0.0631  -0.0391   0.00    1.1
2173 283430.000  -2595054.1501  -4259027.1952   3962484.7300   2   6   0.0549   0.0852   0.0679   0.0497  -0.0628  -0.0389   0.00    1.1
2173 283431.000  -2595054.1536  -4259027.1927   3962484.7285   2   6   0.0547   0.0849   0.0675   0.0495  -0.0625  -0.0387   0.00    1.1
2173 283432.000  -2595054.1580  -4259027.1915   3962484.7331   2   6   0.0545   0.0845   0.0672   0.0494  -0.0622  -0.0386   0.00    1.1
2173 283433.000  -2595054.1577  -4259027.1938   3962484.7322   2   6   0.0543   0.0842   0.0668   0.0492  -0.0619  -0.0384   0.00    1.1
2173 283434.000  -2595054.1566  -4259027.1965   3962484.7375   2   6   0.0542   0.0839   0.0665   0.0490  -0.0616  -0.0383   0.00    1.1
2173 283435.000  -2595054.1615  -4259027.2012   3962484.7435   2   6   0.0540   0.0836   0.0662   0.0489  -0.0613  -0.0381   0.00    1.1
2173 283436.000  -2595054.1654  -4259027.2013   3962484.7455   2   6   0.0538   0.0832   0.0659   0.0487  -0.0610  -0.0379   0.00    1.1
2173 283437.000  -2595054.1676  -4259027.2020   3962484.7466   2   6   0.0536   0.0829   0.0655   0.0485  -0.0608  -0.0378   0.00    1.1
2173 283438.000  -2595054.1719  -4259027.2079   3962484.7492   2   6   0.0535   0.0826   0.0652   0.0484  -0.0605  -0.0376   0.00    1.1
2173 283439.000  -2595054.1823  -4259027.2104   3962484.7504   2   6   0.0533   0.0823   0.0649   0.0482  -0.0602  -0.0375   0.00    1.1
2173 283440.000  -2595054.1827  -4259027.2081   3962484.7505   2   6   0.0531   0.0820   0.0646   0.0481  -0.0599  -0.0373   0.00    1.1
2173 283441.000  -2595054.1853  -4259027.2063   3962484.7461   2   6   0.0530   0.0817   0.0643   0.0479  -0.0597  -0.0372   0.00    1.1
2173 283442.000  -2595054.1862  -4259027.2060   3962484.7486   2   6   0.0528   0.0814   0.0640   0.0477  -0.0594  -0.0370   0.00    1.1
2173 283443.000  -2595054.1907  -4259027.2067   3962484.7469   2   6   0.0527   0.0811   0.0636   0.0476  -0.0592  -0.0368   0.00    1.1
2173 283444.000  -2595054.1877  -4259027.2031   3962484.7497   2   6   0.0525   0.0808   0.0633   0.0474  -0.0589  -0.0367   0.00    1.1
2173 283445.000  -2595054.1899  -4259027.2071   3962484.7513   2   6   0.0523   0.0805   0.0630   0.0473  -0.0586  -0.0366   0.00    1.1
2173 283446.000  -2595054.1911  -4259027.2069   3962484.7526   2   6   0.0522   0.0802   0.0627   0.0471  -0.0584  -0.0364   0.00    1.1
2173 283447.000  -2595054.1907  -4259027.1996   3962484.7484   2   6   0.0520   0.0800   0.0624   0.0470  -0.0581  -0.0363   0.00    1.1
2173 283448.000  -2595054.1954  -4259027.2049   3962484.7513   2   6   0.0519   0.0797   0.0621   0.0468  -0.0579  -0.0361   0.00    1.1
2173 283449.000  -2595054.2010  -4259027.2099   3962484.7513   2   6   0.0517   0.0794   0.0618   0.0467  -0.0576  -0.0360   0.00    1.1
2173 283450.000  -2595054.2020  -4259027.2097   3962484.7498   2   6   0.0516   0.0791   0.0615   0.0465  -0.0574  -0.0358   0.00    1.1
2173 283451.000  -2595054.2002  -4259027.2065   3962484.7476   2   6   0.0514   0.0789   0.0612   0.0464  -0.0572  -0.0357   0.00    1.1
2173 283452.000  -2595054.1981  -4259027.2020   3962484.7423   2   6   0.0513   0.0786   0.0609   0.0462  -0.0569  -0.0356   0.00    1.1
2173 283453.000  -2595054.2006  -4259027.2034   3962484.7428   2   6   0.0511   0.0783   0.0607   0.0461  -0.0567  -0.0354   0.00    1.1
2173 283454.000  -2595054.2002  -4259027.2031   3962484.7468   2   6   0.0510   0.0781   0.0604   0.0459  -0.0565  -0.0353   0.00    1.1
2173 283455.000  -2595054.1995  -4259027.2019   3962484.7455   2   6   0.0508   0.0778   0.0601   0.0458  -0.0562  -0.0352   0.00    1.1
2173 283456.000  -2595054.2011  -4259027.1997   3962484.7448   2   6   0.0507   0.0775   0.0598   0.0457  -0.0560  -0.0350   0.00    1.1
2173 283457.000  -2595054.1974  -4259027.1953   3962484.7417   2   6   0.0505   0.0773   0.0596   0.0455  -0.0558  -0.0349   0.00    1.1
2173 283458.000  -2595054.2004  -4259027.1960   3962484.7439   2   6   0.0504   0.0770   0.0593   0.0454  -0.0556  -0.0348   0.00    1.1
2173 283459.000  -2595054.2028  -4259027.1927   3962484.7401   2   6   0.0503   0.0768   0.0590   0.0453  -0.0553  -0.0346   0.00    1.1
2173 283460.000  -2595054.2030  -4259027.1945   3962484.7378   2   6   0.0501   0.0765   0.0587   0.0451  -0.0551  -0.0345   0.00    1.1
2173 283461.000  -2595054.2010  -4259027.1899   3962484.7339   2   6   0.0500   0.0763   0.0585   0.0450  -0.0549  -0.0344   0.00    1.1
2173 283462.000  -2595054.2015  -4259027.1897   3962484.7383   2   6   0.0498   0.0761   0.0582   0.0448  -0.0547  -0.0342   0.00    1.1
2173 283463.000  -2595054.2026  -4259027.1930   3962484.7374   2   6   0.0497   0.0758   0.0580   0.0447  -0.0545  -0.0341   0.00    1.1
2173 283464.000  -2595054.1996  -4259027.1885   3962484.7348   2   6   0.0496   0.0756   0.0577   0.0446  -0.0543  -0.0340   0.00    1.1
2173 283465.000  -2595054.1979  -4259027.1838   3962484.7296   2   6   0.0494   0.0754   0.0574   0.0444  -0.0541  -0.0339   0.00    1.1
2173 283466.000  -2595054.1993  -4259027.1856   3962484.7289   2   6   0.0493   0.0751   0.0572   0.0443  -0.0538  -0.0337   0.00    1.1
2173 283467.000  -2595054.1934  -4259027.1806   3962484.7233   2   6   0.0492   0.0749   0.0569   0.0442  -0.0536  -0.0336   0.00    1.1
2173 283468.000  -2595054.1938  -4259027.1807   3962484.7247   2   6   0.0490   0.0747   0.0567   0.0441  -0.0534  -0.0335   0.00    1.1
2173 283469.000  -2595054.1935  -4259027.1828   3962484.7251   2   6   0.0489   0.0744   0.0564   0.0439  -0.0532  -0.0334   0.00    1.1
2173 283470.000  -2595054.1909  -4259027.1740   3962484.7186   2   6   0.0488   0.0742   0.0562   0.0438  -0.0530  -0.0333   0.00    1.1
2173 283471.000  -2595054.1884  -4259027.1728   3962484.7211   2   6   0.0487   0.0740   0.0559   0.0437  -0.0528  -0.0331   0.00    1.1
2173 283472.000  -2595054.1863  -4259027.1675   3962484.7121   2   6   0.0485   0.0738   0.0557   0.0436  -0.0526  -0.0330   0.00    1.1
2173 283473.000  -2595054.1865  -4259027.1666   3962484.7166   2   6   0.0484   0.0735   0.0555   0.0435  -0.0524  -0.0329   0.00    1.1
2173 283474.000  -2595054.1818  -4259027.1658   3962484.7115   2   6   0.0483   0.0733   0.0552   0.0434  -0.0523  -0.0328   0.00    1.1
2173 283475.000  -2595054.1795  -4259027.1642   3962484.7091   2   6   0.0481   0.0731   0.0550   0.0432  -0.0521  -0.0327   0.00    1.1
2173 283476.000  -2595054.1818  -4259027.1679   3962484.7121   2   6   0.0480   0.0729   0.0548   0.0431  -0.0519  -0.0325   0.00    1.1
2173 283477.000  -2595054.1798  -4259027.1612   3962484.7022   2   6   0.0479   0.0727   0.0545   0.0430  -0.0517  -0.0324   0.00    1.1
2173 283478.000  -2595054.1760  -4259027.1579   3962484.7037   2   6   0.0478   0.0725   0.0543   0.0429  -0.0515  -0.0323   0.00    1.1
2173 283479.000  -2595054.1716  -4259027.1516   3962484.7034   2   6   0.0477   0.0723   0.0541   0.0428  -0.0513  -0.0322   0.00    1.1
2173 283480.000  -2595054.1706  -4259027.1504   3962484.7016   2   6   0.0475   0.0721   0.0538   0.0426  -0.0511  -0.0321   0.00    1.1
2173 283481.000  -2595054.1687  -4259027.1434   3962484.6964   2   6   0.0474   0.0719   0.0536   0.0425  -0.0510  -0.0320   0.00    1.1
2173 283482.000  -2595054.1686  -4259027.1444   3962484.6966   2   6   0.0473   0.0717   0.0534   0.0424  -0.0508  -0.0319   0.00    1.1
2173 283483.000  -2595054.1664  -4259027.1427   3962484.6978   2   6   0.0472   0.0715   0.0531   0.0423  -0.0506  -0.0318   0.00    1.1
2173 283484.000  -2595054.1717  -4259027.1493   3962484.7000   2   6   0.0471   0.0713   0.0529   0.0422  -0.0504  -0.0317   0.00    1.1
2173 283485.000  -2595054.1695  -4259027.1475   3962484.6993   2   6   0.0470   0.0711   0.0527   0.0421  -0.0502  -0.0316   0.00    1.1
2173 283486.000  -2595054.1712  -4259027.1425   3962484.6936   2   6   0.0468   0.0709   0.0525   0.0420  -0.0501  -0.0314   0.00    1.1
2173 283487.000  -2595054.1669  -4259027.1381   3962484.6903   2   6   0.0467   0.0707   0.0522   0.0419  -0.0499  -0.0313   0.00    1.1
2173 283488.000  -2595054.1606  -4259027.1260   3962484.6786   2   6   0.0466   0.0705   0.0520   0.0418  -0.0497  -0.0312   0.00    1.1
2173 283489.000  -2595054.1593  -4259027.1266   3962484.6760   2   6   0.0465   0.0703   0.0518   0.0417  -0.0496  -0.0311   0.00    1.1
2173 283490.000  -2595054.1569  -4259027.1260   3962484.6721   2   6   0.0464   0.0701   0.0516   0.0415  -0.0494  -0.0310   0.00    1.1
2173 283491.000  -2595054.1524  -4259027.1200   3962484.6697   2   6   0.0463   0.0699   0.0515   0.0414  -0.0492  -0.0309   0.00    1.1
2173 283492.000  -2595054.1555  -4259027.1182   3962484.6670   2   6   0.0462   0.0697   0.0512   0.0413  -0.0491  -0.0308   0.00    1.1
2173 283493.000  -2595054.1532  -4259027.1110   3962484.6613   2   6   0.0461   0.0696   0.0510   0.0412  -0.0489  -0.0307   0.00    1.1
2173 283494.000  -2595054.1535  -4259027.1108   3962484.6581   2   6   0.0460   0.0694   0.0508   0.0411  -0.0488  -0.0306   0.00    1.1
2173 283495.000  -2595054.1503  -4259027.1092   3962484.6559   2   6   0.0458   0.0692   0.0506   0.0410  -0.0486  -0.0305   0.00    1.1
2173 283496.000  -2595054.1529  -4259027.1136   3962484.6562   2   6   0.0457   0.0690   0.0504   0.0409  -0.0484  -0.0304   0.00    1.1
2173 283497.000  -2595054.1488  -4259027.1051   3962484.6502   2   6   0.0456   0.0688   0.0502   0.0408  -0.0483  -0.0303   0.00    1.1
2173 283498.000  -2595054.1461  -4259027.1032   3962484.6471   2   6   0.0455   0.0687   0.0500   0.0407  -0.0481  -0.0302   0.00    1.1
2173 283499.000  -2595054.1426  -4259027.1001   3962484.6432   2   6   0.0454   0.0685   0.0498   0.0406  -0.0480  -0.0301   0.00    1.1
2173 283500.000  -2595054.1444  -4259027.0989   3962484.6403   2   6   0.0453   0.0683   0.0496   0.0405  -0.0478  -0.0300   0.00    1.1
2173 283501.000  -2595054.1416  -4259027.0922   3962484.6337   2   6   0.0452   0.0681   0.0494   0.0404  -0.0477  -0.0299   0.00    1.1
2173 283502.000  -2595054.1349  -4259027.0882   3962484.6299   2   6   0.0451   0.0679   0.0492   0.0403  -0.0475  -0.0299   0.00    1.1
2173 283503.000  -2595054.1336  -4259027.0876   3962484.6323   2   6   0.0450   0.0678   0.0490   0.0402  -0.0474  -0.0298   0.00    1.1
2173 283504.000  -2595054.1362  -4259027.0886   3962484.6288   2   6   0.0449   0.0676   0.0488   0.0401  -0.0472  -0.0296   0.00    1.1
2173 283505.000  -2595054.1289  -4259027.0815   3962484.6245   2   6   0.0448   0.0675   0.0487   0.0400  -0.0471  -0.0296   0.00    1.1
2173 283506.000  -2595054.1326  -4259027.0835   3962484.6242   2   6   0.0447   0.0673   0.0485   0.0399  -0.0469  -0.0295   0.00    1.1
2173 283507.000  -2595054.1277  -4259027.0785   3962484.6196   2   6   0.0446   0.0671   0.0483   0.0398  -0.0468  -0.0294   0.00    1.1
2173 283508.000  -2595054.1246  -4259027.0761   3962484.6210   2   6   0.0445   0.0669   0.0481   0.0398  -0.0466  -0.0293   0.00    1.1
2173 283509.000  -2595054.1296  -4259027.0749   3962484.6193   2   6   0.0444   0.0668   0.0479   0.0396  -0.0465  -0.0292   0.00    1.1
2173 283510.000  -2595054.1264  -4259027.0689   3962484.6127   2   6   0.0443   0.0666   0.0477   0.0396  -0.0464  -0.0291   0.00    1.1
2173 283511.000  -2595054.1230  -4259027.0674   3962484.6127   2   6   0.0442   0.0665   0.0476   0.0395  -0.0462  -0.0290   0.00    1.1
2173 283512.000  -2595054.1220  -4259027.0673   3962484.6110   2   6   0.0441   0.0663   0.0474   0.0394  -0.0461  -0.0290   0.00    1.1
2173 283513.000  -2595054.1185  -4259027.0658   3962484.6079   2   6   0.0440   0.0661   0.0472   0.0393  -0.0459  -0.0289   0.00    1.1
2173 283514.000  -2595054.1173  -4259027.0685   3962484.6059   2   6   0.0439   0.0660   0.0470   0.0392  -0.0458  -0.0288   0.00    1.1
2173 283515.000  -2595054.1174  -4259027.0674   3962484.6052   2   6   0.0438   0.0658   0.0468   0.0391  -0.0457  -0.0287   0.00    1.1
2173 283516.000  -2595054.1173  -4259027.0685   3962484.6032   2   6   0.0438   0.0657   0.0467   0.0391  -0.0455  -0.0286   0.00    1.1
2173 283517.000  -2595054.1176  -4259027.0656   3962484.6014   2   6   0.0436   0.0655   0.0465   0.0389  -0.0454  -0.0285   0.00    1.1
2173 283518.000  -2595054.1102  -4259027.0615   3962484.6007   2   6   0.0436   0.0654   0.0463   0.0389  -0.0453  -0.0284   0.00    1.1
2173 283519.000  -2595054.1202  -4259027.0665   3962484.5984   2   6   0.0435   0.0652   0.0462   0.0388  -0.0451  -0.0283   0.00    1.1
2173 283520.000  -2595054.1130  -4259027.0592   3962484.5964   2   6   0.0434   0.0651   0.0460   0.0387  -0.0450  -0.0282   0.00    1.1
2173 283521.000  -2595054.1112  -4259027.0593   3962484.5933   2   6   0.0433   0.0649   0.0458   0.0386  -0.0449  -0.0282   0.00    1.1
2173 283522.000  -2595054.1103  -4259027.0526   3962484.5909   2   6   0.0432   0.0648   0.0457   0.0385  -0.0447  -0.0281   0.00    1.1
2173 283523.000  -2595054.1064  -4259027.0494   3962484.5881   2   6   0.0431   0.0646   0.0455   0.0384  -0.0446  -0.0280   0.00    1.1
2173 283524.000  -2595054.1030  -4259027.0470   3962484.5889   2   6   0.0430   0.0645   0.0453   0.0383  -0.0445  -0.0279   0.00    1.1
2173 283525.000  -2595054.1048  -4259027.0524   3962484.5918   2   6   0.0429   0.0643   0.0451   0.0383  -0.0444  -0.0278   0.00    1.1
2173 283526.000  -2595054.1037  -4259027.0490   3962484.5900   2   6   0.0429   0.0642   0.0450   0.0382  -0.0442  -0.0278   0.00    1.1
2173 283527.000  -2595054.1017  -4259027.0462   3962484.5891   2   6   0.0428   0.0641   0.0449   0.0381  -0.0441  -0.0277   0.00    1.1
2173 283528.000  -2595054.1014  -4259027.0496   3962484.5914   2   6   0.0427   0.0639   0.0447   0.0380  -0.0440  -0.0276   0.00    1.1
2173 283529.000  -2595054.0963  -4259027.0459   3962484.5911   2   6   0.0426   0.0638   0.0445   0.0379  -0.0438  -0.0275   0.00    1.1
2173 283530.000  -2595054.0938  -4259027.0421   3962484.5870   2   6   0.0425   0.0636   0.0443   0.0379  -0.0437  -0.0274   0.00    1.1
2173 283531.000  -2595054.0902  -4259027.0407   3962484.5843   2   6   0.0424   0.0635   0.0442   0.0378  -0.0436  -0.0274   0.00    1.1
2173 283532.000  -2595054.0911  -4259027.0349   3962484.5796   2   6   0.0423   0.0634   0.0440   0.0377  -0.0435  -0.0273   0.00    1.1
2173 283533.000  -2595054.0889  -4259027.0346   3962484.5783   2   6   0.0422   0.0632   0.0438   0.0376  -0.0434  -0.0272   0.00    1.1
2173 283534.000  -2595054.0863  -4259027.0361   3962484.5772   2   6   0.0422   0.0631   0.0437   0.0375  -0.0433  -0.0271   0.00    1.1
2173 283535.000  -2595054.0862  -4259027.0324   3962484.5711   2   6   0.0421   0.0630   0.0436   0.0375  -0.0431  -0.0271   0.00    1.1
2173 283536.000  -2595054.0873  -4259027.0362   3962484.5727   2   6   0.0420   0.0628   0.0434   0.0374  -0.0430  -0.0270   0.00    1.1
2173 283537.000  -2595054.0865  -4259027.0300   3962484.5682   2   6   0.0419   0.0627   0.0433   0.0373  -0.0429  -0.0269   0.00    1.1
2173 283538.000  -2595054.0805  -4259027.0321   3962484.5682   2   6   0.0418   0.0626   0.0431   0.0372  -0.0428  -0.0269   0.00    1.1
2173 283539.000  -2595054.0774  -4259027.0247   3962484.5681   2   6   0.0418   0.0624   0.0430   0.0371  -0.0427  -0.0268   0.00    1.1
2173 283540.000  -2595054.0740  -4259027.0232   3962484.5675   2   6   0.0417   0.0623   0.0428   0.0371  -0.0426  -0.0267   0.00    1.1
2173 283541.000  -2595054.0743  -4259027.0252   3962484.5692   2   6   0.0416   0.0622   0.0427   0.0370  -0.0425  -0.0266   0.00    1.1
2173 283542.000  -2595054.0703  -4259027.0256   3962484.5740   2   6   0.0415   0.0620   0.0426   0.0369  -0.0423  -0.0265   0.00    1.1
2173 283543.000  -2595054.0754  -4259027.0243   3962484.5715   2   6   0.0414   0.0619   0.0424   0.0368  -0.0422  -0.0265   0.00    1.1
2173 283544.000  -2595054.0771  -4259027.0259   3962484.5735   2   6   0.0413   0.0618   0.0423   0.0368  -0.0421  -0.0264   0.00    1.1
2173 283545.000  -2595054.0739  -4259027.0282   3962484.5749   2   6   0.0413   0.0617   0.0421   0.0367  -0.0420  -0.0263   0.00    1.1
2173 283546.000  -2595054.0727  -4259027.0218   3962484.5704   2   6   0.0412   0.0615   0.0420   0.0366  -0.0419  -0.0262   0.00    1.1
2173 283547.000  -2595054.0714  -4259027.0231   3962484.5739   2   6   0.0411   0.0614   0.0418   0.0366  -0.0418  -0.0262   0.00    1.1
2173 283548.000  -2595054.0724  -4259027.0228   3962484.5703   2   6   0.0410   0.0613   0.0417   0.0365  -0.0417  -0.0261   0.00    1.1
2173 283549.000  -2595054.0690  -4259027.0161   3962484.5753   2   6   0.0409   0.0612   0.0416   0.0364  -0.0416  -0.0261   0.00    1.1
2173 283550.000  -2595054.0728  -4259027.0152   3962484.5739   2   6   0.0409   0.0610   0.0414   0.0363  -0.0415  -0.0260   0.00    1.1
2173 283551.000  -2595054.0701  -4259027.0125   3962484.5752   2   6   0.0408   0.0609   0.0413   0.0363  -0.0414  -0.0259   0.00    1.1
2173 283552.000  -2595054.0699  -4259027.0125   3962484.5749   2   6   0.0407   0.0608   0.0411   0.0362  -0.0413  -0.0258   0.00    1.1
2173 283553.000  -2595054.0747  -4259027.0176   3962484.5749   2   6   0.0407   0.0607   0.0410   0.0361  -0.0412  -0.0258   0.00    1.1
2173 283554.000  -2595054.0673  -4259027.0168   3962484.5777   2   6   0.0406   0.0606   0.0409   0.0361  -0.0410  -0.0257   0.00    1.1
2173 283555.000  -2595054.0647  -4259027.0128   3962484.5745   2   6   0.0405   0.0604   0.0407   0.0360  -0.0410  -0.0256   0.00    1.1
2173 283556.000  -2595054.0635  -4259027.0115   3962484.5762   2   6   0.0404   0.0603   0.0406   0.0359  -0.0409  -0.0256   0.00    1.1
2173 283557.000  -2595054.0673  -4259027.0127   3962484.5774   2   6   0.0403   0.0602   0.0405   0.0359  -0.0408  -0.0255   0.00    1.1
2173 283558.000  -2595054.0703  -4259027.0153   3962484.5821   2   6   0.0403   0.0601   0.0403   0.0358  -0.0407  -0.0254   0.00    1.1
2173 283559.000  -2595054.0669  -4259027.0078   3962484.5720   2   6   0.0402   0.0600   0.0402   0.0357  -0.0406  -0.0254   0.00    1.1
2173 283560.000  -2595054.0668  -4259027.0033   3962484.5711   2   6   0.0402   0.0599   0.0400   0.0356  -0.0405  -0.0253   0.00    1.1
2173 283561.000  -2595054.0671  -4259027.0020   3962484.5710   2   6   0.0401   0.0597   0.0399   0.0356  -0.0404  -0.0253   0.00    1.1
2173 283562.000  -2595054.0660  -4259027.0030   3962484.5716   2   6   0.0400   0.0596   0.0398   0.0355  -0.0403  -0.0252   0.00    1.1
2173 283563.000  -2595054.0688  -4259027.0052   3962484.5703   2   6   0.0399   0.0595   0.0397   0.0354  -0.0402  -0.0251   0.00    1.1
2173 283564.000  -2595054.0711  -4259027.0123   3962484.5783   2   6   0.0398   0.0594   0.0396   0.0354  -0.0401  -0.0251   0.00    1.1
2173 283565.000  -2595054.0703  -4259027.0089   3962484.5801   2   6   0.0398   0.0593   0.0394   0.0353  -0.0400  -0.0250   0.00    1.1
2173 283566.000  -2595054.0729  -4259027.0080   3962484.5782   2   6   0.0397   0.0592   0.0393   0.0353  -0.0399  -0.0249   0.00    1.1
2173 283567.000  -2595054.0689  -4259027.0045   3962484.5797   2   6   0.0397   0.0591   0.0392   0.0352  -0.0398  -0.0249   0.00    1.1
2173 283568.000  -2595054.0696  -4259027.0054   3962484.5799   2   6   0.0396   0.0590   0.0391   0.0351  -0.0397  -0.0248   0.00    1.1
2173 283569.000  -2595054.0768  -4259027.0077   3962484.5775   2   6   0.0395   0.0588   0.0390   0.0351  -0.0396  -0.0247   0.00    1.1
2173 283570.000  -2595054.0681  -4259027.0030   3962484.5785   2   6   0.0395   0.0587   0.0388   0.0350  -0.0395  -0.0247   0.00    1.1
2173 283571.000  -2595054.0655  -4259026.9976   3962484.5754   2   6   0.0394   0.0586   0.0387   0.0349  -0.0395  -0.0246   0.00    1.1
2173 283572.000  -2595054.0732  -4259027.0078   3962484.5808   2   6   0.0393   0.0585   0.0386   0.0348  -0.0393  -0.0246   0.00    1.1
2173 283573.000  -2595054.0698  -4259027.0011   3962484.5794   2   6   0.0392   0.0584   0.0385   0.0348  -0.0392  -0.0245   0.00    1.1
2173 283574.000  -2595054.0712  -4259026.9982   3962484.5784   2   6   0.0392   0.0583   0.0384   0.0347  -0.0392  -0.0244   0.00    1.1
2173 283575.000  -2595054.0719  -4259026.9988   3962484.5787   2   6   0.0391   0.0582   0.0382   0.0347  -0.0391  -0.0244   0.00    1.1
2173 283576.000  -2595054.0680  -4259026.9947   3962484.5769   2   6   0.0390   0.0581   0.0381   0.0346  -0.0390  -0.0243   0.00    1.1
2173 283577.000  -2595054.0639  -4259026.9935   3962484.5771   2   6   0.0390   0.0580   0.0380   0.0345  -0.0389  -0.0243   0.00    1.1
2173 283578.000  -2595054.0690  -4259026.9960   3962484.5782   2   6   0.0389   0.0579   0.0379   0.0345  -0.0388  -0.0242   0.00    1.1
2173 283579.000  -2595054.0818  -4259027.0018   3962484.5803   2   6   0.0388   0.0578   0.0377   0.0344  -0.0387  -0.0242   0.00    1.1
2173 283580.000  -2595054.0726  -4259026.9923   3962484.5737   2   6   0.0388   0.0577   0.0377   0.0344  -0.0386  -0.0241   0.00    1.1
2173 283581.000  -2595054.0741  -4259026.9933   3962484.5744   2   6   0.0387   0.0576   0.0375   0.0343  -0.0385  -0.0241   0.00    1.1
2173 283582.000  -2595054.0745  -4259026.9945   3962484.5745   2   6   0.0386   0.0575   0.0374   0.0342  -0.0385  -0.0240   0.00    1.1
2173 283583.000  -2595054.0714  -4259026.9894   3962484.5695   2   6   0.0386   0.0574   0.0373   0.0342  -0.0384  -0.0240   0.00    1.1
2173 283584.000  -2595054.0679  -4259026.9893   3962484.5694   2   6   0.0385   0.0573   0.0372   0.0341  -0.0383  -0.0239   0.00    1.1
2173 283585.000  -2595054.0660  -4259026.9864   3962484.5709   2   6   0.0384   0.0572   0.0371   0.0341  -0.0382  -0.0238   0.00    1.1
2173 283586.000  -2595054.0702  -4259026.9877   3962484.5694   2   6   0.0384   0.0571   0.0370   0.0340  -0.0381  -0.0238   0.00    1.1
2173 283587.000  -2595054.0674  -4259026.9895   3962484.5716   2   6   0.0383   0.0570   0.0369   0.0339  -0.0380  -0.0237   0.00    1.1
2173 283588.000  -2595054.0683  -4259026.9880   3962484.5710   2   6   0.0383   0.0569   0.0368   0.0339  -0.0380  -0.0237   0.00    1.1
2173 283589.000  -2595054.0638  -4259026.9861   3962484.5674   2   6   0.0382   0.0568   0.0367   0.0338  -0.0379  -0.0236   0.00    1.1
2173 283590.000  -2595054.0709  -4259026.9953   3962484.5743   2   6   0.0381   0.0567   0.0366   0.0338  -0.0378  -0.0236   0.00    1.1
2173 283591.000  -2595054.0632  -4259026.9850   3962484.5691   2   6   0.0381   0.0566   0.0364   0.0337  -0.0377  -0.0235   0.00    1.1
2173 283592.000  -2595054.0658  -4259026.9901   3962484.5705   2   6   0.0380   0.0565   0.0363   0.0337  -0.0376  -0.0235   0.00    1.1
2173 283593.000  -2595054.0735  -4259026.9949   3962484.5724   2   6   0.0380   0.0564   0.0362   0.0336  -0.0376  -0.0234   0.00    1.1
2173 283594.000  -2595054.0609  -4259026.9873   3962484.5704   2   6   0.0379   0.0563   0.0361   0.0336  -0.0375  -0.0234   0.00    1.1
2173 283595.000  -2595054.0666  -4259026.9902   3962484.5746   2   6   0.0378   0.0562   0.0360   0.0335  -0.0374  -0.0233   0.00    1.1
2173 283596.000  -2595054.0652  -4259026.9801   3962484.5697   2   6   0.0378   0.0561   0.0359   0.0335  -0.0373  -0.0233   0.00    1.1
2173 283597.000  -2595054.0671  -4259026.9872   3962484.5753   2   6   0.0377   0.0560   0.0358   0.0334  -0.0373  -0.0232   0.00    1.1
2173 283598.000  -2595054.0616  -4259026.9880   3962484.5743   2   6   0.0376   0.0560   0.0357   0.0333  -0.0372  -0.0231   0.00    1.1
2173 283599.000  -2595054.0738  -4259026.9932   3962484.5741   2   6   0.0376   0.0559   0.0356   0.0333  -0.0371  -0.0231   0.00    1.1
2173 283600.000  -2595054.0758  -4259026.9967   3962484.5761   2   6   0.0375   0.0558   0.0355   0.0332  -0.0370  -0.0231   0.00    1.1
2173 283601.000  -2595054.0727  -4259026.9921   3962484.5720   2   6   0.0375   0.0557   0.0354   0.0332  -0.0369  -0.0230   0.00    1.1
2173 283602.000  -2595054.0731  -4259026.9897   3962484.5727   2   6   0.0374   0.0556   0.0353   0.0331  -0.0369  -0.0229   0.00    1.1
2173 283603.000  -2595054.0785  -4259026.9949   3962484.5750   2   6   0.0374   0.0555   0.0352   0.0330  -0.0368  -0.0229   0.00    1.1
2173 283604.000  -2595054.0689  -4259026.9917   3962484.5720   2   6   0.0373   0.0554   0.0351   0.0330  -0.0367  -0.0228   0.00    1.1
2173 283605.000  -2595054.0687  -4259026.9892   3962484.5698   2   6   0.0372   0.0553   0.0350   0.0330  -0.0366  -0.0228   0.00    1.1
2173 283606.000  -2595054.0695  -4259026.9860   3962484.5739   2   6   0.0372   0.0552   0.0349   0.0329  -0.0366  -0.0227   0.00    1.1
2173 283607.000  -2595054.0720  -4259026.9882   3962484.5751   2   6   0.0372   0.0551   0.0348   0.0328  -0.0365  -0.0227   0.00    1.1
2173 283608.000  -2595054.0673  -4259026.9888   3962484.5787   2   6   0.0371   0.0551   0.0347   0.0328  -0.0364  -0.0227   0.00    1.1
2173 283609.000  -2595054.0749  -4259026.9912   3962484.5787   2   6   0.0370   0.0550   0.0346   0.0327  -0.0364  -0.0226   0.00    1.1
2173 283610.000  -2595054.0764  -4259026.9904   3962484.5797   2   6   0.0370   0.0549   0.0345   0.0327  -0.0363  -0.0225   0.00    1.1
2173 283611.000  -2595054.0747  -4259026.9840   3962484.5744   2   6   0.0369   0.0548   0.0345   0.0326  -0.0362  -0.0225   0.00    1.1
2173 283612.000  -2595054.0752  -4259026.9862   3962484.5740   2   6   0.0369   0.0547   0.0344   0.0326  -0.0362  -0.0224   0.00    1.1
2173 283613.000  -2595054.0721  -4259026.9842   3962484.5754   2   6   0.0368   0.0546   0.0343   0.0325  -0.0360  -0.0224   0.00    1.1
2173 283614.000  -2595054.0719  -4259026.9854   3962484.5791   2   6   0.0367   0.0545   0.0342   0.0325  -0.0360  -0.0224   0.00    1.1
2173 283615.000  -2595054.0729  -4259026.9874   3962484.5789   2   6   0.0367   0.0545   0.0340   0.0324  -0.0359  -0.0223   0.00    1.1
2173 283616.000  -2595054.0694  -4259026.9805   3962484.5760   2   6   0.0366   0.0544   0.0340   0.0324  -0.0359  -0.0223   0.00    1.1
2173 283617.000  -2595054.0744  -4259026.9859   3962484.5759   2   6   0.0366   0.0543   0.0339   0.0323  -0.0358  -0.0222   0.00    1.1
2173 283618.000  -2595054.0718  -4259026.9858   3962484.5788   2   6   0.0365   0.0542   0.0338   0.0323  -0.0357  -0.0222   0.00    1.1
2173 283619.000  -2595054.0664  -4259026.9773   3962484.5739   2   6   0.0365   0.0541   0.0337   0.0322  -0.0357  -0.0222   0.00    1.1
2173 283620.000  -2595054.0685  -4259026.9779   3962484.5727   2   6   0.0364   0.0540   0.0336   0.0322  -0.0356  -0.0221   0.00    1.1
2173 283621.000  -2595054.0690  -4259026.9773   3962484.5728   2   6   0.0364   0.0540   0.0335   0.0321  -0.0355  -0.0220   0.00    1.1
2173 283622.000  -2595054.0693  -4259026.9762   3962484.5740   2   6   0.0363   0.0539   0.0334   0.0321  -0.0355  -0.0220   0.00    1.1
2173 283623.000  -2595054.0690  -4259026.9759   3962484.5718   2   6   0.0363   0.0538   0.0334   0.0321  -0.0354  -0.0220   0.00    1.1
2173 283624.000  -2595054.0698  -4259026.9770   3962484.5715   2   6   0.0362   0.0537   0.0333   0.0320  -0.0353  -0.0219   0.00    1.1
2173 283625.000  -2595054.0658  -4259026.9779   3962484.5732   2   6   0.0362   0.0536   0.0332   0.0319  -0.0352  -0.0219   0.00    1.1
2173 283626.000  -2595054.0724  -4259026.9810   3962484.5780   2   6   0.0361   0.0535   0.0331   0.0319  -0.0352  -0.0218   0.00    1.1
2173 283627.000  -2595054.0638  -4259026.9722   3962484.5756   2   6   0.0361   0.0535   0.0330   0.0318  -0.0351  -0.0218   0.00    1.1
2173 283628.000  -2595054.0664  -4259026.9747   3962484.5733   2   6   0.0360   0.0534   0.0330   0.0318  -0.0350  -0.0217   0.00    1.1
2173 283629.000  -2595054.0719  -4259026.9778   3962484.5758   2   6   0.0360   0.0533   0.0328   0.0317  -0.0350  -0.0217   0.00    1.1
2173 283630.000  -2595054.0722  -4259026.9803   3962484.5785   2   6   0.0359   0.0532   0.0328   0.0317  -0.0349  -0.0217   0.00    1.1
2173 283631.000  -2595054.0728  -4259026.9833   3962484.5802   2   6   0.0359   0.0532   0.0327   0.0317  -0.0349  -0.0216   0.00    1.1
2173 283632.000  -2595054.0734  -4259026.9790   3962484.5754   2   6   0.0358   0.0531   0.0326   0.0316  -0.0348  -0.0216   0.00    1.1
2173 283633.000  -2595054.0709  -4259026.9779   3962484.5770   2   6   0.0357   0.0530   0.0325   0.0316  -0.0347  -0.0215   0.00    1.1
2173 283634.000  -2595054.0696  -4259026.9773   3962484.5767   2   6   0.0357   0.0529   0.0324   0.0315  -0.0347  -0.0215   0.00    1.1
2173 283635.000  -2595054.0738  -4259026.9769   3962484.5767   2   6   0.0357   0.0528   0.0323   0.0315  -0.0346  -0.0215   0.00    1.1
2173 283636.000  -2595054.0757  -4259026.9810   3962484.5781   2   6   0.0356   0.0528   0.0322   0.0314  -0.0346  -0.0214   0.00    1.1
2173 283637.000  -2595054.0709  -4259026.9746   3962484.5761   2   6   0.0355   0.0527   0.0322   0.0314  -0.0345  -0.0214   0.00    1.1
2173 283638.000  -2595054.0726  -4259026.9777   3962484.5762   2   6   0.0355   0.0526   0.0321   0.0313  -0.0344  -0.0213   0.00    1.1
2173 283639.000  -2595054.0667  -4259026.9697   3962484.5720   2   6   0.0355   0.0525   0.0320   0.0313  -0.0344  -0.0213   0.00    1.1
2173 283640.000  -2595054.0690  -4259026.9723   3962484.5744   2   6   0.0354   0.0525   0.0320   0.0313  -0.0343  -0.0212   0.00    1.1
2173 283641.000  -2595054.0658  -4259026.9700   3962484.5721   2   6   0.0353   0.0524   0.0319   0.0312  -0.0342  -0.0212   0.00    1.1
2173 283642.000  -2595054.0655  -4259026.9679   3962484.5691   2   6   0.0353   0.0523   0.0318   0.0312  -0.0342  -0.0212   0.00    1.1
2173 283643.000  -2595054.0690  -4259026.9751   3962484.5751   2   6   0.0353   0.0522   0.0317   0.0311  -0.0341  -0.0211   0.00    1.1
2173 283644.000  -2595054.0682  -4259026.9757   3962484.5773   2   6   0.0352   0.0522   0.0317   0.0311  -0.0341  -0.0211   0.00    1.1
2173 283645.000  -2595054.0695  -4259026.9732   3962484.5761   2   6   0.0351   0.0521   0.0315   0.0310  -0.0340  -0.0210   0.00    1.1
2173 283646.000  -2595054.0735  -4259026.9758   3962484.5803   2   6   0.0351   0.0520   0.0315   0.0310  -0.0339  -0.0210   0.00    1.1
2173 283647.000  -2595054.0724  -4259026.9737   3962484.5768   2   6   0.0351   0.0520   0.0314   0.0309  -0.0339  -0.0210   0.00    1.1
2173 283648.000  -2595054.0695  -4259026.9722   3962484.5746   2   6   0.0350   0.0519   0.0314   0.0309  -0.0338  -0.0209   0.00    1.1
2173 283649.000  -2595054.0725  -4259026.9709   3962484.5736   2   6   0.0350   0.0518   0.0312   0.0308  -0.0338  -0.0209   0.00    1.1
2173 283650.000  -2595054.0753  -4259026.9781   3962484.5783   2   6   0.0349   0.0517   0.0311   0.0308  -0.0337  -0.0209   0.00    1.1
2173 283651.000  -2595054.0725  -4259026.9741   3962484.5719   2   6   0.0349   0.0517   0.0311   0.0307  -0.0337  -0.0208   0.00    1.1
2173 283652.000  -2595054.0759  -4259026.9793   3962484.5770   2   6   0.0348   0.0516   0.0310   0.0307  -0.0336  -0.0208   0.00    1.1
2173 283653.000  -2595054.0739  -4259026.9781   3962484.5766   2   6   0.0348   0.0515   0.0310   0.0307  -0.0335  -0.0207   0.00    1.1
2173 283654.000  -2595054.0795  -4259026.9774   3962484.5798   2   6   0.0347   0.0515   0.0309   0.0306  -0.0335  -0.0207   0.00    1.1
2173 283655.000  -2595054.0753  -4259026.9728   3962484.5749   2   6   0.0347   0.0514   0.0308   0.0306  -0.0334  -0.0206   0.00    1.1
2173 283656.000  -2595054.0779  -4259026.9779   3962484.5768   2   6   0.0346   0.0513   0.0307   0.0306  -0.0334  -0.0206   0.00    1.1
2173 283657.000  -2595054.0733  -4259026.9770   3962484.5776   2   6   0.0346   0.0512   0.0307   0.0305  -0.0333  -0.0206   0.00    1.1
2173 283658.000  -2595054.0793  -4259026.9777   3962484.5777   2   6   0.0346   0.0512   0.0306   0.0304  -0.0333  -0.0206   0.00    1.1
2173 283659.000  -2595054.0703  -4259026.9638   3962484.5631   2   6   0.0345   0.0511   0.0305   0.0304  -0.0332  -0.0205   0.00    1.1
2173 283660.000  -2595054.0736  -4259026.9653   3962484.5642   2   6   0.0344   0.0510   0.0305   0.0304  -0.0332  -0.0204   0.00    1.1
2173 283661.000  -2595054.0755  -4259026.9724   3962484.5682   2   6   0.0344   0.0510   0.0304   0.0304  -0.0331  -0.0204   0.00    1.1
2173 283662.000  -2595054.0735  -4259026.9712   3962484.5634   2   6   0.0344   0.0509   0.0303   0.0303  -0.0330  -0.0204   0.00    1.1
2173 283663.000  -2595054.0742  -4259026.9718   3962484.5635   2   6   0.0343   0.0508   0.0303   0.0303  -0.0330  -0.0204   0.00    1.1
2173 283664.000  -2595054.0715  -4259026.9688   3962484.5634   2   6   0.0343   0.0508   0.0301   0.0302  -0.0329  -0.0203   0.00    1.1
2173 283665.000  -2595054.0758  -4259026.9749   3962484.5625   2   6   0.0342   0.0507   0.0301   0.0302  -0.0329  -0.0203   0.00    1.1
2173 283666.000  -2595054.0751  -4259026.9745   3962484.5639   2   6   0.0342   0.0506   0.0300   0.0302  -0.0328  -0.0203   0.00    1.1
2173 283667.000  -2595054.0730  -4259026.9700   3962484.5616   2   6   0.0341   0.0506   0.0300   0.0301  -0.0328  -0.0202   0.00    1.1
2173 283668.000  -2595054.0708  -4259026.9682   3962484.5585   2   6   0.0341   0.0505   0.0299   0.0301  -0.0328  -0.0202   0.00    1.1
2173 283669.000  -2595054.0748  -4259026.9696   3962484.5609   2   6   0.0341   0.0504   0.0299   0.0300  -0.0327  -0.0201   0.00    1.1
2173 283670.000  -2595054.0767  -4259026.9723   3962484.5637   2   6   0.0340   0.0504   0.0298   0.0300  -0.0326  -0.0201   0.00    1.1
2173 283671.000  -2595054.0777  -4259026.9732   3962484.5648   2   6   0.0340   0.0503   0.0297   0.0299  -0.0326  -0.0201   0.00    1.1
2173 283672.000  -2595054.0779  -4259026.9734   3962484.5662   2   6   0.0339   0.0502   0.0296   0.0299  -0.0325  -0.0201   0.00    1.1
2173 283673.000  -2595054.0796  -4259026.9705   3962484.5644   2   6   0.0339   0.0502   0.0296   0.0299  -0.0325  -0.0200   0.00    1.1
2173 283674.000  -2595054.0819  -4259026.9784   3962484.5665   2   6   0.0339   0.0501   0.0295   0.0298  -0.0324  -0.0200   0.00    1.1
2173 283675.000  -2595054.0802  -4259026.9708   3962484.5591   2   6   0.0338   0.0500   0.0295   0.0298  -0.0324  -0.0199   0.00    1.1
2173 283676.000  -2595054.0782  -4259026.9716   3962484.5591   2   6   0.0338   0.0500   0.0294   0.0297  -0.0323  -0.0199   0.00    1.1
2173 283677.000  -2595054.0786  -4259026.9687   3962484.5605   2   6   0.0337   0.0499   0.0293   0.0297  -0.0323  -0.0199   0.00    1.1
2173 283678.000  -2595054.0793  -4259026.9727   3962484.5590   2   6   0.0337   0.0499   0.0293   0.0297  -0.0322  -0.0199   0.00    1.1
2173 283679.000  -2595054.0822  -4259026.9727   3962484.5576   2   6   0.0336   0.0498   0.0292   0.0297  -0.0321  -0.0198   0.00    1.1
2173 283680.000  -2595054.0832  -4259026.9712   3962484.5600   2   6   0.0336   0.0497   0.0291   0.0296  -0.0321  -0.0198   0.00    1.1
2173 283681.000  -2595054.0830  -4259026.9686   3962484.5587   2   6   0.0336   0.0497   0.0290   0.0295  -0.0321  -0.0197   0.00    1.1
2173 283682.000  -2595054.0869  -4259026.9725   3962484.5558   2   6   0.0335   0.0496   0.0290   0.0295  -0.0320  -0.0197   0.00    1.1
2173 283683.000  -2595054.0825  -4259026.9670   3962484.5553   2   6   0.0335   0.0496   0.0290   0.0295  -0.0320  -0.0197   0.00    1.1
2173 283684.000  -2595054.0796  -4259026.9633   3962484.5536   2   6   0.0334   0.0495   0.0288   0.0295  -0.0319  -0.0197   0.00    1.1
2173 283685.000  -2595054.0787  -4259026.9604   3962484.5473   2   6   0.0334   0.0494   0.0289   0.0294  -0.0319  -0.0196   0.00    1.1
2173 283686.000  -2595054.0770  -4259026.9606   3962484.5477   2   6   0.0334   0.0494   0.0287   0.0294  -0.0318  -0.0196   0.00    1.1
2173 283687.000  -2595054.0795  -4259026.9632   3962484.5485   2   6   0.0333   0.0493   0.0287   0.0293  -0.0318  -0.0196   0.00    1.1
2173 283688.000  -2595054.0778  -4259026.9628   3962484.5472   2   6   0.0333   0.0492   0.0286   0.0293  -0.0317  -0.0195   0.00    1.1
2173 283689.000  -2595054.0753  -4259026.9593   3962484.5442   2   6   0.0332   0.0492   0.0286   0.0293  -0.0317  -0.0195   0.00    1.1
2173 283690.000  -2595054.0773  -4259026.9629   3962484.5474   2   6   0.0332   0.0491   0.0285   0.0292  -0.0316  -0.0194   0.00    1.1
2173 283691.000  -2595054.0762  -4259026.9596   3962484.5429   2   6   0.0331   0.0490   0.0284   0.0292  -0.0316  -0.0194   0.00    1.1
2173 283692.000  -2595054.0750  -4259026.9543   3962484.5389   2   6   0.0331   0.0490   0.0284   0.0292  -0.0315  -0.0194   0.00    1.1
2173 283693.000  -2595054.0703  -4259026.9554   3962484.5386   2   6   0.0331   0.0489   0.0283   0.0291  -0.0315  -0.0194   0.00    1.1
2173 283694.000  -2595054.0761  -4259026.9617   3962484.5429   2   6   0.0331   0.0489   0.0283   0.0291  -0.0314  -0.0194   0.00    1.1
2173 283695.000  -2595054.0736  -4259026.9579   3962484.5414   2   6   0.0330   0.0488   0.0282   0.0290  -0.0314  -0.0193   0.00    1.1
2173 283696.000  -2595054.0696  -4259026.9539   3962484.5366   2   6   0.0330   0.0487   0.0281   0.0290  -0.0313  -0.0193   0.00    1.1
2173 283697.000  -2595054.0714  -4259026.9536   3962484.5400   2   6   0.0329   0.0487   0.0281   0.0290  -0.0313  -0.0192   0.00    1.1
2173 283698.000  -2595054.0744  -4259026.9567   3962484.5384   2   6   0.0329   0.0486   0.0281   0.0289  -0.0312  -0.0192   0.00    1.1
2173 283699.000  -2595054.0652  -4259026.9494   3962484.5347   2   6   0.0328   0.0486   0.0280   0.0289  -0.0312  -0.0192   0.00    1.1
2173 283700.000  -2595054.0658  -4259026.9452   3962484.5325   2   6   0.0328   0.0485   0.0279   0.0289  -0.0312  -0.0192   0.00    1.1
2173 283701.000  -2595054.0648  -4259026.9467   3962484.5344   2   6   0.0327   0.0485   0.0279   0.0288  -0.0311  -0.0191   0.00    1.1
2173 283702.000  -2595054.0644  -4259026.9438   3962484.5290   2   6   0.0327   0.0484   0.0278   0.0288  -0.0311  -0.0191   0.00    1.1
2173 283703.000  -2595054.0644  -4259026.9458   3962484.5315   2   6   0.0327   0.0483   0.0278   0.0288  -0.0310  -0.0191   0.00    1.1
2173 283704.000  -2595054.0673  -4259026.9508   3962484.5330   2   6   0.0327   0.0483   0.0278   0.0287  -0.0310  -0.0190   0.00    1.1
2173 283705.000  -2595054.0649  -4259026.9479   3962484.5323   2   6   0.0326   0.0482   0.0276   0.0287  -0.0310  -0.0190   0.00    1.1
2173 283706.000  -2595054.0643  -4259026.9435   3962484.5268   2   6   0.0326   0.0482   0.0276   0.0287  -0.0309  -0.0190   0.00    1.1
2173 283707.000  -2595054.0650  -4259026.9450   3962484.5288   2   6   0.0325   0.0481   0.0275   0.0286  -0.0309  -0.0190   0.00    1.1
2173 283708.000  -2595054.0646  -4259026.9424   3962484.5281   2   6   0.0325   0.0481   0.0274   0.0286  -0.0308  -0.0189   0.00    1.1
