% program   : rnx2rtkp ver.2.4.3 b31
% inp file  : ngs/21_09_01_08_12_02_ohlc.obs
% inp file  : ngs/21_09_01_08_12_02_ohlc_VZ.obs
% inp file  : ngs/21_09_01_08_12_02_brdc.nav
% obs start : 2021/09/01 08:00:00.0 GPST (week2173 288000.0s)
% obs end   : 2021/09/01 08:59:59.0 GPST (week2173 291599.0s)
% ref pos   :   547417.4178  -4739168.6601   4219367.6868
%
% (x/y/z-ecef=WGS84,Q=1:fix,2:float,3:sbas,4:dgps,5:single,6:ppp,ns=# of satellites)
%  GPST              x-ecef(m)      y-ecef(m)      z-ecef(m)   Q  ns   sdx(m)   sdy(m)   sdz(m)  sdxy(m)  sdyz(m)  sdzx(m) age(s)  ratio
2173 288710.000    537554.3564  -4737372.8061   4222643.9530   1   8   0.0199   0.0492   0.0529   0.0107  -0.0435  -0.0032 -30.00    3.1
2173 288711.000    537554.0326  -4737372.5432   4222643.8052   2   8   0.2622   0.6198   0.6601  -0.1391  -0.5289   0.1957 -29.00    2.5
2173 288712.000    537554.0100  -4737372.5597   4222643.8470   2   8   0.2147   0.5075   0.5405  -0.1140  -0.4331   0.1603 -28.00    2.4
2173 288713.000    537554.0037  -4737372.6088   4222643.8362   2   8   0.1862   0.4403   0.4690  -0.0989  -0.3759   0.1390 -27.00    2.4
2173 288714.000    537554.0349  -4737372.6112   4222643.9462   2   8   0.1668   0.3944   0.4202  -0.0886  -0.3367   0.1245 -26.00    2.8
2173 288715.000    537554.0398  -4737372.5365   4222643.9198   2   8   0.1524   0.3604   0.3840  -0.0809  -0.3077   0.1137 -25.00    2.7
2173 288716.000    537554.0087  -4737372.5751   4222643.9272   2   8   0.1412   0.3339   0.3559  -0.0750  -0.2852   0.1053 -24.00    2.7
2173 288717.000    537553.9914  -4737372.5389   4222643.8965   2   8   0.1322   0.3126   0.3332  -0.0702  -0.2670   0.0986 -23.00    2.6
2173 288718.000    537553.9942  -4737372.5726   4222643.9106   2   8   0.1247   0.2948   0.3143  -0.0662  -0.2519   0.0930 -22.00    2.8
2173 288719.000    537554.3506  -4737372.8055   4222643.9536   1   8   0.0142   0.0352   0.0378   0.0072  -0.0311   0.0002 -21.00    3.1
2173 288720.000    537554.3496  -4737372.8098   4222643.9505   1   8   0.0136   0.0336   0.0361   0.0068  -0.0297   0.0009 -20.00    3.3
2173 288721.000    537554.3482  -4737372.8050   4222643.9492   1   8   0.0129   0.0321   0.0345   0.0064  -0.0283   0.0013 -19.00    3.3
2173 288722.000    537554.3468  -4737372.7996   4222643.9410   1   8   0.0123   0.0306   0.0328   0.0060  -0.0270   0.0016 -18.00    3.4
2173 288723.000    537554.3486  -4737372.8016   4222643.9413   1   8   0.0117   0.0290   0.0312   0.0056  -0.0256   0.0017 -17.00    3.5
2173 288724.000    537554.3479  -4737372.8022   4222643.9446   1   8   0.0111   0.0275   0.0295   0.0052  -0.0243   0.0020 -16.00    3.8
2173 288725.000    537554.3490  -4737372.7999   4222643.9394   1   8   0.0105   0.0260   0.0279   0.0048  -0.0229   0.0021 -15.00    4.0
2173 288726.000    537554.3477  -4737372.8015   4222643.9397   1   8   0.0099   0.0245   0.0263   0.0044  -0.0216   0.0022 -14.00    4.3
2173 288727.000    537554.3472  -4737372.8030   4222643.9361   1   8   0.0093   0.0230   0.0247   0.0040  -0.0202   0.0022 -13.00    4.8
2173 288728.000    537554.3455  -4737372.8072   4222643.9422   1   8   0.0087   0.0216   0.0231   0.0036  -0.0189   0.0024 -12.00    5.2
2173 288729.000    537554.3451  -4737372.8114   4222643.9384   1   8   0.0081   0.0201   0.0215   0.0031  -0.0176   0.0025 -11.00    5.9
2173 288730.000    537554.3430  -4737372.8117   4222643.9361   1   8   0.0076   0.0187   0.0200   0.0026  -0.0164   0.0025 -10.00    6.4
2173 288731.000    537554.3409  -4737372.8127   4222643.9343   1   8   0.0070   0.0173   0.0184   0.0021  -0.0151   0.0026  -9.00    6.9
2173 288732.000    537554.3419  -4737372.8180   4222643.9404   1   8   0.0064   0.0160   0.0169   0.0016  -0.0139   0.0029  -8.00    7.3
2173 288733.000    537554.3428  -4737372.8180   4222643.9361   1   8   0.0059   0.0146   0.0155   0.0011  -0.0127   0.0028  -7.00    8.1
2173 288734.000    537554.3408  -4737372.8144   4222643.9356   1   8   0.0055   0.0134   0.0142  -0.0007  -0.0116   0.0027  -6.00    8.7
2173 288735.000    537554.3412  -4737372.8148   4222643.9353   1   8   0.0051   0.0122   0.0129  -0.0007  -0.0105   0.0026  -5.00    9.6
2173 288736.000    537554.3421  -4737372.8157   4222643.9318   1   8   0.0045   0.0111   0.0118  -0.0017  -0.0096   0.0030  -4.00    9.8
2173 288737.000    537554.3402  -4737372.8144   4222643.9335   1   8   0.0044   0.0102   0.0108  -0.0018  -0.0088   0.0024  -3.00    9.9
2173 288738.000    537554.3401  -4737372.8087   4222643.9312   1   8   0.0039   0.0095   0.0100  -0.0018  -0.0081   0.0032  -2.00   10.3
2173 288739.000    537554.3392  -4737372.8111   4222643.9319   1   8   0.0035   0.0090   0.0095  -0.0021  -0.0076   0.0032  -1.00   11.2
2173 288740.000    537554.3379  -4737372.8066   4222643.9298   1   8   0.0030   0.0088   0.0094  -0.0022  -0.0075   0.0028   0.00   11.4
2173 288741.000    537554.3375  -4737372.8112   4222643.9381   1   8   0.0036   0.0088   0.0094  -0.0017  -0.0076   0.0032   0.00   12.1
2173 288742.000    537554.3374  -4737372.8048   4222643.9323   1   8   0.0027   0.0087   0.0093  -0.0019  -0.0076   0.0031   0.00   12.9
2173 288743.000    537554.3398  -4737372.8156   4222643.9411   1   8   0.0043   0.0088   0.0095  -0.0020  -0.0075   0.0026   0.00   13.1
2173 288744.000    537554.3370  -4737372.8149   4222643.9338   1   8   0.0035   0.0088   0.0093  -0.0020  -0.0075   0.0027   0.00   13.7
2173 288745.000    537554.3368  -4737372.8101   4222643.9365   1   8   0.0041   0.0089   0.0095  -0.0018  -0.0076   0.0025   0.00   14.4
2173 288746.000    537554.3373  -4737372.8103   4222643.9312   1   8   0.0038   0.0088   0.0094  -0.0024  -0.0075   0.0027   0.00   14.1
2173 288747.000    537554.3375  -4737372.8087   4222643.9337   1   8   0.0037   0.0088   0.0095  -0.0018  -0.0076   0.0026   0.00   14.2
2173 288748.000    537554.3369  -4737372.8122   4222643.9413   1   8   0.0040   0.0088   0.0094  -0.0023  -0.0075   0.0029   0.00   14.6
2173 288749.000    537554.3346  -4737372.8098   4222643.9259   1   8   0.0034   0.0089   0.0092  -0.0013  -0.0075   0.0026   0.00   14.8
2173 288750.000    537554.3353  -4737372.8097   4222643.9357   1   8   0.0033   0.0088   0.0094  -0.0020  -0.0075   0.0030   0.00   14.8
2173 288751.000    537554.3376  -4737372.8194   4222643.9368   1   8   0.0040   0.0088   0.0094  -0.0017  -0.0075   0.0025   0.00   14.9
2173 288752.000    537554.3358  -4737372.8102   4222643.9296   1   8   0.0025   0.0089   0.0092  -0.0013  -0.0076   0.0032   0.00   14.7
2173 288753.000    537554.3360  -4737372.8141   4222643.9334   1   8   0.0041   0.0087   0.0094  -0.0020  -0.0077   0.0027   0.00   15.1
2173 288754.000    537554.3366  -4737372.8112   4222643.9289   1   8   0.0036   0.0088   0.0095  -0.0019  -0.0075   0.0028   0.00   15.4
2173 288755.000    537554.3353  -4737372.8144   4222643.9353   1   8   0.0034   0.0088   0.0094  -0.0024  -0.0076   0.0024   0.00   14.9
2173 288756.000    537554.3337  -4737372.8094   4222643.9305   1   8   0.0028   0.0087   0.0093  -0.0026  -0.0075   0.0030   0.00   15.3
2173 288757.000    537554.3346  -4737372.8072   4222643.9302   1   8   0.0039   0.0088   0.0094  -0.0024  -0.0076   0.0029   0.00   15.2
2173 288758.000    537554.3355  -4737372.8085   4222643.9258   1   8   0.0037   0.0087   0.0094  -0.0024  -0.0075   0.0036   0.00   15.2
2173 288759.000    537554.3326  -4737372.8112   4222643.9335   1   8   0.0040   0.0088   0.0095  -0.0023  -0.0075   0.0027   0.00   15.2
2173 288760.000    537554.3347  -4737372.8082   4222643.9241   1   8   0.0040   0.0088   0.0095  -0.0013  -0.0075   0.0031   0.00   15.8
2173 288761.000    537554.3368  -4737372.8167   4222643.9347   1   8   0.0038   0.0088   0.0094  -0.0021  -0.0076   0.0031   0.00   16.2
2173 288762.000    537554.3371  -4737372.8118   4222643.9304   1   8   0.0044   0.0089   0.0095  -0.0008  -0.0076   0.0025   0.00   16.7
2173 288763.000    537554.3346  -4737372.8174   4222643.9336   1   8   0.0030   0.0088   0.0095  -0.0024  -0.0076   0.0028   0.00   16.7
2173 288764.000    537554.3400  -4737372.8176   4222643.9375   1   8   0.0034   0.0088   0.0094  -0.0021  -0.0076   0.0030   0.00   16.8
2173 288765.000    537554.3391  -4737372.8106   4222643.9371   1   8   0.0027   0.0088   0.0094  -0.0017  -0.0076   0.0034   0.00   16.9
2173 288766.000    537554.3390  -4737372.8120   4222643.9343   1   8   0.0034   0.0089   0.0094  -0.0011  -0.0076   0.0025   0.00   17.1
2173 288767.000    537554.3377  -4737372.8157   4222643.9331   1   8   0.0040   0.0088   0.0094  -0.0020  -0.0076   0.0026   0.00   17.1
2173 288768.000    537554.3394  -4737372.8175   4222643.9390   1   8   0.0033   0.0088   0.0093  -0.0013  -0.0076   0.0030   0.00   17.3
2173 288769.000    537554.3402  -4737372.8228   4222643.9386   1   8   0.0033   0.0088   0.0095  -0.0024  -0.0076   0.0029   0.00   17.0
2173 288770.000    537554.3407  -4737372.8134   4222643.9340   1   8   0.0037   0.0088   0.0094  -0.0023  -0.0076   0.0033   0.00   17.4
2173 288771.000    537554.3401  -4737372.8174   4222643.9350   1   8   0.0031   0.0088   0.0094  -0.0024  -0.0075   0.0032   0.00   17.4
2173 288772.000    537554.3401  -4737372.8119   4222643.9355   1   8   0.0039   0.0088   0.0095  -0.0017  -0.0076   0.0025   0.00   17.5
2173 288773.000    537554.3383  -4737372.8150   4222643.9375   1   8   0.0036   0.0088   0.0094  -0.0014  -0.0076   0.0035   0.00   17.1
2173 288774.000    537554.3387  -4737372.8091   4222643.9320   1   8   0.0032   0.0088   0.0095  -0.0022  -0.0075   0.0029   0.00   17.3
2173 288775.000    537554.3404  -4737372.8128   4222643.9354   1   8   0.0040   0.0087   0.0096  -0.0027  -0.0076   0.0017   0.00   17.0
2173 288776.000    537554.3391  -4737372.8053   4222643.9317   1   8   0.0037   0.0088   0.0093   0.0006  -0.0076   0.0029   0.00   17.0
2173 288777.000    537554.3374  -4737372.8119   4222643.9320   1   8   0.0038   0.0089   0.0095  -0.0012  -0.0076   0.0023   0.00   16.8
2173 288778.000    537554.3383  -4737372.8164   4222643.9448   1   8   0.0040   0.0089   0.0094  -0.0021  -0.0075   0.0029   0.00   16.8
2173 288779.000    537554.3387  -4737372.8177   4222643.9413   1   8   0.0037   0.0089   0.0093  -0.0019  -0.0075   0.0029   0.00   16.3
2173 288780.000    537554.3386  -4737372.8173   4222643.9382   1   8   0.0038   0.0087   0.0094  -0.0027  -0.0077   0.0034   0.00   16.1
2173 288781.000    537554.3374  -4737372.8087   4222643.9338   1   8   0.0043   0.0088   0.0094  -0.0019  -0.0075   0.0028   0.00   16.3
2173 288782.000    537554.3385  -4737372.8097   4222643.9337   1   8   0.0041   0.0088   0.0094  -0.0021  -0.0076   0.0035   0.00   16.1
2173 288783.000    537554.3383  -4737372.8100   4222643.9296   1   8   0.0027   0.0089   0.0095  -0.0016  -0.0076   0.0028   0.00   16.4
2173 288784.000    537554.3376  -4737372.8110   4222643.9341   1   8   0.0031   0.0089   0.0096  -0.0016  -0.0076   0.0025   0.00   16.4
2173 288785.000    537554.3359  -4737372.8106   4222643.9351   1   8   0.0039   0.0089   0.0094  -0.0019  -0.0076   0.0028   0.00   16.5
2173 288786.000    537554.3370  -4737372.8167   4222643.9360   1   8   0.0037   0.0089   0.0095  -0.0012  -0.0076   0.0025   0.00   16.3
2173 288787.000    537554.3360  -4737372.8121   4222643.9299   1   8   0.0035   0.0088   0.0094  -0.0020  -0.0076   0.0031   0.00   16.1
2173 288788.000    537554.3335  -4737372.8187   4222643.9394   1   8   0.0035   0.0088   0.0095  -0.0006  -0.0077   0.0025   0.00   15.9
2173 288789.000    537554.3364  -4737372.8114   4222643.9383   1   8   0.0035   0.0087   0.0095  -0.0023  -0.0077   0.0028   0.00   16.0
2173 288790.000    537554.3351  -4737372.8094   4222643.9252   1   8   0.0032   0.0088   0.0094  -0.0022  -0.0076   0.0023   0.00   15.6
2173 288791.000    537554.3342  -4737372.8113   4222643.9259   1   8   0.0034   0.0091   0.0097  -0.0019  -0.0077   0.0021   1.00   15.4
2173 288792.000    537554.3350  -4737372.8080   4222643.9323   1   8   0.0039   0.0088   0.0096  -0.0027  -0.0076   0.0028   0.00   15.2
2173 288793.000    537554.3367  -4737372.8151   4222643.9373   1   8   0.0031   0.0088   0.0095  -0.0017  -0.0076   0.0031   0.00   15.1
2173 288794.000    537554.3378  -4737372.8144   4222643.9346   1   8   0.0038   0.0087   0.0095  -0.0025  -0.0076   0.0035   0.00   14.7
2173 288795.000    537554.3374  -4737372.8161   4222643.9369   1   8   0.0039   0.0088   0.0096  -0.0023  -0.0076   0.0028   0.00   14.6
2173 288796.000    537554.3341  -4737372.8103   4222643.9300   1   8   0.0039   0.0088   0.0096  -0.0015  -0.0076   0.0028   0.00   14.7
2173 288797.000    537554.3352  -4737372.8085   4222643.9332   1   8   0.0041   0.0088   0.0094  -0.0020  -0.0076   0.0028   0.00   14.9
2173 288798.000    537554.3380  -4737372.8104   4222643.9330   1   8   0.0039   0.0088   0.0094  -0.0020  -0.0076   0.0029   0.00   14.9
2173 288799.000    537554.3371  -4737372.8158   4222643.9411   1   8   0.0035   0.0088   0.0094  -0.0021  -0.0076   0.0033   0.00   14.9
2173 288800.000    537554.3389  -4737372.8176   4222643.9321   1   8   0.0039   0.0087   0.0094  -0.0023  -0.0076   0.0034   0.00   14.8
2173 288801.000    537554.3372  -4737372.8131   4222643.9343   1   8   0.0040   0.0087   0.0096  -0.0025  -0.0076   0.0026   0.00   14.8
2173 288802.000    537554.3369  -4737372.8163   4222643.9342   1   8   0.0034   0.0088   0.0096  -0.0020  -0.0076   0.0024   0.00   14.8
2173 288803.000    537554.3368  -4737372.8137   4222643.9361   1   8   0.0041   0.0088   0.0096  -0.0023  -0.0077   0.0026   0.00   14.9
2173 288804.000    537554.3378  -4737372.8113   4222643.9338   1   8   0.0039   0.0088   0.0096  -0.0023  -0.0076   0.0025   0.00   15.0
2173 288805.000    537554.3389  -4737372.8195   4222643.9366   1   8   0.0031   0.0088   0.0095  -0.0022  -0.0077   0.0035   0.00   15.0
2173 288806.000    537554.3363  -4737372.8110   4222643.9328   1   8   0.0033   0.0087   0.0096  -0.0026  -0.0076   0.0027   0.00   15.2
2173 288807.000    537554.3387  -4737372.8145   4222643.9350   1   8   0.0034   0.0089   0.0094  -0.0020  -0.0076   0.0033   0.00   15.1
2173 288808.000    537554.3387  -4737372.8166   4222643.9394   1   8   0.0034   0.0089   0.0096  -0.0012  -0.0076   0.0025   0.00   15.0
2173 288809.000    537554.3378  -4737372.8067   4222643.9300   1   8   0.0037   0.0088   0.0094  -0.0022  -0.0077   0.0031   0.00   15.2
2173 288810.000    537554.3378  -4737372.8113   4222643.9319   1   8   0.0042   0.0087   0.0097  -0.0024  -0.0076   0.0022   0.00   15.4
2173 288811.000    537554.3379  -4737372.8113   4222643.9397   1   8   0.0038   0.0088   0.0096  -0.0019  -0.0076   0.0025   0.00   15.4
2173 288812.000    537554.3359  -4737372.8128   4222643.9320   1   8   0.0040   0.0089   0.0096  -0.0018  -0.0076   0.0026   0.00   15.4
2173 288813.000    537554.3366  -4737372.8165   4222643.9352   1   8   0.0038   0.0088   0.0095  -0.0024  -0.0077   0.0031   0.00   15.4
2173 288814.000    537554.3360  -4737372.8140   4222643.9364   1   8   0.0032   0.0089   0.0096  -0.0020  -0.0076   0.0033   0.00   15.6
2173 288815.000    537554.3366  -4737372.8058   4222643.9344   1   8   0.0036   0.0088   0.0095  -0.0019  -0.0076   0.0030   0.00   15.6
2173 288816.000    537554.3366  -4737372.8101   4222643.9341   1   8   0.0031   0.0089   0.0096  -0.0016  -0.0076   0.0032   0.00   15.6
2173 288817.000    537554.3394  -4737372.8194   4222643.9404   1   8   0.0029   0.0088   0.0094  -0.0020  -0.0077   0.0037   0.00   15.5
2173 288818.000    537554.3367  -4737372.8103   4222643.9349   1   8   0.0041   0.0087   0.0095  -0.0024  -0.0076   0.0025   0.00   15.6
2173 288819.000    537554.3369  -4737372.8150   4222643.9418   1   8   0.0036   0.0088   0.0095  -0.0021  -0.0076   0.0032   0.00   15.4
2173 288820.000    537554.3386  -4737372.8179   4222643.9372   1   8   0.0037   0.0088   0.0095  -0.0025  -0.0077   0.0026   0.00   15.4
2173 288821.000    537554.3369  -4737372.8216   4222643.9424   1   8   0.0030   0.0087   0.0095  -0.0022  -0.0077   0.0037   0.00   15.5
2173 288822.000    537554.3372  -4737372.8201   4222643.9429   1   8   0.0037   0.0088   0.0095  -0.0014  -0.0076   0.0030   0.00   15.5
2173 288823.000    537554.3366  -4737372.8181   4222643.9397   1   8   0.0044   0.0087   0.0096  -0.0026  -0.0077   0.0028   0.00   15.5
2173 288824.000    537554.3352  -4737372.8157   4222643.9395   1   8   0.0042   0.0088   0.0097  -0.0018  -0.0076   0.0023   0.00   15.6
2173 288825.000    537554.3344  -4737372.8120   4222643.9326   1   8   0.0033   0.0088   0.0094  -0.0017  -0.0077   0.0031   0.00   15.6
2173 288826.000    537554.3359  -4737372.8145   4222643.9322   1   8   0.0039   0.0089   0.0095  -0.0023  -0.0076   0.0032   0.00   15.7
2173 288827.000    537554.3378  -4737372.8127   4222643.9322   1   8   0.0036   0.0088   0.0096  -0.0023  -0.0076   0.0031   0.00   15.8
2173 288828.000    537554.3344  -4737372.8087   4222643.9296   1   8   0.0037   0.0089   0.0095  -0.0018  -0.0075   0.0027   0.00   15.9
2173 288829.000    537554.3368  -4737372.8162   4222643.9379   1   8   0.0040   0.0088   0.0098  -0.0027  -0.0076   0.0023   0.00   16.1
2173 288830.000    537554.3384  -4737372.8190   4222643.9418   1   8   0.0039   0.0088   0.0096  -0.0014  -0.0077   0.0029   0.00   16.4
2173 288831.000    537554.3361  -4737372.8121   4222643.9364   1   8   0.0035   0.0088   0.0096  -0.0020  -0.0076   0.0027   0.00   16.7
2173 288832.000    537554.3391  -4737372.8141   4222643.9346   1   8   0.0042   0.0088   0.0096  -0.0025  -0.0077   0.0024   0.00   16.8
2173 288833.000    537554.3359  -4737372.8168   4222643.9363   1   8   0.0040   0.0088   0.0097  -0.0025  -0.0077   0.0023   0.00   17.0
2173 288834.000    537554.3369  -4737372.8105   4222643.9316   1   8   0.0043   0.0088   0.0096  -0.0023  -0.0077   0.0024   0.00   17.2
2173 288835.000    537554.3352  -4737372.8069   4222643.9330   1   8   0.0030   0.0087   0.0094  -0.0028  -0.0077   0.0038   0.00   17.5
2173 288836.000    537554.3368  -4737372.8156   4222643.9380   1   8   0.0043   0.0089   0.0096  -0.0012  -0.0077   0.0028   0.00   17.7
2173 288837.000    537554.3351  -4737372.8126   4222643.9388   1   8   0.0038   0.0088   0.0095  -0.0017  -0.0077   0.0029   0.00   17.8
2173 288838.000    537554.3392  -4737372.8077   4222643.9326   1   8   0.0035   0.0088   0.0096  -0.0024  -0.0077   0.0030   0.00   18.1
2173 288839.000    537554.3366  -4737372.8105   4222643.9320   1   8   0.0030   0.0088   0.0096  -0.0028  -0.0076   0.0024   0.00   18.2
2173 288840.000    537554.3370  -4737372.8081   4222643.9330   1   8   0.0038   0.0089   0.0095  -0.0025  -0.0076   0.0030   0.00   18.4
2173 288841.000    537554.3392  -4737372.8120   4222643.9403   1   8   0.0042   0.0088   0.0095  -0.0019  -0.0077   0.0026   0.00   18.5
2173 288842.000    537554.3352  -4737372.8098   4222643.9382   1   8   0.0037   0.0089   0.0096  -0.0020  -0.0076   0.0026   0.00   18.6
2173 288843.000    537554.3369  -4737372.8089   4222643.9366   1   8   0.0032   0.0089   0.0094  -0.0023  -0.0076   0.0035   0.00   18.7
2173 288844.000    537554.3351  -4737372.8137   4222643.9312   1   8   0.0039   0.0089   0.0095  -0.0017  -0.0077   0.0030   0.00   18.9
2173 288845.000    537554.3391  -4737372.8191   4222643.9477   1   8   0.0040   0.0088   0.0096  -0.0022  -0.0076   0.0028   0.00   18.9
2173 288846.000    537554.3383  -4737372.8194   4222643.9432   1   8   0.0039   0.0089   0.0097  -0.0021  -0.0076   0.0024   0.00   19.1
2173 288847.000    537554.3389  -4737372.8173   4222643.9373   1   8   0.0035   0.0088   0.0096  -0.0017  -0.0078   0.0030   0.00   19.1
2173 288848.000    537554.3376  -4737372.8150   4222643.9364   1   8   0.0032   0.0088   0.0095  -0.0011  -0.0077   0.0031   0.00   19.2
2173 288849.000    537554.3398  -4737372.8203   4222643.9394   1   8   0.0033   0.0088   0.0096  -0.0024  -0.0076   0.0032   0.00   19.3
2173 288850.000    537554.3391  -4737372.8213   4222643.9447   1   8   0.0035   0.0089   0.0096  -0.0017  -0.0077   0.0028   0.00   19.5
2173 288851.000    537554.3381  -4737372.8200   4222643.9458   1   8   0.0036   0.0088   0.0096  -0.0023  -0.0077   0.0023   0.00   19.6
2173 288852.000    537554.3396  -4737372.8240   4222643.9465   1   8   0.0044   0.0088   0.0097  -0.0022  -0.0076   0.0025   0.00   19.7
2173 288853.000    537554.3363  -4737372.8190   4222643.9436   1   8   0.0034   0.0088   0.0095  -0.0022  -0.0076   0.0033   0.00   20.0
2173 288854.000    537554.3393  -4737372.8213   4222643.9441   1   8   0.0040   0.0088   0.0096  -0.0026  -0.0077   0.0031   0.00   20.0
2173 288855.000    537554.3367  -4737372.8223   4222643.9426   1   8   0.0041   0.0087   0.0096  -0.0025  -0.0078   0.0029   0.00   20.2
2173 288856.000    537554.3372  -4737372.8202   4222643.9460   1   8   0.0030   0.0088   0.0096  -0.0020  -0.0077   0.0030   0.00   20.3
2173 288857.000    537554.3366  -4737372.8199   4222643.9414   1   8   0.0037   0.0088   0.0096  -0.0028  -0.0077   0.0021   0.00   20.4
2173 288858.000    537554.3405  -4737372.8182   4222643.9420   1   8   0.0038   0.0090   0.0096  -0.0016  -0.0076   0.0022   0.00   20.4
2173 288859.000    537554.3378  -4737372.8163   4222643.9383   1   8   0.0044   0.0089   0.0097  -0.0012  -0.0077   0.0027   0.00   20.4
2173 288860.000    537554.3374  -4737372.8112   4222643.9357   1   8   0.0040   0.0087   0.0096  -0.0026  -0.0077   0.0030   0.00   20.4
2173 288861.000    537554.3380  -4737372.8147   4222643.9340   1   8   0.0037   0.0089   0.0096  -0.0018  -0.0077   0.0027   0.00   20.4
2173 288862.000    537554.3385  -4737372.8180   4222643.9382   1   8   0.0040   0.0089   0.0096  -0.0011  -0.0077   0.0033   0.00   20.5
2173 288863.000    537554.3402  -4737372.8118   4222643.9364   1   8   0.0039   0.0088   0.0096  -0.0023  -0.0077   0.0032   0.00   20.6
2173 288864.000    537554.3394  -4737372.8156   4222643.9430   1   8   0.0029   0.0089   0.0096  -0.0019  -0.0077   0.0034   0.00   20.8
2173 288865.000    537554.3406  -4737372.8203   4222643.9396   1   8   0.0032   0.0089   0.0095  -0.0017  -0.0077   0.0033   0.00   20.9
2173 288866.000    537554.3396  -4737372.8131   4222643.9333   1   8   0.0033   0.0088   0.0096  -0.0025  -0.0077   0.0035   0.00   21.0
2173 288867.000    537554.3417  -4737372.8100   4222643.9415   1   8   0.0033   0.0087   0.0096  -0.0030  -0.0077   0.0032   0.00   21.2
2173 288868.000    537554.3386  -4737372.8165   4222643.9336   1   8   0.0038   0.0088   0.0097  -0.0021  -0.0077   0.0033   0.00   21.5
2173 288869.000    537554.3414  -4737372.8150   4222643.9325   1   8   0.0040   0.0088   0.0097  -0.0027  -0.0077   0.0026   0.00   21.6
2173 288870.000    537554.3419  -4737372.8197   4222643.9358   1   8   0.0034   0.0089   0.0097  -0.0026  -0.0076   0.0034   0.00   21.7
2173 288871.000    537554.3409  -4737372.8187   4222643.9390   1   8   0.0039   0.0089   0.0096  -0.0022  -0.0076   0.0031   0.00   21.7
2173 288872.000    537554.3418  -4737372.8184   4222643.9461   1   8   0.0037   0.0088   0.0096  -0.0024  -0.0077   0.0033   0.00   21.7
2173 288873.000    537554.3412  -4737372.8207   4222643.9413   1   8   0.0039   0.0088   0.0096  -0.0025  -0.0077   0.0029   0.00   21.9
2173 288874.000    537554.3419  -4737372.8234   4222643.9489   1   8   0.0036   0.0089   0.0097  -0.0021  -0.0078   0.0028   0.00   22.0
2173 288875.000    537554.3367  -4737372.8196   4222643.9439   1   8   0.0036   0.0088   0.0097  -0.0025  -0.0077   0.0028   0.00   22.1
2173 288876.000    537554.3390  -4737372.8209   4222643.9411   1   8   0.0033   0.0088   0.0096  -0.0023  -0.0078   0.0033   0.00   22.0
2173 288877.000    537554.3400  -4737372.8101   4222643.9433   1   8   0.0025   0.0087   0.0096  -0.0023  -0.0078   0.0033   0.00   22.2
2173 288878.000    537554.3384  -4737372.8155   4222643.9424   1   8   0.0041   0.0088   0.0097  -0.0020  -0.0077   0.0031   0.00   22.3
2173 288879.000    537554.3366  -4737372.8185   4222643.9461   1   8   0.0037   0.0088   0.0098  -0.0026  -0.0077   0.0025   0.00   22.4
2173 288880.000    537554.3406  -4737372.8149   4222643.9400   1   8   0.0039   0.0088   0.0097  -0.0022  -0.0077   0.0025   0.00   22.7
2173 288881.000    537554.3416  -4737372.8124   4222643.9444   1   8   0.0043   0.0090   0.0099  -0.0024  -0.0078   0.0026   1.00   22.9
2173 288882.000    537554.3388  -4737372.8157   4222643.9386   1   8   0.0043   0.0088   0.0097  -0.0025  -0.0076   0.0024   0.00   23.3
2173 288883.000    537554.3383  -4737372.8112   4222643.9317   1   8   0.0035   0.0088   0.0096  -0.0029  -0.0076   0.0025   0.00   23.3
2173 288884.000    537554.3420  -4737372.8227   4222643.9448   1   8   0.0039   0.0088   0.0097  -0.0021  -0.0077   0.0028   0.00   23.5
2173 288885.000    537554.3397  -4737372.8175   4222643.9451   1   8   0.0033   0.0088   0.0095  -0.0020  -0.0077   0.0036   0.00   23.7
2173 288886.000    537554.3405  -4737372.8175   4222643.9440   1   8   0.0031   0.0089   0.0095  -0.0017  -0.0078   0.0033   0.00   23.8
2173 288887.000    537554.3404  -4737372.8220   4222643.9468   1   8   0.0039   0.0087   0.0097  -0.0022  -0.0078   0.0029   0.00   23.9
2173 288888.000    537554.3396  -4737372.8160   4222643.9448   1   8   0.0037   0.0089   0.0097  -0.0019  -0.0078   0.0026   0.00   23.9
2173 288889.000    537554.3421  -4737372.8238   4222643.9476   1   8   0.0031   0.0089   0.0096  -0.0019  -0.0077   0.0026   0.00   24.0
2173 288890.000    537554.3389  -4737372.8191   4222643.9415   1   8   0.0033   0.0089   0.0097  -0.0013  -0.0078   0.0031   0.00   24.1
2173 288891.000    537554.3378  -4737372.8128   4222643.9370   1   8   0.0034   0.0088   0.0097  -0.0027  -0.0077   0.0029   0.00   24.4
2173 288892.000    537554.3388  -4737372.8162   4222643.9383   1   8   0.0035   0.0088   0.0095  -0.0018  -0.0078   0.0032   0.00   24.6
2173 288893.000    537554.3382  -4737372.8195   4222643.9381   1   8   0.0030   0.0088   0.0097  -0.0021  -0.0078   0.0026   0.00   24.7
2173 288894.000    537554.3400  -4737372.8182   4222643.9388   1   8   0.0041   0.0089   0.0097  -0.0023  -0.0077   0.0033   0.00   24.8
2173 288895.000    537554.3400  -4737372.8167   4222643.9417   1   8   0.0041   0.0088   0.0097  -0.0025  -0.0077   0.0032   0.00   25.1
2173 288896.000    537554.3389  -4737372.8166   4222643.9366   1   8   0.0032   0.0088   0.0096  -0.0025  -0.0077   0.0034   0.00   25.4
2173 288897.000    537554.3387  -4737372.8153   4222643.9364   1   8   0.0034   0.0089   0.0096  -0.0015  -0.0077   0.0025   0.00   25.5
2173 288898.000    537554.3361  -4737372.8200   4222643.9391   1   8   0.0035   0.0088   0.0096  -0.0025  -0.0078   0.0033   0.00   25.4
2173 288899.000    537554.3403  -4737372.8276   4222643.9484   1   8   0.0038   0.0088   0.0096  -0.0029  -0.0077   0.0030   0.00   25.3
2173 288900.000    537554.3377  -4737372.8155   4222643.9370   1   8   0.0039   0.0089   0.0097  -0.0019  -0.0078   0.0025   0.00   25.3
2173 288901.000    537554.3353  -4737372.8185   4222643.9405   1   8   0.0038   0.0088   0.0097  -0.0025  -0.0077   0.0030   0.00   25.3
2173 288902.000    537554.3377  -4737372.8205   4222643.9419   1   8   0.0045   0.0088   0.0099  -0.0027  -0.0078   0.0023   0.00   25.2
2173 288903.000    537554.3383  -4737372.8249   4222643.9479   1   8   0.0035   0.0088   0.0097  -0.0024  -0.0077   0.0025   0.00   25.0
2173 288904.000    537554.3366  -4737372.8226   4222643.9435   1   8   0.0037   0.0088   0.0097  -0.0023  -0.0077   0.0027   0.00   25.1
2173 288905.000    537554.3371  -4737372.8235   4222643.9430   1   8   0.0038   0.0089   0.0097  -0.0019  -0.0077   0.0033   0.00   25.1
2173 288906.000    537554.3378  -4737372.8170   4222643.9404   1   8   0.0030   0.0088   0.0096  -0.0028  -0.0077   0.0030   0.00   25.1
2173 288907.000    537554.3401  -4737372.8176   4222643.9392   1   8   0.0034   0.0089   0.0097  -0.0019  -0.0078   0.0028   0.00   25.3
2173 288908.000    537554.3380  -4737372.8249   4222643.9478   1   8   0.0036   0.0089   0.0097  -0.0017  -0.0077   0.0029   0.00   25.4
2173 288909.000    537554.3376  -4737372.8213   4222643.9444   1   8   0.0046   0.0088   0.0098  -0.0024  -0.0077   0.0025   0.00   25.3
2173 288910.000    537554.3390  -4737372.8245   4222643.9460   1   8   0.0038   0.0088   0.0096  -0.0019  -0.0078   0.0030   0.00   25.4
2173 288911.000    537554.3370  -4737372.8150   4222643.9400   1   8   0.0031   0.0089   0.0097  -0.0017  -0.0078   0.0032   0.00   25.5
2173 288912.000    537554.3387  -4737372.8233   4222643.9495   1   8   0.0040   0.0088   0.0099  -0.0023  -0.0078   0.0023   0.00   25.5
2173 288913.000    537554.3356  -4737372.8162   4222643.9359   1   8   0.0033   0.0089   0.0097  -0.0026  -0.0077   0.0034   0.00   25.5
2173 288914.000    537554.3398  -4737372.8212   4222643.9430   1   8   0.0038   0.0090   0.0097  -0.0014  -0.0077   0.0032   0.00   25.6
2173 288915.000    537554.3388  -4737372.8195   4222643.9415   1   8   0.0027   0.0088   0.0098  -0.0021  -0.0078   0.0031   0.00   25.8
2173 288916.000    537554.3379  -4737372.8217   4222643.9465   1   8   0.0032   0.0089   0.0096  -0.0018  -0.0078   0.0038   0.00   26.0
2173 288917.000    537554.3398  -4737372.8175   4222643.9402   1   8   0.0035   0.0089   0.0098  -0.0020  -0.0077   0.0029   0.00   26.0
2173 288918.000    537554.3402  -4737372.8138   4222643.9404   1   8   0.0032   0.0089   0.0097  -0.0024  -0.0078   0.0032   0.00   26.2
2173 288919.000    537554.3377  -4737372.8107   4222643.9340   1   8   0.0040   0.0088   0.0099  -0.0023  -0.0078   0.0023   0.00   26.4
2173 288920.000    537554.3368  -4737372.8109   4222643.9363   1   8   0.0036   0.0088   0.0097  -0.0029  -0.0077   0.0030   0.00   26.6
2173 288921.000    537554.3363  -4737372.8137   4222643.9375   1   8   0.0035   0.0089   0.0097  -0.0020  -0.0077   0.0028   0.00   26.7
2173 288922.000    537554.3382  -4737372.8101   4222643.9348   1   8   0.0036   0.0089   0.0098  -0.0024  -0.0077   0.0027   0.00   26.7
2173 288923.000    537554.3391  -4737372.8147   4222643.9439   1   8   0.0039   0.0089   0.0098  -0.0024  -0.0078   0.0025   0.00   26.9
2173 288924.000    537554.3369  -4737372.8112   4222643.9397   1   8   0.0040   0.0089   0.0097  -0.0021  -0.0078   0.0026   0.00   27.1
2173 288925.000    537554.3378  -4737372.8181   4222643.9472   1   8   0.0037   0.0088   0.0098  -0.0024  -0.0078   0.0028   0.00   27.1
2173 288926.000    537554.3362  -4737372.8122   4222643.9381   1   8   0.0031   0.0088   0.0097  -0.0028  -0.0078   0.0031   0.00   27.2
2173 288927.000    537554.3369  -4737372.8121   4222643.9338   1   8   0.0030   0.0089   0.0096  -0.0017  -0.0077   0.0033   0.00   27.4
2173 288928.000    537554.3348  -4737372.8142   4222643.9416   1   8   0.0038   0.0088   0.0098  -0.0028  -0.0078   0.0027   0.00   27.6
2173 288929.000    537554.3346  -4737372.8067   4222643.9396   1   8   0.0029   0.0089   0.0096  -0.0019  -0.0077   0.0031   0.00   27.6
2173 288930.000    537554.3343  -4737372.8079   4222643.9354   1   8   0.0039   0.0089   0.0098  -0.0015  -0.0079   0.0025   0.00   27.8
2173 288931.000    537554.3337  -4737372.8090   4222643.9334   1   8   0.0041   0.0089   0.0098  -0.0020  -0.0078   0.0029   0.00   28.0
2173 288932.000    537554.3349  -4737372.8129   4222643.9408   1   8   0.0029   0.0088   0.0097  -0.0027  -0.0077   0.0023   0.00   27.9
2173 288933.000    537554.3349  -4737372.8134   4222643.9377   1   8   0.0035   0.0089   0.0098  -0.0024  -0.0078   0.0027   0.00   27.9
2173 288934.000    537554.3357  -4737372.8197   4222643.9403   1   8   0.0037   0.0088   0.0096  -0.0016  -0.0078   0.0030   0.00   27.9
2173 288935.000    537554.3371  -4737372.8125   4222643.9396   1   8   0.0028   0.0089   0.0096  -0.0015  -0.0078   0.0035   0.00   28.1
2173 288936.000    537554.3367  -4737372.8194   4222643.9414   1   8   0.0041   0.0089   0.0098  -0.0018  -0.0078   0.0021   0.00   28.0
2173 288937.000    537554.3364  -4737372.8103   4222643.9316   1   8   0.0030   0.0089   0.0098  -0.0021  -0.0077   0.0028   0.00   27.9
2173 288938.000    537554.3375  -4737372.8143   4222643.9441   1   8   0.0029   0.0089   0.0096  -0.0024  -0.0077   0.0031   0.00   27.9
2173 288939.000    537554.3376  -4737372.8178   4222643.9445   1   8   0.0039   0.0088   0.0098  -0.0024  -0.0078   0.0030   0.00   28.0
2173 288940.000    537554.3378  -4737372.8139   4222643.9373   1   8   0.0041   0.0088   0.0098  -0.0023  -0.0078   0.0025   0.00   28.0
2173 288941.000    537554.3349  -4737372.8159   4222643.9454   1   8   0.0042   0.0088   0.0097  -0.0028  -0.0078   0.0022   0.00   28.0
2173 288942.000    537554.3319  -4737372.8144   4222643.9356   1   8   0.0033   0.0090   0.0096  -0.0014  -0.0078   0.0032   0.00   28.1
2173 288943.000    537554.3354  -4737372.8153   4222643.9353   1   8   0.0033   0.0089   0.0097  -0.0020  -0.0078   0.0031   0.00   28.0
2173 288944.000    537554.3347  -4737372.8185   4222643.9395   1   8   0.0039   0.0089   0.0097  -0.0022  -0.0078   0.0029   0.00   28.2
2173 288945.000    537554.3347  -4737372.8154   4222643.9352   1   8   0.0037   0.0088   0.0097  -0.0023  -0.0078   0.0030   0.00   28.3
2173 288946.000    537554.3355  -4737372.8176   4222643.9356   1   8   0.0039   0.0089   0.0098  -0.0017  -0.0078   0.0029   0.00   28.3
2173 288947.000    537554.3346  -4737372.8155   4222643.9364   1   8   0.0039   0.0089   0.0098  -0.0027  -0.0077   0.0026   0.00   28.3
2173 288948.000    537554.3350  -4737372.8148   4222643.9406   1   8   0.0031   0.0088   0.0097  -0.0024  -0.0078   0.0028   0.00   28.3
2173 288949.000    537554.3372  -4737372.8165   4222643.9413   1   8   0.0039   0.0088   0.0099  -0.0029  -0.0078   0.0023   0.00   28.4
2173 288950.000    537554.3353  -4737372.8232   4222643.9430   1   8   0.0039   0.0089   0.0097  -0.0017  -0.0078   0.0028   0.00   28.4
2173 288951.000    537554.3380  -4737372.8211   4222643.9425   1   8   0.0033   0.0088   0.0097  -0.0021  -0.0079   0.0028   0.00   28.4
2173 288952.000    537554.3358  -4737372.8133   4222643.9380   1   8   0.0038   0.0089   0.0097  -0.0020  -0.0078   0.0031   0.00   28.5
2173 288953.000    537554.3344  -4737372.8235   4222643.9474   1   8   0.0037   0.0089   0.0098  -0.0021  -0.0078   0.0028   0.00   28.5
2173 288954.000    537554.3348  -4737372.8193   4222643.9465   1   8   0.0033   0.0088   0.0096  -0.0028  -0.0078   0.0032   0.00   28.5
2173 288955.000    537554.3375  -4737372.8161   4222643.9401   1   8   0.0036   0.0089   0.0097  -0.0019  -0.0078   0.0034   0.00   28.5
2173 288956.000    537554.3347  -4737372.8173   4222643.9406   1   8   0.0033   0.0089   0.0097  -0.0019  -0.0078   0.0033   0.00   28.4
2173 288957.000    537554.3360  -4737372.8136   4222643.9301   1   8   0.0042   0.0089   0.0099  -0.0019  -0.0079   0.0024   0.00   28.5
2173 288958.000    537554.3392  -4737372.8216   4222643.9347   1   8   0.0031   0.0088   0.0098  -0.0022  -0.0078   0.0030   0.00   28.5
2173 288959.000    537554.3340  -4737372.8248   4222643.9450   1   8   0.0036   0.0089   0.0099  -0.0020  -0.0079   0.0025   0.00   28.5
2173 288960.000    537554.3342  -4737372.8149   4222643.9411   1   8   0.0035   0.0088   0.0098  -0.0029  -0.0078   0.0030   0.00   28.5
2173 288961.000    537554.3330  -4737372.8205   4222643.9400   1   8   0.0035   0.0088   0.0097  -0.0026  -0.0078   0.0032   0.00   28.6
2173 288962.000    537554.3334  -4737372.8170   4222643.9397   1   8   0.0036   0.0088   0.0097  -0.0024  -0.0079   0.0031   0.00   28.5
2173 288963.000    537554.3378  -4737372.8158   4222643.9420   1   8   0.0042   0.0090   0.0098  -0.0016  -0.0078   0.0028   0.00   28.6
2173 288964.000    537554.3364  -4737372.8197   4222643.9459   1   8   0.0035   0.0089   0.0098  -0.0022  -0.0078   0.0036   0.00   28.7
2173 288965.000    537554.3358  -4737372.8193   4222643.9398   1   8   0.0032   0.0090   0.0098  -0.0012  -0.0078   0.0027   0.00   28.6
2173 288966.000    537554.3335  -4737372.8190   4222643.9432   1   8   0.0029   0.0089   0.0098  -0.0022  -0.0078   0.0028   0.00   28.6
2173 288967.000    537554.3343  -4737372.8162   4222643.9350   1   8   0.0030   0.0089   0.0098  -0.0020  -0.0079   0.0031   0.00   28.6
2173 288968.000    537554.3346  -4737372.8180   4222643.9451   1   8   0.0042   0.0089   0.0097  -0.0025  -0.0078   0.0027   0.00   28.6
2173 288969.000    537554.3354  -4737372.8180   4222643.9357   1   8   0.0038   0.0088   0.0098  -0.0027  -0.0079   0.0030   0.00   28.5
2173 288970.000    537554.3357  -4737372.8190   4222643.9420   1   8   0.0037   0.0089   0.0097  -0.0023  -0.0078   0.0032   0.00   28.5
2173 288971.000    537554.3387  -4737372.8307   4222643.9539   1   8   0.0037   0.0089   0.0097  -0.0020  -0.0079   0.0031   0.00   28.5
2173 288972.000    537554.3364  -4737372.8231   4222643.9401   1   8   0.0028   0.0088   0.0097  -0.0024  -0.0078   0.0031   0.00   28.4
2173 288973.000    537554.3387  -4737372.8297   4222643.9524   1   8   0.0036   0.0089   0.0098  -0.0023  -0.0078   0.0025   0.00   28.5
2173 288974.000    537554.2488  -4737372.6856   4222643.9255   2   8   0.0217   0.0372   0.0266  -0.0103  -0.0217   0.0082   0.00    1.3
2173 288975.000    537554.2468  -4737372.6869   4222643.9245   2   8   0.0214   0.0370   0.0254  -0.0100  -0.0211   0.0075   0.00    1.7
2173 288976.000    537554.2486  -4737372.6928   4222643.9338   2   8   0.0214   0.0368   0.0250  -0.0099  -0.0208   0.0072   0.00    2.0
2173 288977.000    537554.2446  -4737372.6799   4222643.9163   2   8   0.0212   0.0367   0.0247  -0.0095  -0.0206   0.0068   0.00    2.3
2173 288978.000    537554.2482  -4737372.6894   4222643.9286   2   8   0.0212   0.0366   0.0245  -0.0097  -0.0205   0.0066   0.00    2.6
2173 288979.000    537554.2428  -4737372.6810   4222643.9206   2   8   0.0213   0.0365   0.0243  -0.0097  -0.0204   0.0066   0.00    2.9
2173 288980.000    537554.3364  -4737372.8250   4222643.9507   1   8   0.0035   0.0088   0.0098  -0.0024  -0.0079   0.0032   0.00    3.2
2173 288981.000    537554.3366  -4737372.8197   4222643.9405   1   8   0.0036   0.0089   0.0097  -0.0019  -0.0078   0.0036   0.00    3.5
2173 288982.000    537554.3380  -4737372.8212   4222643.9420   1   8   0.0040   0.0089   0.0098  -0.0022  -0.0079   0.0027   0.00    3.8
2173 288983.000    537554.3340  -4737372.8173   4222643.9361   1   8   0.0035   0.0089   0.0098  -0.0020  -0.0078   0.0030   0.00    4.0
2173 288984.000    537554.3346  -4737372.8214   4222643.9461   1   8   0.0035   0.0088   0.0098  -0.0025  -0.0079   0.0035   0.00    4.3
2173 288985.000    537554.3344  -4737372.8187   4222643.9414   1   8   0.0039   0.0089   0.0098  -0.0026  -0.0078   0.0026   0.00    4.5
2173 288986.000    537554.3353  -4737372.8143   4222643.9394   1   8   0.0039   0.0089   0.0097  -0.0024  -0.0079   0.0030   0.00    4.8
2173 288987.000    537554.3340  -4737372.8138   4222643.9388   1   8   0.0039   0.0089   0.0099  -0.0022  -0.0078   0.0028   0.00    5.1
2173 288988.000    537554.3353  -4737372.8131   4222643.9427   1   8   0.0040   0.0089   0.0099  -0.0020  -0.0079   0.0027   0.00    5.4
2173 288989.000    537554.3343  -4737372.8202   4222643.9513   1   8   0.0034   0.0089   0.0098  -0.0023  -0.0078   0.0031   0.00    5.7
2173 288990.000    537554.3338  -4737372.8190   4222643.9422   1   8   0.0040   0.0088   0.0099  -0.0019  -0.0080   0.0029   0.00    6.0
2173 288991.000    537554.3337  -4737372.8127   4222643.9367   1   8   0.0036   0.0089   0.0099  -0.0024  -0.0078   0.0024   0.00    6.2
2173 288992.000    537554.3347  -4737372.8147   4222643.9451   1   8   0.0032   0.0089   0.0098  -0.0018  -0.0079   0.0032   0.00    6.6
2173 288993.000    537554.3354  -4737372.8197   4222643.9447   1   8   0.0040   0.0088   0.0097  -0.0022  -0.0079   0.0033   0.00    6.9
2173 288994.000    537554.3315  -4737372.8071   4222643.9298   1   8   0.0039   0.0088   0.0098  -0.0026  -0.0079   0.0025   0.00    7.1
2173 288995.000    537554.3307  -4737372.8117   4222643.9335   1   8   0.0038   0.0088   0.0100  -0.0025  -0.0079   0.0023   0.00    7.4
2173 288996.000    537554.3344  -4737372.8148   4222643.9445   1   8   0.0034   0.0089   0.0098  -0.0025  -0.0079   0.0028   0.00    7.7
2173 288997.000    537554.3341  -4737372.8146   4222643.9395   1   8   0.0034   0.0087   0.0098  -0.0028  -0.0079   0.0030   0.00    7.9
2173 288998.000    537554.3337  -4737372.8043   4222643.9237   1   8   0.0041   0.0090   0.0099  -0.0014  -0.0079   0.0026   0.00    8.2
2173 288999.000    537554.3364  -4737372.8149   4222643.9375   1   8   0.0030   0.0089   0.0098  -0.0020  -0.0079   0.0032   0.00    8.6
2173 289000.000    537554.3353  -4737372.8123   4222643.9332   1   8   0.0041   0.0089   0.0099  -0.0021  -0.0078   0.0027   0.00    8.8
2173 289001.000    537554.3358  -4737372.8163   4222643.9394   1   8   0.0039   0.0089   0.0099  -0.0021  -0.0078   0.0025   0.00    9.0
2173 289002.000    537554.3335  -4737372.8185   4222643.9414   1   8   0.0031   0.0089   0.0097  -0.0017  -0.0079   0.0034   0.00    9.4
2173 289003.000    537554.3316  -4737372.8062   4222643.9243   1   8   0.0041   0.0088   0.0098  -0.0023  -0.0079   0.0032   0.00    9.6
2173 289004.000    537554.3360  -4737372.8134   4222643.9366   1   8   0.0034   0.0089   0.0098  -0.0025  -0.0079   0.0030   0.00    9.9
2173 289005.000    537554.3347  -4737372.8162   4222643.9409   1   8   0.0035   0.0089   0.0098  -0.0019  -0.0079   0.0029   0.00   10.2
2173 289006.000    537554.3343  -4737372.8103   4222643.9284   1   8   0.0041   0.0089   0.0100  -0.0023  -0.0079   0.0026   0.00   10.4
2173 289007.000    537554.3336  -4737372.8085   4222643.9300   1   8   0.0036   0.0089   0.0098  -0.0019  -0.0079   0.0037   0.00   10.7
2173 289008.000    537554.3344  -4737372.8198   4222643.9434   1   8   0.0041   0.0089   0.0099  -0.0027  -0.0078   0.0031   0.00   11.0
2173 289009.000    537554.3364  -4737372.8137   4222643.9347   1   8   0.0038   0.0089   0.0099  -0.0020  -0.0079   0.0026   0.00   11.2
2173 289010.000    537554.3353  -4737372.8123   4222643.9363   1   8   0.0042   0.0089   0.0100  -0.0021  -0.0079   0.0027   0.00   11.5
2173 289011.000    537554.3386  -4737372.8186   4222643.9379   1   8   0.0041   0.0089   0.0099  -0.0024  -0.0079   0.0029   0.00   11.7
2173 289012.000    537554.3369  -4737372.8194   4222643.9404   1   8   0.0035   0.0089   0.0100  -0.0021  -0.0079   0.0030   0.00   11.9
2173 289013.000    537554.3389  -4737372.8131   4222643.9336   1   8   0.0036   0.0089   0.0099  -0.0021  -0.0080   0.0031   0.00   12.2
2173 289014.000    537554.3379  -4737372.8145   4222643.9370   1   8   0.0031   0.0089   0.0098  -0.0023  -0.0078   0.0029   0.00   12.4
2173 289015.000    537554.3367  -4737372.8170   4222643.9414   1   8   0.0039   0.0089   0.0099  -0.0021  -0.0079   0.0028   0.00   12.7
2173 289016.000    537554.3373  -4737372.8072   4222643.9347   1   8   0.0039   0.0089   0.0100  -0.0021  -0.0079   0.0026   0.00   13.1
2173 289017.000    537554.3361  -4737372.8153   4222643.9371   1   8   0.0043   0.0089   0.0098  -0.0020  -0.0079   0.0028   0.00   13.3
2173 289018.000    537554.3357  -4737372.8094   4222643.9322   1   8   0.0036   0.0089   0.0100  -0.0027  -0.0077   0.0025   0.00   13.5
2173 289019.000    537554.3389  -4737372.8153   4222643.9427   1   8   0.0037   0.0089   0.0099  -0.0018  -0.0080   0.0028   0.00   13.8
2173 289020.000    537554.3353  -4737372.8110   4222643.9348   1   8   0.0021   0.0088   0.0099  -0.0029  -0.0080   0.0034   0.00   14.0
2173 289021.000    537554.3367  -4737372.8196   4222643.9456   1   8   0.0037   0.0089   0.0098  -0.0027  -0.0079   0.0029   0.00   14.3
2173 289022.000    537554.3377  -4737372.8193   4222643.9452   1   8   0.0033   0.0090   0.0098  -0.0018  -0.0079   0.0031   0.00   14.5
2173 289023.000    537554.3376  -4737372.8149   4222643.9406   1   8   0.0040   0.0089   0.0099  -0.0022  -0.0079   0.0029   0.00   14.6
2173 289024.000    537554.3377  -4737372.8080   4222643.9362   1   8   0.0043   0.0088   0.0101  -0.0026  -0.0079   0.0014   0.00   14.8
2173 289025.000    537554.3348  -4737372.8113   4222643.9415   1   8   0.0044   0.0090   0.0100  -0.0022  -0.0079   0.0015   0.00   15.1
2173 289026.000    537554.3371  -4737372.8105   4222643.9405   1   8   0.0043   0.0089   0.0100  -0.0026  -0.0079   0.0023   0.00   15.3
2173 289027.000    537554.3341  -4737372.8057   4222643.9335   1   8   0.0038   0.0088   0.0099  -0.0024  -0.0079   0.0030   0.00   15.5
2173 289028.000    537554.3396  -4737372.8108   4222643.9412   1   8   0.0032   0.0089   0.0100  -0.0025  -0.0078   0.0032   0.00   15.8
2173 289029.000    537554.3357  -4737372.8104   4222643.9403   1   8   0.0039   0.0089   0.0100  -0.0023  -0.0079   0.0028   0.00   16.0
2173 289030.000    537554.3334  -4737372.8102   4222643.9351   1   8   0.0040   0.0089   0.0099  -0.0021  -0.0080   0.0028   0.00   16.2
2173 289031.000    537554.3318  -4737372.8161   4222643.9379   1   8   0.0044   0.0091   0.0101  -0.0019  -0.0080   0.0023   1.00   16.5
2173 289032.000    537554.3369  -4737372.8093   4222643.9396   1   8   0.0041   0.0090   0.0100  -0.0023  -0.0079   0.0028   0.00   16.8
2173 289033.000    537554.3351  -4737372.8083   4222643.9401   1   8   0.0047   0.0089   0.0101  -0.0027  -0.0078   0.0021   0.00   17.0
2173 289034.000    537554.3325  -4737372.8085   4222643.9346   1   8   0.0028   0.0089   0.0098  -0.0023  -0.0079   0.0034   0.00   17.2
2173 289035.000    537554.3342  -4737372.8098   4222643.9375   1   8   0.0042   0.0090   0.0099  -0.0022  -0.0079   0.0028   0.00   17.4
2173 289036.000    537554.3341  -4737372.8115   4222643.9381   1   8   0.0026   0.0088   0.0099  -0.0031  -0.0079   0.0036   0.00   17.7
2173 289037.000    537554.3342  -4737372.8149   4222643.9470   1   8   0.0039   0.0088   0.0099  -0.0026  -0.0079   0.0029   0.00   17.9
2173 289038.000    537554.3326  -4737372.8089   4222643.9347   1   8   0.0043   0.0089   0.0099  -0.0026  -0.0079   0.0025   0.00   18.2
2173 289039.000    537554.3364  -4737372.8095   4222643.9393   1   8   0.0027   0.0089   0.0097  -0.0022  -0.0079   0.0037   0.00   18.6
2173 289040.000    537554.3346  -4737372.8086   4222643.9342   1   8   0.0038   0.0089   0.0099  -0.0024  -0.0079   0.0024   0.00   18.8
2173 289041.000    537554.3340  -4737372.8135   4222643.9354   1   8   0.0031   0.0089   0.0098  -0.0019  -0.0079   0.0034   0.00   19.1
2173 289042.000    537554.3328  -4737372.8079   4222643.9379   1   8   0.0041   0.0089   0.0100  -0.0023  -0.0079   0.0027   0.00   19.4
2173 289043.000    537554.3354  -4737372.8180   4222643.9454   1   8   0.0031   0.0088   0.0099  -0.0024  -0.0079   0.0029   0.00   19.6
2173 289044.000    537554.3357  -4737372.8152   4222643.9390   1   8   0.0035   0.0089   0.0100  -0.0024  -0.0079   0.0030   0.00   19.9
2173 289045.000    537554.3352  -4737372.8146   4222643.9357   1   8   0.0032   0.0089   0.0099  -0.0022  -0.0079   0.0026   0.00   20.2
2173 289046.000    537554.3349  -4737372.8041   4222643.9308   1   8   0.0034   0.0089   0.0098  -0.0024  -0.0080   0.0032   0.00   20.5
2173 289047.000    537554.3356  -4737372.8117   4222643.9376   1   8   0.0036   0.0089   0.0099  -0.0021  -0.0079   0.0032   0.00   20.7
2173 289048.000    537554.3345  -4737372.8083   4222643.9336   1   8   0.0030   0.0088   0.0099  -0.0026  -0.0080   0.0036   0.00   20.9
2173 289049.000    537554.3342  -4737372.8080   4222643.9359   1   8   0.0037   0.0089   0.0099  -0.0026  -0.0079   0.0032   0.00   21.0
2173 289050.000    537554.3349  -4737372.8194   4222643.9429   1   8   0.0038   0.0089   0.0099  -0.0025  -0.0079   0.0032   0.00   21.1
2173 289051.000    537554.3368  -4737372.8154   4222643.9424   1   8   0.0041   0.0089   0.0099  -0.0027  -0.0079   0.0029   0.00   21.2
2173 289052.000    537554.3344  -4737372.8228   4222643.9474   1   8   0.0038   0.0089   0.0099  -0.0011  -0.0080   0.0033   0.00   21.3
2173 289053.000    537554.3321  -4737372.8097   4222643.9354   1   8   0.0040   0.0089   0.0100  -0.0020  -0.0080   0.0028   0.00   21.5
2173 289054.000    537554.3360  -4737372.8063   4222643.9299   1   8   0.0040   0.0089   0.0099  -0.0020  -0.0078   0.0026   0.00   21.7
2173 289055.000    537554.3352  -4737372.8112   4222643.9367   1   8   0.0042   0.0089   0.0099  -0.0026  -0.0080   0.0026   0.00   21.8
2173 289056.000    537554.3343  -4737372.8056   4222643.9311   1   8   0.0031   0.0090   0.0098  -0.0023  -0.0079   0.0032   0.00   21.8
2173 289057.000    537554.3359  -4737372.8037   4222643.9270   1   8   0.0033   0.0089   0.0099  -0.0018  -0.0079   0.0030   0.00   21.9
2173 289058.000    537554.3341  -4737372.8131   4222643.9393   1   8   0.0040   0.0089   0.0099  -0.0022  -0.0080   0.0033   0.00   22.0
2173 289059.000    537554.3339  -4737372.8118   4222643.9351   1   8   0.0038   0.0089   0.0099  -0.0025  -0.0079   0.0028   0.00   22.2
2173 289060.000    537554.3371  -4737372.8124   4222643.9308   1   8   0.0036   0.0090   0.0099  -0.0020  -0.0079   0.0029   0.00   22.4
2173 289061.000    537554.3351  -4737372.8184   4222643.9323   1   8   0.0027   0.0089   0.0099  -0.0023  -0.0079   0.0034   0.00   22.5
2173 289062.000    537554.3358  -4737372.8065   4222643.9300   1   8   0.0032   0.0090   0.0099  -0.0021  -0.0079   0.0030   0.00   22.6
2173 289063.000    537554.3327  -4737372.8069   4222643.9303   1   8   0.0033   0.0089   0.0099  -0.0023  -0.0079   0.0029   0.00   22.7
2173 289064.000    537554.3345  -4737372.8123   4222643.9308   1   8   0.0041   0.0089   0.0101  -0.0025  -0.0080   0.0025   0.00   22.9
2173 289065.000    537554.3372  -4737372.8157   4222643.9414   1   8   0.0037   0.0090   0.0100  -0.0019  -0.0079   0.0020   0.00   23.1
2173 289066.000    537554.3341  -4737372.8114   4222643.9356   1   8   0.0034   0.0090   0.0099  -0.0022  -0.0080   0.0033   0.00   23.2
2173 289067.000    537554.3338  -4737372.8107   4222643.9342   1   8   0.0039   0.0089   0.0099  -0.0022  -0.0079   0.0030   0.00   23.4
2173 289068.000    537554.3357  -4737372.8087   4222643.9355   1   8   0.0029   0.0089   0.0099  -0.0026  -0.0079   0.0030   0.00   23.5
2173 289069.000    537554.3337  -4737372.8125   4222643.9422   1   8   0.0038   0.0089   0.0100  -0.0022  -0.0080   0.0022   0.00   23.7
2173 289070.000    537554.3379  -4737372.8054   4222643.9348   1   8   0.0044   0.0090   0.0099  -0.0028  -0.0079   0.0029   0.00   23.9
2173 289071.000    537554.3363  -4737372.8131   4222643.9465   1   8   0.0028   0.0090   0.0099  -0.0024  -0.0080   0.0033   0.00   24.2
2173 289072.000    537554.3359  -4737372.8131   4222643.9348   1   8   0.0044   0.0090   0.0101  -0.0020  -0.0079   0.0023   0.00   24.3
2173 289073.000    537554.3361  -4737372.8136   4222643.9390   1   8   0.0034   0.0089   0.0100  -0.0024  -0.0080   0.0027   0.00   24.5
2173 289074.000    537554.3356  -4737372.8134   4222643.9380   1   8   0.0038   0.0089   0.0100  -0.0026  -0.0080   0.0029   0.00   24.6
2173 289075.000    537554.3346  -4737372.8139   4222643.9382   1   8   0.0042   0.0090   0.0100  -0.0020  -0.0079   0.0032   0.00   24.8
2173 289076.000    537554.3350  -4737372.8151   4222643.9375   1   8   0.0049   0.0089   0.0100  -0.0027  -0.0080   0.0028   0.00   25.0
2173 289077.000    537554.3386  -4737372.8169   4222643.9432   1   8   0.0037   0.0090   0.0100  -0.0022  -0.0079   0.0027   0.00   25.1
2173 289078.000    537554.3373  -4737372.8164   4222643.9429   1   8   0.0039   0.0089   0.0101  -0.0023  -0.0080   0.0032   0.00   25.2
2173 289079.000    537554.3376  -4737372.8201   4222643.9424   1   8   0.0030   0.0088   0.0101  -0.0029  -0.0080   0.0032   0.00   25.4
2173 289080.000    537554.3387  -4737372.8160   4222643.9438   1   8   0.0035   0.0089   0.0100  -0.0025  -0.0080   0.0029   0.00   25.6
2173 289081.000    537554.3360  -4737372.8129   4222643.9436   1   8   0.0030   0.0091   0.0101  -0.0020  -0.0082   0.0037   1.00   25.9
2173 289082.000    537554.3369  -4737372.8144   4222643.9394   1   8   0.0032   0.0090   0.0100  -0.0022  -0.0079   0.0030   0.00   26.1
2173 289083.000    537554.3366  -4737372.8082   4222643.9314   1   8   0.0036   0.0089   0.0100  -0.0026  -0.0080   0.0029   0.00   26.2
2173 289084.000    537554.3337  -4737372.7996   4222643.9294   1   8   0.0043   0.0090   0.0100  -0.0021  -0.0079   0.0027   0.00   26.5
2173 289085.000    537554.3355  -4737372.8164   4222643.9390   1   8   0.0041   0.0089   0.0101  -0.0027  -0.0080   0.0023   0.00   26.7
2173 289086.000    537554.3351  -4737372.8127   4222643.9400   1   8   0.0042   0.0089   0.0100  -0.0025  -0.0080   0.0024   0.00   27.0
2173 289087.000    537554.3385  -4737372.8084   4222643.9392   1   8   0.0039   0.0090   0.0100  -0.0020  -0.0079   0.0029   0.00   27.2
2173 289088.000    537554.3375  -4737372.8111   4222643.9358   1   8   0.0043   0.0089   0.0101  -0.0026  -0.0080   0.0022   0.00   27.4
2173 289089.000    537554.3368  -4737372.8081   4222643.9313   1   8   0.0035   0.0090   0.0100  -0.0021  -0.0080   0.0030   0.00   27.6
2173 289090.000    537554.3372  -4737372.8138   4222643.9406   1   8   0.0032   0.0089   0.0099  -0.0018  -0.0080   0.0032   0.00   27.8
2173 289091.000    537554.3353  -4737372.8101   4222643.9397   1   8   0.0030   0.0089   0.0100  -0.0029  -0.0080   0.0033   0.00   28.1
2173 289092.000    537554.3373  -4737372.8138   4222643.9403   1   8   0.0038   0.0089   0.0100  -0.0025  -0.0081   0.0031   0.00   28.3
2173 289093.000    537554.3357  -4737372.8136   4222643.9359   1   8   0.0044   0.0089   0.0101  -0.0020  -0.0080   0.0027   0.00   28.5
2173 289094.000    537554.3353  -4737372.8131   4222643.9329   1   8   0.0038   0.0089   0.0100  -0.0023  -0.0080   0.0030   0.00   28.7
2173 289095.000    537554.3353  -4737372.8146   4222643.9414   1   8   0.0034   0.0089   0.0101  -0.0026  -0.0079   0.0032   0.00   28.9
2173 289096.000    537554.3382  -4737372.8133   4222643.9314   1   8   0.0035   0.0089   0.0100  -0.0024  -0.0080   0.0026   0.00   29.0
2173 289097.000    537554.3359  -4737372.8135   4222643.9357   1   8   0.0036   0.0089   0.0100  -0.0021  -0.0080   0.0035   0.00   29.2
2173 289098.000    537554.3346  -4737372.8170   4222643.9404   1   8   0.0042   0.0089   0.0101  -0.0023  -0.0080   0.0031   0.00   29.4
2173 289099.000    537554.3387  -4737372.8153   4222643.9401   1   8   0.0035   0.0088   0.0100  -0.0026  -0.0081   0.0035   0.00   29.7
2173 289100.000    537554.3354  -4737372.8164   4222643.9426   1   8   0.0040   0.0090   0.0100  -0.0024  -0.0080   0.0027   0.00   30.0
2173 289101.000    537554.3329  -4737372.8083   4222643.9292   1   8   0.0030   0.0090   0.0101  -0.0020  -0.0080   0.0032   0.00   30.2
2173 289102.000    537554.3344  -4737372.8141   4222643.9375   1   8   0.0044   0.0090   0.0100  -0.0022  -0.0080   0.0025   0.00   30.4
2173 289103.000    537554.3373  -4737372.8175   4222643.9415   1   8   0.0039   0.0090   0.0101  -0.0018  -0.0080   0.0035   0.00   30.7
2173 289104.000    537554.3366  -4737372.8193   4222643.9445   1   8   0.0039   0.0089   0.0102  -0.0025  -0.0080   0.0027   0.00   31.0
2173 289105.000    537554.3329  -4737372.8142   4222643.9338   1   8   0.0039   0.0090   0.0100  -0.0023  -0.0080   0.0032   0.00   31.3
2173 289106.000    537554.3350  -4737372.8132   4222643.9318   1   8   0.0037   0.0090   0.0101  -0.0020  -0.0079   0.0029   0.00   31.6
2173 289107.000    537554.3350  -4737372.8203   4222643.9384   1   8   0.0039   0.0090   0.0101  -0.0026  -0.0080   0.0033   0.00   31.9
2173 289108.000    537554.3364  -4737372.8114   4222643.9367   1   8   0.0041   0.0090   0.0101  -0.0024  -0.0079   0.0028   0.00   32.2
2173 289109.000    537554.3357  -4737372.8171   4222643.9393   1   8   0.0042   0.0090   0.0101  -0.0024  -0.0080   0.0027   0.00   32.5
2173 289110.000    537554.3342  -4737372.8158   4222643.9390   1   8   0.0036   0.0089   0.0102  -0.0026  -0.0079   0.0030   0.00   32.7
2173 289111.000    537554.3354  -4737372.8103   4222643.9360   1   8   0.0041   0.0090   0.0102  -0.0021  -0.0080   0.0028   0.00   33.0
2173 289112.000    537554.3333  -4737372.8101   4222643.9344   1   8   0.0046   0.0089   0.0101  -0.0017  -0.0080   0.0030   0.00   33.4
2173 289113.000    537554.3364  -4737372.8175   4222643.9389   1   8   0.0040   0.0089   0.0101  -0.0025  -0.0081   0.0027   0.00   33.7
2173 289114.000    537554.3354  -4737372.8153   4222643.9366   1   8   0.0043   0.0088   0.0101  -0.0027  -0.0080   0.0026   0.00   33.8
2173 289115.000    537554.3379  -4737372.8173   4222643.9413   1   8   0.0043   0.0089   0.0101  -0.0025  -0.0081   0.0029   0.00   34.0
2173 289116.000    537554.3349  -4737372.8132   4222643.9366   1   8   0.0042   0.0089   0.0101  -0.0024  -0.0080   0.0028   0.00   34.1
2173 289117.000    537554.3354  -4737372.8221   4222643.9450   1   8   0.0038   0.0089   0.0100  -0.0019  -0.0081   0.0033   0.00   34.4
2173 289118.000    537554.3352  -4737372.8217   4222643.9381   1   8   0.0038   0.0090   0.0101  -0.0019  -0.0080   0.0031   0.00   34.8
2173 289119.000    537554.3333  -4737372.8182   4222643.9402   1   8   0.0027   0.0090   0.0100  -0.0019  -0.0081   0.0035   0.00   34.9
2173 289120.000    537554.3340  -4737372.8036   4222643.9305   1   8   0.0035   0.0089   0.0100  -0.0026  -0.0080   0.0032   0.00   35.1
2173 289121.000    537554.3363  -4737372.8155   4222643.9409   1   8   0.0037   0.0090   0.0101  -0.0021  -0.0080   0.0026   0.00   35.4
2173 289122.000    537554.3338  -4737372.8110   4222643.9395   1   8   0.0044   0.0090   0.0102  -0.0023  -0.0080   0.0026   0.00   35.7
2173 289123.000    537554.3330  -4737372.8193   4222643.9421   1   8   0.0039   0.0090   0.0101  -0.0024  -0.0080   0.0030   0.00   35.8
2173 289124.000    537554.3359  -4737372.8149   4222643.9411   1   8   0.0035   0.0089   0.0100  -0.0021  -0.0081   0.0032   0.00   36.0
2173 289125.000    537554.3343  -4737372.8156   4222643.9421   1   8   0.0040   0.0090   0.0101  -0.0022  -0.0080   0.0028   0.00   36.0
2173 289126.000    537554.3374  -4737372.8118   4222643.9371   1   8   0.0039   0.0089   0.0102  -0.0026  -0.0080   0.0026   0.00   36.4
2173 289127.000    537554.3349  -4737372.8145   4222643.9363   1   8   0.0037   0.0090   0.0100  -0.0023  -0.0080   0.0032   0.00   36.6
2173 289128.000    537554.3375  -4737372.8182   4222643.9448   1   8   0.0037   0.0090   0.0102  -0.0024  -0.0080   0.0029   0.00   36.9
2173 289129.000    537554.3373  -4737372.8075   4222643.9286   1   8   0.0032   0.0090   0.0100  -0.0019  -0.0080   0.0032   0.00   37.1
2173 289130.000    537554.3351  -4737372.8089   4222643.9387   1   8   0.0034   0.0090   0.0101  -0.0020  -0.0080   0.0033   0.00   37.4
2173 289131.000    537554.2436  -4737372.6663   4222643.9675   2   8   0.0162   0.0260   0.0159  -0.0098  -0.0140   0.0047   0.00    1.3
2173 289132.000    537554.2432  -4737372.6698   4222643.9653   2   8   0.0162   0.0257   0.0156  -0.0094  -0.0136   0.0043   0.00    1.5
2173 289133.000    537554.2423  -4737372.6655   4222643.9571   2   8   0.0161   0.0255   0.0155  -0.0093  -0.0134   0.0042   0.00    1.8
2173 289134.000    537554.2412  -4737372.6654   4222643.9625   2   8   0.0159   0.0254   0.0155  -0.0092  -0.0133   0.0043   0.00    2.0
2173 289135.000    537554.2417  -4737372.6720   4222643.9624   2   8   0.0160   0.0254   0.0155  -0.0093  -0.0133   0.0042   0.00    2.3
2173 289136.000    537554.2432  -4737372.6622   4222643.9550   2   8   0.0160   0.0253   0.0153  -0.0092  -0.0132   0.0043   0.00    2.5
2173 289137.000    537554.2444  -4737372.6710   4222643.9562   2   8   0.0159   0.0252   0.0153  -0.0091  -0.0132   0.0043   0.00    2.8
2173 289138.000    537554.3363  -4737372.8088   4222643.9360   1   8   0.0039   0.0089   0.0101  -0.0019  -0.0081   0.0029   0.00    3.1
2173 289139.000    537554.3356  -4737372.8096   4222643.9385   1   8   0.0032   0.0089   0.0101  -0.0024  -0.0081   0.0030   0.00    3.3
2173 289140.000    537554.3391  -4737372.8239   4222643.9488   1   8   0.0034   0.0090   0.0100  -0.0023  -0.0080   0.0032   0.00    3.6
2173 289141.000    537554.3384  -4737372.8155   4222643.9408   1   7   0.0042   0.0106   0.0107  -0.0042  -0.0092   0.0040   0.00   32.8
2173 289142.000    537554.3345  -4737372.8057   4222643.9357   1   7   0.0039   0.0106   0.0107  -0.0040  -0.0093   0.0038   0.00   33.0
