% program   : rnx2rtkp ver.2.4.3 b31
% inp file  : ngs/21_08_31_22_54_17_ingy.obs
% inp file  : ngs/21_08_31_22_54_17_ingy_SNIN.obs
% inp file  : ngs/21_08_31_22_54_17_brdc.nav
% obs start : 2021/08/31 22:00:00.0 GPST (week2173 252000.0s)
% obs end   : 2021/08/31 22:59:59.0 GPST (week2173 255599.0s)
% ref pos   :   229475.3424  -4771451.8904   4212083.7746
%
% (x/y/z-ecef=WGS84,Q=1:fix,2:float,3:sbas,4:dgps,5:single,6:ppp,ns=# of satellites)
%  GPST              x-ecef(m)      y-ecef(m)      z-ecef(m)   Q  ns   sdx(m)   sdy(m)   sdz(m)  sdxy(m)  sdyz(m)  sdzx(m) age(s)  ratio
2173 255234.000    229480.9641  -4771570.6946   4212190.0627   2   7   0.4793   0.9440   0.6955   0.1247  -0.4922   0.3426 -30.00    1.0
2173 255235.000    229480.9643  -4771570.6708   4212190.0535   2   7   0.3414   0.6720   0.4945   0.0910  -0.3496   0.2437 -29.00    1.0
2173 255236.000    229480.9617  -4771570.6652   4212190.0513   2   7   0.2795   0.5502   0.4048   0.0749  -0.2862   0.1996 -28.00    1.0
2173 255237.000    229480.9566  -4771570.6607   4212190.0520   2   7   0.2425   0.4774   0.3513   0.0649  -0.2484   0.1731 -27.00    1.0
2173 255238.000    229480.9545  -4771570.6506   4212190.0519   2   7   0.2172   0.4275   0.3146   0.0580  -0.2225   0.1551 -26.00    1.0
2173 255239.000    229480.9513  -4771570.6426   4212190.0508   2   7   0.1984   0.3907   0.2875   0.0529  -0.2034   0.1417 -25.00    1.0
2173 255240.000    229480.9489  -4771570.6338   4212190.0475   2   7   0.1838   0.3620   0.2664   0.0489  -0.1886   0.1313 -24.00    1.0
2173 255241.000    229480.9465  -4771570.6237   4212190.0471   2   7   0.1720   0.3388   0.2494   0.0456  -0.1765   0.1229 -23.00    1.0
2173 255242.000    229480.9451  -4771570.6141   4212190.0466   2   7   0.1623   0.3195   0.2353   0.0430  -0.1666   0.1159 -22.00    1.0
2173 255243.000    229480.9424  -4771570.6064   4212190.0463   2   7   0.1540   0.3032   0.2233   0.0407  -0.1581   0.1100 -21.00    1.0
2173 255244.000    229480.9422  -4771570.5996   4212190.0475   2   7   0.1468   0.2892   0.2129   0.0388  -0.1508   0.1048 -20.00    1.0
2173 255245.000    229480.9408  -4771570.5900   4212190.0444   2   7   0.1406   0.2769   0.2039   0.0371  -0.1444   0.1004 -19.00    1.0
2173 255246.000    229480.9394  -4771570.5814   4212190.0429   2   7   0.1351   0.2660   0.1959   0.0356  -0.1388   0.0964 -18.00    1.0
2173 255247.000    229480.9364  -4771570.5760   4212190.0435   2   7   0.1301   0.2563   0.1887   0.0343  -0.1337   0.0929 -17.00    1.0
2173 255248.000    229480.9359  -4771570.5666   4212190.0424   2   7   0.1257   0.2476   0.1823   0.0331  -0.1292   0.0897 -16.00    1.0
2173 255249.000    229480.9328  -4771570.5667   4212190.0560   2   7   0.1217   0.2397   0.1764   0.0321  -0.1250   0.0868 -15.00    1.0
2173 255250.000    229480.9318  -4771570.5586   4212190.0565   2   7   0.1180   0.2325   0.1711   0.0311  -0.1213   0.0842 -14.00    1.0
2173 255251.000    229480.9316  -4771570.5485   4212190.0531   2   7   0.1147   0.2259   0.1662   0.0303  -0.1178   0.0818 -13.00    1.0
2173 255252.000    229480.9315  -4771570.5374   4212190.0521   2   7   0.1116   0.2198   0.1617   0.0295  -0.1146   0.0795 -12.00    1.0
2173 255253.000    229480.9310  -4771570.5319   4212190.0500   2   7   0.1087   0.2141   0.1575   0.0287  -0.1117   0.0775 -11.00    1.0
2173 255254.000    229480.9299  -4771570.5251   4212190.0477   2   7   0.1060   0.2089   0.1536   0.0280  -0.1089   0.0756 -10.00    1.0
2173 255255.000    229480.9269  -4771570.5218   4212190.0460   2   7   0.1036   0.2040   0.1500   0.0274  -0.1064   0.0738  -9.00    1.1
2173 255256.000    229480.9256  -4771570.5082   4212190.0390   2   7   0.1013   0.1995   0.1466   0.0268  -0.1040   0.0721  -8.00    1.2
2173 255257.000    229480.9259  -4771570.5053   4212190.0369   2   7   0.0991   0.1952   0.1434   0.0263  -0.1017   0.0705  -7.00    1.2
2173 255258.000    229480.9241  -4771570.4979   4212190.0300   2   7   0.0971   0.1912   0.1404   0.0257  -0.0996   0.0690  -6.00    1.3
2173 255259.000    229480.9258  -4771570.4912   4212190.0265   2   7   0.0951   0.1874   0.1376   0.0252  -0.0977   0.0676  -5.00    1.4
2173 255260.000    229480.9209  -4771570.4866   4212190.0180   2   7   0.0933   0.1839   0.1349   0.0248  -0.0958   0.0663  -4.00    1.6
2173 255261.000    229480.9191  -4771570.4792   4212190.0092   2   7   0.0916   0.1805   0.1324   0.0243  -0.0941   0.0651  -3.00    1.8
2173 255262.000    229480.9188  -4771570.4714   4212190.0019   2   7   0.0900   0.1773   0.1300   0.0239  -0.0924   0.0639  -2.00    2.0
2173 255263.000    229480.9146  -4771570.4687   4212189.9941   2   7   0.0884   0.1743   0.1277   0.0234  -0.0908   0.0627  -1.00    2.2
2173 255264.000    229480.9151  -4771570.4589   4212189.9853   2   7   0.0870   0.1715   0.1256   0.0231  -0.0894   0.0617   0.00    2.4
2173 255265.000    229480.9124  -4771570.4561   4212189.9787   2   7   0.0856   0.1688   0.1236   0.0227  -0.0880   0.0607   0.00    2.5
2173 255266.000    229480.9113  -4771570.4498   4212189.9689   2   7   0.0843   0.1662   0.1216   0.0223  -0.0866   0.0597   0.00    2.7
2173 255267.000    229480.9082  -4771570.4463   4212189.9637   2   7   0.0831   0.1637   0.1198   0.0219  -0.0854   0.0588   0.00    2.7
2173 255268.000    229480.9087  -4771570.4374   4212189.9562   2   7   0.0818   0.1614   0.1180   0.0215  -0.0842   0.0579   0.00    2.8
2173 255269.000    229480.9080  -4771570.4352   4212189.9546   2   7   0.0807   0.1591   0.1163   0.0212  -0.0830   0.0570   0.00    2.9
2173 255270.000    229480.9108  -4771570.4343   4212189.9506   2   7   0.0796   0.1569   0.1147   0.0209  -0.0819   0.0562   0.00    3.0
2173 255271.000    229481.0719  -4771570.9708   4212189.6224   1   7   0.0050   0.0095   0.0072   0.0010  -0.0049   0.0034   0.00    3.1
2173 255272.000    229481.0709  -4771570.9694   4212189.6220   1   7   0.0050   0.0095   0.0068   0.0014  -0.0050   0.0035   0.00    3.1
2173 255273.000    229481.0699  -4771570.9661   4212189.6206   1   7   0.0048   0.0095   0.0070   0.0015  -0.0050   0.0035   0.00    3.2
2173 255274.000    229481.0692  -4771570.9659   4212189.6202   1   7   0.0048   0.0095   0.0069   0.0012  -0.0051   0.0034   0.00    3.3
2173 255275.000    229481.0718  -4771570.9661   4212189.6207   1   7   0.0050   0.0095   0.0071   0.0015  -0.0051   0.0035   0.00    3.3
2173 255276.000    229481.0705  -4771570.9626   4212189.6186   1   7   0.0046   0.0095   0.0070   0.0020  -0.0051   0.0036   0.00    3.4
2173 255277.000    229481.0706  -4771570.9631   4212189.6194   1   7   0.0051   0.0095   0.0071   0.0006  -0.0049   0.0032   0.00    3.4
2173 255278.000    229481.0722  -4771570.9657   4212189.6212   1   7   0.0049   0.0095   0.0071   0.0015  -0.0049   0.0036   0.00    3.4
2173 255279.000    229481.0709  -4771570.9653   4212189.6203   1   7   0.0048   0.0095   0.0070   0.0016  -0.0049   0.0034   0.00    3.4
2173 255280.000    229481.0673  -4771570.9696   4212189.6198   1   7   0.0050   0.0095   0.0070   0.0014  -0.0051   0.0035   0.00    3.5
2173 255281.000    229481.0691  -4771570.9675   4212189.6194   1   7   0.0048   0.0095   0.0068   0.0011  -0.0050   0.0038   0.00    3.5
2173 255282.000    229481.0669  -4771570.9652   4212189.6204   1   7   0.0050   0.0095   0.0069   0.0012  -0.0051   0.0034   0.00    3.6
2173 255283.000    229481.0660  -4771570.9661   4212189.6175   1   7   0.0047   0.0095   0.0069   0.0010  -0.0049   0.0034   0.00    3.6
2173 255284.000    229481.0702  -4771570.9638   4212189.6212   1   7   0.0049   0.0096   0.0070   0.0005  -0.0049   0.0035   0.00    3.6
2173 255285.000    229481.0663  -4771570.9637   4212189.6190   1   7   0.0047   0.0095   0.0071   0.0018  -0.0051   0.0034   0.00    3.7
2173 255286.000    229481.0678  -4771570.9648   4212189.6200   1   7   0.0052   0.0096   0.0069   0.0008  -0.0050   0.0034   0.00    3.7
2173 255287.000    229481.0675  -4771570.9662   4212189.6205   1   7   0.0048   0.0095   0.0069   0.0011  -0.0050   0.0033   0.00    3.7
2173 255288.000    229481.0675  -4771570.9653   4212189.6208   1   7   0.0050   0.0095   0.0072   0.0011  -0.0051   0.0028   0.00    3.7
2173 255289.000    229481.0680  -4771570.9580   4212189.6146   1   7   0.0048   0.0095   0.0070   0.0012  -0.0050   0.0035   0.00    3.8
2173 255290.000    229481.0673  -4771570.9605   4212189.6162   1   7   0.0048   0.0095   0.0069   0.0014  -0.0050   0.0036   0.00    3.8
2173 255291.000    229481.0683  -4771570.9648   4212189.6194   1   7   0.0048   0.0095   0.0070   0.0010  -0.0050   0.0035   0.00    3.8
2173 255292.000    229481.0689  -4771570.9642   4212189.6185   1   7   0.0049   0.0095   0.0071   0.0013  -0.0051   0.0032   0.00    3.9
2173 255293.000    229481.0672  -4771570.9630   4212189.6164   1   7   0.0050   0.0095   0.0069  -0.0009  -0.0049   0.0032   0.00    3.9
2173 255294.000    229481.0666  -4771570.9662   4212189.6197   1   7   0.0048   0.0095   0.0070   0.0010  -0.0050   0.0035   0.00    4.0
2173 255295.000    229481.0679  -4771570.9633   4212189.6211   1   7   0.0046   0.0095   0.0071   0.0015  -0.0051   0.0032   0.00    4.0
2173 255296.000    229481.0671  -4771570.9688   4212189.6204   1   7   0.0046   0.0095   0.0070   0.0011  -0.0050   0.0035   0.00    4.1
2173 255297.000    229481.0651  -4771570.9638   4212189.6179   1   7   0.0048   0.0095   0.0069  -0.0010  -0.0049   0.0033   0.00    4.1
2173 255298.000    229481.0673  -4771570.9688   4212189.6204   1   7   0.0048   0.0095   0.0070   0.0018  -0.0051   0.0036   0.00    4.1
2173 255299.000    229481.0644  -4771570.9624   4212189.6193   1   7   0.0044   0.0095   0.0069   0.0011  -0.0051   0.0037   0.00    4.2
2173 255300.000    229481.0660  -4771570.9663   4212189.6203   1   7   0.0048   0.0095   0.0072   0.0016  -0.0049   0.0035   0.00    4.2
2173 255301.000    229481.0663  -4771570.9660   4212189.6201   1   7   0.0052   0.0095   0.0070   0.0017  -0.0052   0.0037   0.00    4.3
2173 255302.000    229481.0631  -4771570.9628   4212189.6212   1   7   0.0047   0.0095   0.0070   0.0014  -0.0050   0.0035   0.00    4.4
2173 255303.000    229481.0674  -4771570.9682   4212189.6224   1   7   0.0049   0.0095   0.0070   0.0010  -0.0050   0.0032   0.00    4.4
2173 255304.000    229481.0653  -4771570.9636   4212189.6195   1   7   0.0045   0.0095   0.0069  -0.0008  -0.0050   0.0039   0.00    4.5
2173 255305.000    229481.0661  -4771570.9626   4212189.6196   1   7   0.0049   0.0095   0.0070   0.0007  -0.0050   0.0036   0.00    4.5
2173 255306.000    229481.0633  -4771570.9680   4212189.6192   1   7   0.0045   0.0094   0.0070  -0.0006  -0.0048   0.0035   0.00    4.6
2173 255307.000    229481.0655  -4771570.9643   4212189.6215   1   7   0.0045   0.0095   0.0070   0.0013  -0.0051   0.0034   0.00    4.6
2173 255308.000    229481.0655  -4771570.9625   4212189.6169   1   7   0.0047   0.0095   0.0068  -0.0009  -0.0051   0.0034   0.00    4.6
2173 255309.000    229481.0635  -4771570.9660   4212189.6195   1   7   0.0048   0.0095   0.0070   0.0017  -0.0052   0.0036   0.00    4.7
2173 255310.000    229481.0636  -4771570.9680   4212189.6218   1   7   0.0048   0.0095   0.0071  -0.0005  -0.0049   0.0035   0.00    4.7
2173 255311.000    229481.0633  -4771570.9672   4212189.6207   1   7   0.0045   0.0095   0.0070   0.0017  -0.0051   0.0039   0.00    4.7
2173 255312.000    229481.0623  -4771570.9639   4212189.6202   1   7   0.0051   0.0095   0.0068  -0.0005  -0.0050   0.0032   0.00    4.8
2173 255313.000    229481.0642  -4771570.9675   4212189.6227   1   7   0.0051   0.0095   0.0071   0.0003  -0.0050   0.0031   0.00    4.8
2173 255314.000    229481.0626  -4771570.9652   4212189.6213   1   7   0.0048   0.0096   0.0069  -0.0005  -0.0050   0.0032   0.00    4.9
2173 255315.000    229481.0624  -4771570.9674   4212189.6206   1   7   0.0045   0.0095   0.0071  -0.0008  -0.0049   0.0034   0.00    4.9
2173 255316.000    229480.8931  -4771570.4224   4212189.8213   2   8   0.0521   0.1035   0.0715   0.0121  -0.0545   0.0335   0.00    1.2
2173 255317.000    229480.8928  -4771570.4311   4212189.8202   2   8   0.0517   0.1025   0.0709   0.0124  -0.0541   0.0331   0.00    1.4
2173 255318.000    229480.8932  -4771570.4365   4212189.8174   2   8   0.0513   0.1017   0.0702   0.0125  -0.0536   0.0328   0.00    1.6
2173 255319.000    229480.8983  -4771570.4406   4212189.8162   2   8   0.0510   0.1008   0.0696   0.0128  -0.0533   0.0325   0.00    1.8
2173 255320.000    229480.8994  -4771570.4409   4212189.8134   2   8   0.0506   0.1000   0.0691   0.0129  -0.0529   0.0321   0.00    2.0
2173 255321.000    229480.8999  -4771570.4527   4212189.8170   2   8   0.0503   0.0992   0.0685   0.0130  -0.0525   0.0317   0.00    2.2
2173 255322.000    229480.9002  -4771570.4576   4212189.8141   2   8   0.0499   0.0984   0.0679   0.0131  -0.0521   0.0314   0.00    2.4
2173 255323.000    229480.9012  -4771570.4604   4212189.8118   2   8   0.0497   0.0977   0.0674   0.0133  -0.0517   0.0311   0.00    2.6
2173 255324.000    229480.9002  -4771570.4670   4212189.8113   2   8   0.0493   0.0969   0.0668   0.0134  -0.0514   0.0307   0.00    2.7
2173 255325.000    229480.9013  -4771570.4718   4212189.8086   2   8   0.0490   0.0962   0.0662   0.0135  -0.0510   0.0304   0.00    2.9
2173 255326.000    229481.0642  -4771570.9691   4212189.6190   1   8   0.0049   0.0082   0.0069   0.0023  -0.0046   0.0031   0.00    3.0
2173 255327.000    229481.0633  -4771570.9736   4212189.6197   1   8   0.0049   0.0082   0.0069   0.0026  -0.0048   0.0033   0.00    3.2
2173 255328.000    229481.0641  -4771570.9735   4212189.6207   1   8   0.0046   0.0083   0.0070   0.0024  -0.0046   0.0034   0.00    3.3
2173 255329.000    229481.0629  -4771570.9698   4212189.6192   1   8   0.0044   0.0082   0.0069   0.0025  -0.0045   0.0033   0.00    3.4
2173 255330.000    229481.0637  -4771570.9728   4212189.6218   1   8   0.0046   0.0083   0.0068   0.0025  -0.0046   0.0035   0.00    3.5
2173 255331.000    229481.0641  -4771570.9718   4212189.6211   1   8   0.0047   0.0082   0.0069   0.0022  -0.0048   0.0030   0.00    3.7
2173 255332.000    229481.0644  -4771570.9738   4212189.6219   1   8   0.0046   0.0082   0.0070   0.0023  -0.0045   0.0033   0.00    3.8
2173 255333.000    229481.0636  -4771570.9746   4212189.6231   1   8   0.0053   0.0083   0.0069   0.0021  -0.0046   0.0031   0.00    4.0
2173 255334.000    229481.0653  -4771570.9765   4212189.6225   1   8   0.0049   0.0082   0.0071   0.0028  -0.0046   0.0033   0.00    4.1
2173 255335.000    229481.0637  -4771570.9732   4212189.6252   1   8   0.0049   0.0083   0.0070   0.0019  -0.0045   0.0032   0.00    4.2
2173 255336.000    229481.0617  -4771570.9738   4212189.6229   1   8   0.0049   0.0083   0.0071   0.0024  -0.0046   0.0031   0.00    4.4
2173 255337.000    229481.0640  -4771570.9747   4212189.6233   1   8   0.0048   0.0082   0.0069   0.0022  -0.0045   0.0033   0.00    4.5
2173 255338.000    229481.0618  -4771570.9750   4212189.6216   1   8   0.0050   0.0082   0.0069   0.0017  -0.0044   0.0033   0.00    4.6
2173 255339.000    229481.0622  -4771570.9722   4212189.6234   1   8   0.0051   0.0082   0.0071   0.0025  -0.0047   0.0029   0.00    4.8
2173 255340.000    229481.0653  -4771570.9727   4212189.6218   1   8   0.0048   0.0082   0.0069   0.0026  -0.0047   0.0032   0.00    4.9
2173 255341.000    229481.0654  -4771570.9706   4212189.6211   1   8   0.0046   0.0082   0.0068   0.0020  -0.0046   0.0033   0.00    5.1
2173 255342.000    229481.0635  -4771570.9698   4212189.6218   1   8   0.0048   0.0082   0.0069   0.0027  -0.0047   0.0033   0.00    5.2
2173 255343.000    229481.0615  -4771570.9724   4212189.6211   1   8   0.0047   0.0082   0.0070   0.0018  -0.0044   0.0032   0.00    5.4
2173 255344.000    229481.0632  -4771570.9725   4212189.6223   1   8   0.0048   0.0083   0.0069   0.0022  -0.0046   0.0036   0.00    5.5
2173 255345.000    229481.0628  -4771570.9740   4212189.6217   1   8   0.0045   0.0083   0.0068   0.0024  -0.0044   0.0034   0.00    5.6
2173 255346.000    229481.0643  -4771570.9693   4212189.6200   1   8   0.0047   0.0083   0.0070   0.0020  -0.0044   0.0034   0.00    5.8
2173 255347.000    229481.0644  -4771570.9720   4212189.6215   1   8   0.0047   0.0082   0.0070   0.0021  -0.0046   0.0032   0.00    5.9
2173 255348.000    229481.0652  -4771570.9699   4212189.6204   1   8   0.0048   0.0083   0.0068   0.0021  -0.0046   0.0033   0.00    6.0
2173 255349.000    229481.0645  -4771570.9689   4212189.6220   1   8   0.0048   0.0082   0.0069   0.0023  -0.0047   0.0034   0.00    6.1
2173 255350.000    229481.0646  -4771570.9692   4212189.6201   1   8   0.0045   0.0082   0.0069   0.0020  -0.0046   0.0035   0.00    6.2
2173 255351.000    229481.0650  -4771570.9694   4212189.6208   1   8   0.0048   0.0083   0.0071   0.0021  -0.0044   0.0029   0.00    6.3
2173 255352.000    229481.0659  -4771570.9687   4212189.6209   1   8   0.0048   0.0083   0.0067   0.0018  -0.0046   0.0035   0.00    6.5
2173 255353.000    229481.0667  -4771570.9662   4212189.6206   1   8   0.0047   0.0082   0.0070   0.0022  -0.0046   0.0028   0.00    6.6
2173 255354.000    229481.0649  -4771570.9685   4212189.6177   1   8   0.0046   0.0083   0.0070   0.0023  -0.0047   0.0037   0.00    6.7
2173 255355.000    229481.0665  -4771570.9662   4212189.6214   1   8   0.0047   0.0082   0.0071   0.0024  -0.0045   0.0033   0.00    6.8
2173 255356.000    229481.0655  -4771570.9660   4212189.6204   1   8   0.0050   0.0082   0.0069   0.0018  -0.0045   0.0032   0.00    6.8
2173 255357.000    229481.0656  -4771570.9706   4212189.6219   1   8   0.0045   0.0082   0.0070   0.0024  -0.0045   0.0031   0.00    6.9
2173 255358.000    229481.0689  -4771570.9671   4212189.6240   1   8   0.0046   0.0083   0.0069   0.0020  -0.0045   0.0035   0.00    7.0
2173 255359.000    229481.0664  -4771570.9728   4212189.6246   1   8   0.0047   0.0082   0.0069   0.0021  -0.0044   0.0035   0.00    7.0
2173 255360.000    229481.0676  -4771570.9726   4212189.6272   1   8   0.0046   0.0082   0.0069   0.0023  -0.0047   0.0036   0.00    7.0
2173 255361.000    229481.0650  -4771570.9722   4212189.6232   1   8   0.0046   0.0083   0.0069   0.0020  -0.0045   0.0033   0.00    7.1
2173 255362.000    229481.0654  -4771570.9720   4212189.6240   1   8   0.0048   0.0082   0.0071   0.0024  -0.0047   0.0031   0.00    7.1
2173 255363.000    229481.0661  -4771570.9709   4212189.6252   1   8   0.0045   0.0083   0.0071   0.0018  -0.0045   0.0033   0.00    7.2
2173 255364.000    229481.0631  -4771570.9725   4212189.6227   1   8   0.0050   0.0083   0.0070   0.0022  -0.0045   0.0029   0.00    7.2
2173 255365.000    229481.0628  -4771570.9749   4212189.6248   1   8   0.0051   0.0082   0.0068   0.0027  -0.0047   0.0030   0.00    7.3
2173 255366.000    229481.0640  -4771570.9735   4212189.6227   1   8   0.0046   0.0082   0.0070   0.0026  -0.0046   0.0033   0.00    7.3
2173 255367.000    229481.0642  -4771570.9744   4212189.6237   1   8   0.0042   0.0082   0.0069   0.0020  -0.0044   0.0034   0.00    7.4
2173 255368.000    229481.0648  -4771570.9713   4212189.6231   1   8   0.0049   0.0083   0.0069   0.0024  -0.0047   0.0034   0.00    7.5
2173 255369.000    229481.0639  -4771570.9740   4212189.6259   1   8   0.0045   0.0082   0.0069   0.0021  -0.0046   0.0035   0.00    7.5
2173 255370.000    229481.0645  -4771570.9719   4212189.6259   1   8   0.0050   0.0082   0.0072   0.0027  -0.0045   0.0028   0.00    7.7
2173 255371.000    229481.0643  -4771570.9747   4212189.6248   1   8   0.0047   0.0082   0.0071   0.0021  -0.0047   0.0029   0.00    7.7
2173 255372.000    229481.0653  -4771570.9736   4212189.6277   1   8   0.0044   0.0082   0.0069   0.0019  -0.0045   0.0031   0.00    7.8
2173 255373.000    229481.0628  -4771570.9777   4212189.6268   1   8   0.0048   0.0082   0.0069   0.0021  -0.0046   0.0031   0.00    7.8
2173 255374.000    229481.0632  -4771570.9761   4212189.6248   1   8   0.0046   0.0082   0.0070   0.0024  -0.0045   0.0033   0.00    7.9
2173 255375.000    229481.0651  -4771570.9736   4212189.6235   1   8   0.0048   0.0081   0.0069   0.0023  -0.0048   0.0031   0.00    8.0
2173 255376.000    229481.0627  -4771570.9726   4212189.6230   1   8   0.0049   0.0082   0.0069   0.0019  -0.0044   0.0035   0.00    8.0
2173 255377.000    229481.0653  -4771570.9729   4212189.6249   1   8   0.0048   0.0082   0.0070   0.0027  -0.0048   0.0030   0.00    8.1
2173 255378.000    229481.0658  -4771570.9742   4212189.6259   1   8   0.0046   0.0083   0.0069   0.0020  -0.0044   0.0033   0.00    8.2
2173 255379.000    229481.0657  -4771570.9713   4212189.6243   1   8   0.0048   0.0082   0.0070   0.0023  -0.0047   0.0030   0.00    8.2
2173 255380.000    229481.0650  -4771570.9687   4212189.6240   1   8   0.0049   0.0082   0.0069   0.0023  -0.0048   0.0033   0.00    8.3
2173 255381.000    229481.0662  -4771570.9722   4212189.6255   1   8   0.0046   0.0081   0.0069   0.0022  -0.0048   0.0031   0.00    8.3
2173 255382.000    229481.0651  -4771570.9732   4212189.6239   1   8   0.0046   0.0082   0.0068   0.0023  -0.0047   0.0034   0.00    8.3
2173 255383.000    229481.0654  -4771570.9737   4212189.6242   1   8   0.0045   0.0083   0.0069   0.0022  -0.0046   0.0032   0.00    8.4
2173 255384.000    229481.0641  -4771570.9739   4212189.6242   1   8   0.0047   0.0082   0.0069   0.0024  -0.0046   0.0033   0.00    8.4
2173 255385.000    229481.0637  -4771570.9718   4212189.6221   1   8   0.0048   0.0082   0.0071   0.0025  -0.0048   0.0030   0.00    8.4
2173 255386.000    229481.0636  -4771570.9731   4212189.6217   1   8   0.0049   0.0082   0.0070   0.0024  -0.0046   0.0036   0.00    8.4
2173 255387.000    229481.0665  -4771570.9734   4212189.6268   1   8   0.0047   0.0082   0.0070   0.0019  -0.0046   0.0031   0.00    8.4
2173 255388.000    229481.0661  -4771570.9752   4212189.6260   1   8   0.0047   0.0082   0.0070   0.0024  -0.0044   0.0030   0.00    8.5
2173 255389.000    229481.0654  -4771570.9763   4212189.6229   1   8   0.0046   0.0082   0.0068   0.0022  -0.0048   0.0035   0.00    8.5
2173 255390.000    229481.0647  -4771570.9746   4212189.6211   1   8   0.0046   0.0082   0.0070   0.0028  -0.0048   0.0032   0.00    8.5
2173 255391.000    229481.0642  -4771570.9727   4212189.6243   1   8   0.0048   0.0083   0.0071   0.0022  -0.0046   0.0032   0.00    8.5
2173 255392.000    229481.0646  -4771570.9763   4212189.6236   1   8   0.0043   0.0082   0.0069   0.0024  -0.0046   0.0036   0.00    8.5
2173 255393.000    229481.0652  -4771570.9749   4212189.6232   1   8   0.0049   0.0083   0.0070   0.0020  -0.0045   0.0034   0.00    8.5
2173 255394.000    229481.0609  -4771570.9778   4212189.6221   1   8   0.0044   0.0082   0.0069   0.0019  -0.0046   0.0033   0.00    8.5
2173 255395.000    229481.0623  -4771570.9746   4212189.6219   1   8   0.0047   0.0081   0.0069   0.0023  -0.0048   0.0033   0.00    8.5
2173 255396.000    229481.0634  -4771570.9747   4212189.6215   1   8   0.0048   0.0082   0.0069   0.0022  -0.0044   0.0034   0.00    8.5
2173 255397.000    229481.0651  -4771570.9746   4212189.6226   1   8   0.0048   0.0082   0.0072   0.0021  -0.0046   0.0028   0.00    8.6
2173 255398.000    229481.0639  -4771570.9744   4212189.6205   1   8   0.0046   0.0082   0.0070   0.0025  -0.0047   0.0032   0.00    8.6
2173 255399.000    229481.0648  -4771570.9764   4212189.6213   1   8   0.0045   0.0082   0.0068   0.0023  -0.0045   0.0032   0.00    8.6
2173 255400.000    229481.0664  -4771570.9757   4212189.6227   1   8   0.0044   0.0082   0.0068   0.0020  -0.0047   0.0037   0.00    8.6
2173 255401.000    229481.0656  -4771570.9766   4212189.6228   1   8   0.0047   0.0083   0.0070   0.0020  -0.0046   0.0030   0.00    8.6
2173 255402.000    229481.0656  -4771570.9774   4212189.6243   1   8   0.0046   0.0082   0.0069   0.0025  -0.0046   0.0035   0.00    8.6
2173 255403.000    229481.0653  -4771570.9790   4212189.6268   1   8   0.0050   0.0082   0.0068   0.0024  -0.0047   0.0033   0.00    8.6
2173 255404.000    229481.0652  -4771570.9781   4212189.6260   1   8   0.0044   0.0082   0.0068   0.0024  -0.0045   0.0035   0.00    8.6
2173 255405.000    229481.0652  -4771570.9799   4212189.6255   1   8   0.0047   0.0082   0.0070   0.0022  -0.0046   0.0032   0.00    8.7
2173 255406.000    229481.0642  -4771570.9771   4212189.6223   1   8   0.0043   0.0082   0.0068   0.0021  -0.0047   0.0033   0.00    8.7
2173 255407.000    229481.0649  -4771570.9780   4212189.6222   1   8   0.0047   0.0082   0.0071   0.0024  -0.0049   0.0031   0.00    8.7
2173 255408.000    229481.0645  -4771570.9790   4212189.6237   1   8   0.0047   0.0082   0.0069   0.0019  -0.0047   0.0031   0.00    8.8
2173 255409.000    229481.0628  -4771570.9753   4212189.6187   1   8   0.0043   0.0081   0.0069   0.0025  -0.0047   0.0032   0.00    8.8
2173 255410.000    229481.0635  -4771570.9749   4212189.6203   1   8   0.0046   0.0083   0.0071   0.0022  -0.0046   0.0033   0.00    8.8
2173 255411.000    229481.0635  -4771570.9746   4212189.6199   1   8   0.0048   0.0082   0.0070   0.0021  -0.0046   0.0032   0.00    8.8
2173 255412.000    229481.0637  -4771570.9758   4212189.6196   1   8   0.0046   0.0082   0.0071   0.0018  -0.0045   0.0033   0.00    8.9
2173 255413.000    229481.0655  -4771570.9762   4212189.6222   1   8   0.0043   0.0081   0.0070   0.0025  -0.0045   0.0033   0.00    8.9
2173 255414.000    229481.0648  -4771570.9800   4212189.6247   1   8   0.0048   0.0082   0.0069   0.0021  -0.0048   0.0035   0.00    8.9
2173 255415.000    229481.0667  -4771570.9755   4212189.6236   1   8   0.0048   0.0082   0.0070   0.0020  -0.0046   0.0031   0.00    8.9
2173 255416.000    229481.0639  -4771570.9784   4212189.6238   1   8   0.0047   0.0082   0.0069   0.0020  -0.0047   0.0033   0.00    8.9
2173 255417.000    229481.0650  -4771570.9776   4212189.6211   1   8   0.0047   0.0082   0.0066   0.0022  -0.0047   0.0037   0.00    8.9
2173 255418.000    229481.0684  -4771570.9743   4212189.6216   1   8   0.0047   0.0081   0.0069   0.0019  -0.0046   0.0031   0.00    8.8
2173 255419.000    229481.0644  -4771570.9817   4212189.6233   1   8   0.0044   0.0083   0.0070   0.0022  -0.0045   0.0032   0.00    8.8
2173 255420.000    229481.0649  -4771570.9816   4212189.6241   1   8   0.0047   0.0081   0.0069   0.0025  -0.0045   0.0033   0.00    8.8
2173 255421.000    229481.0661  -4771570.9767   4212189.6224   1   8   0.0047   0.0082   0.0069   0.0022  -0.0046   0.0035   0.00    8.8
2173 255422.000    229481.0664  -4771570.9832   4212189.6220   1   8   0.0048   0.0083   0.0072   0.0023  -0.0047   0.0027   0.00    8.8
2173 255423.000    229481.0660  -4771570.9841   4212189.6248   1   8   0.0046   0.0082   0.0068   0.0023  -0.0046   0.0032   0.00    8.8
2173 255424.000    229481.0660  -4771570.9778   4212189.6211   1   8   0.0043   0.0082   0.0072   0.0020  -0.0047   0.0029   0.00    8.8
2173 255425.000    229481.0667  -4771570.9765   4212189.6244   1   8   0.0045   0.0081   0.0068   0.0023  -0.0047   0.0035   0.00    8.7
2173 255426.000    229481.0667  -4771570.9789   4212189.6234   1   8   0.0048   0.0082   0.0069   0.0022  -0.0046   0.0032   0.00    8.7
2173 255427.000    229481.0643  -4771570.9751   4212189.6199   1   8   0.0046   0.0082   0.0070   0.0022  -0.0047   0.0030   0.00    8.7
2173 255428.000    229481.0659  -4771570.9794   4212189.6222   1   8   0.0045   0.0083   0.0068   0.0019  -0.0046   0.0038   0.00    8.7
2173 255429.000    229481.0649  -4771570.9763   4212189.6233   1   8   0.0047   0.0082   0.0068   0.0022  -0.0047   0.0034   0.00    8.8
2173 255430.000    229481.0659  -4771570.9768   4212189.6249   1   8   0.0047   0.0082   0.0068   0.0022  -0.0046   0.0035   0.00    8.8
2173 255431.000    229481.0644  -4771570.9777   4212189.6241   1   8   0.0049   0.0081   0.0069   0.0025  -0.0048   0.0034   0.00    8.8
2173 255432.000    229481.0678  -4771570.9775   4212189.6264   1   8   0.0047   0.0082   0.0069   0.0023  -0.0046   0.0029   0.00    8.8
2173 255433.000    229481.0661  -4771570.9774   4212189.6266   1   8   0.0045   0.0082   0.0069   0.0019  -0.0045   0.0032   0.00    8.8
2173 255434.000    229481.0667  -4771570.9782   4212189.6271   1   8   0.0049   0.0082   0.0071   0.0025  -0.0047   0.0034   0.00    8.8
2173 255435.000    229481.0669  -4771570.9768   4212189.6270   1   8   0.0043   0.0082   0.0071   0.0023  -0.0046   0.0032   0.00    8.8
2173 255436.000    229481.0678  -4771570.9720   4212189.6250   1   8   0.0046   0.0081   0.0071   0.0014  -0.0047   0.0034   0.00    8.8
2173 255437.000    229481.0672  -4771570.9768   4212189.6275   1   8   0.0049   0.0081   0.0070   0.0024  -0.0049   0.0031   0.00    8.8
2173 255438.000    229481.0691  -4771570.9778   4212189.6275   1   8   0.0044   0.0082   0.0072   0.0024  -0.0047   0.0029   0.00    8.8
2173 255439.000    229481.0684  -4771570.9790   4212189.6268   1   8   0.0046   0.0082   0.0070   0.0020  -0.0046   0.0033   0.00    8.8
2173 255440.000    229481.0688  -4771570.9790   4212189.6277   1   8   0.0045   0.0082   0.0070   0.0020  -0.0045   0.0030   0.00    8.8
2173 255441.000    229481.0689  -4771570.9799   4212189.6260   1   8   0.0048   0.0081   0.0069   0.0027  -0.0048   0.0031   0.00    8.8
2173 255442.000    229481.0663  -4771570.9785   4212189.6267   1   8   0.0047   0.0082   0.0069   0.0022  -0.0049   0.0032   0.00    8.8
2173 255443.000    229481.0663  -4771570.9828   4212189.6256   1   8   0.0047   0.0082   0.0073   0.0026  -0.0046   0.0026   0.00    8.9
2173 255444.000    229481.0688  -4771570.9817   4212189.6282   1   8   0.0046   0.0082   0.0071   0.0022  -0.0046   0.0033   0.00    8.8
2173 255445.000    229481.0689  -4771570.9763   4212189.6253   1   8   0.0049   0.0082   0.0070   0.0023  -0.0046   0.0035   0.00    8.8
2173 255446.000    229481.0668  -4771570.9797   4212189.6270   1   8   0.0046   0.0082   0.0070   0.0023  -0.0048   0.0032   0.00    8.9
2173 255447.000    229481.0656  -4771570.9826   4212189.6284   1   8   0.0046   0.0082   0.0070   0.0025  -0.0046   0.0030   0.00    8.9
2173 255448.000    229481.0669  -4771570.9791   4212189.6256   1   8   0.0044   0.0082   0.0070   0.0018  -0.0046   0.0033   0.00    8.9
2173 255449.000    229481.0670  -4771570.9815   4212189.6279   1   8   0.0048   0.0082   0.0067   0.0021  -0.0047   0.0035   0.00    8.9
2173 255450.000    229481.0660  -4771570.9809   4212189.6266   1   8   0.0046   0.0082   0.0067   0.0017  -0.0043   0.0036   0.00    8.9
2173 255451.000    229481.0675  -4771570.9774   4212189.6249   1   8   0.0044   0.0082   0.0069   0.0017  -0.0045   0.0034   0.00    8.9
2173 255452.000    229481.0688  -4771570.9760   4212189.6247   1   8   0.0048   0.0081   0.0069   0.0023  -0.0047   0.0031   0.00    9.0
2173 255453.000    229481.0667  -4771570.9792   4212189.6251   1   8   0.0047   0.0082   0.0068   0.0015  -0.0047   0.0033   0.00    9.0
2173 255454.000    229481.0678  -4771570.9817   4212189.6277   1   8   0.0047   0.0082   0.0069   0.0025  -0.0049   0.0033   0.00    9.0
2173 255455.000    229481.0663  -4771570.9830   4212189.6265   1   8   0.0046   0.0082   0.0068   0.0020  -0.0048   0.0035   0.00    9.0
2173 255456.000    229481.0665  -4771570.9799   4212189.6263   1   8   0.0047   0.0082   0.0072   0.0023  -0.0047   0.0027   0.00    9.0
2173 255457.000    229481.0674  -4771570.9788   4212189.6259   1   8   0.0046   0.0081   0.0071   0.0022  -0.0048   0.0031   0.00    9.0
2173 255458.000    229481.0670  -4771570.9788   4212189.6250   1   8   0.0048   0.0082   0.0071   0.0025  -0.0048   0.0031   0.00    9.0
2173 255459.000    229481.0649  -4771570.9799   4212189.6266   1   8   0.0048   0.0083   0.0072   0.0021  -0.0046   0.0030   0.00    9.0
2173 255460.000    229481.0661  -4771570.9817   4212189.6285   1   8   0.0047   0.0082   0.0067   0.0016  -0.0046   0.0032   0.00    9.0
2173 255461.000    229481.0668  -4771570.9800   4212189.6260   1   8   0.0048   0.0082   0.0069   0.0025  -0.0049   0.0032   0.00    9.0
2173 255462.000    229481.0661  -4771570.9790   4212189.6280   1   8   0.0048   0.0082   0.0070   0.0020  -0.0046   0.0034   0.00    8.9
2173 255463.000    229481.0654  -4771570.9781   4212189.6269   1   8   0.0048   0.0082   0.0072   0.0022  -0.0046   0.0023   0.00    8.9
2173 255464.000    229481.0656  -4771570.9785   4212189.6281   1   8   0.0046   0.0082   0.0071   0.0022  -0.0048   0.0032   0.00    8.9
2173 255465.000    229481.0658  -4771570.9784   4212189.6287   1   8   0.0048   0.0083   0.0071   0.0017  -0.0043   0.0033   0.00    8.9
2173 255466.000    229481.0656  -4771570.9817   4212189.6301   1   8   0.0047   0.0082   0.0070   0.0021  -0.0045   0.0029   0.00    8.9
2173 255467.000    229481.0669  -4771570.9783   4212189.6293   1   8   0.0048   0.0082   0.0071   0.0024  -0.0047   0.0031   0.00    8.9
2173 255468.000    229481.0674  -4771570.9773   4212189.6268   1   8   0.0044   0.0081   0.0068   0.0020  -0.0046   0.0035   0.00    8.9
2173 255469.000    229481.0661  -4771570.9787   4212189.6279   1   8   0.0045   0.0081   0.0068   0.0022  -0.0048   0.0035   0.00    8.9
2173 255470.000    229481.0644  -4771570.9826   4212189.6276   1   8   0.0049   0.0082   0.0070   0.0024  -0.0047   0.0030   0.00    8.8
2173 255471.000    229481.0650  -4771570.9811   4212189.6269   1   8   0.0046   0.0082   0.0070   0.0019  -0.0044   0.0033   0.00    8.8
2173 255472.000    229481.0662  -4771570.9826   4212189.6300   1   8   0.0049   0.0082   0.0069   0.0015  -0.0046   0.0031   0.00    8.8
2173 255473.000    229481.0655  -4771570.9854   4212189.6281   1   8   0.0044   0.0082   0.0067   0.0020  -0.0045   0.0034   0.00    8.8
2173 255474.000    229481.0665  -4771570.9852   4212189.6299   1   8   0.0046   0.0082   0.0067   0.0017  -0.0045   0.0036   0.00    8.8
2173 255475.000    229481.0673  -4771570.9816   4212189.6312   1   8   0.0049   0.0082   0.0070   0.0022  -0.0049   0.0031   0.00    8.8
2173 255476.000    229481.0659  -4771570.9863   4212189.6356   1   8   0.0044   0.0082   0.0071   0.0015  -0.0044   0.0032   0.00    8.8
2173 255477.000    229481.0685  -4771570.9843   4212189.6329   1   8   0.0049   0.0082   0.0068   0.0019  -0.0048   0.0032   0.00    8.8
2173 255478.000    229481.0660  -4771570.9862   4212189.6322   1   8   0.0044   0.0081   0.0070   0.0026  -0.0046   0.0033   0.00    8.8
2173 255479.000    229481.0661  -4771570.9845   4212189.6331   1   8   0.0048   0.0082   0.0070   0.0021  -0.0046   0.0032   0.00    8.8
2173 255480.000    229481.0655  -4771570.9822   4212189.6302   1   8   0.0049   0.0082   0.0072   0.0024  -0.0047   0.0030   0.00    8.8
2173 255481.000    229481.0664  -4771570.9838   4212189.6317   1   8   0.0048   0.0083   0.0069   0.0018  -0.0044   0.0034   0.00    8.8
2173 255482.000    229481.0655  -4771570.9849   4212189.6296   1   8   0.0044   0.0082   0.0071   0.0025  -0.0046   0.0033   0.00    8.8
2173 255483.000    229481.0647  -4771570.9825   4212189.6306   1   8   0.0047   0.0081   0.0070   0.0026  -0.0049   0.0031   0.00    8.7
2173 255484.000    229481.0670  -4771570.9854   4212189.6304   1   8   0.0047   0.0082   0.0070   0.0026  -0.0047   0.0035   0.00    8.7
2173 255485.000    229481.0676  -4771570.9825   4212189.6310   1   8   0.0050   0.0082   0.0070   0.0018  -0.0047   0.0035   0.00    8.7
2173 255486.000    229481.0689  -4771570.9815   4212189.6329   1   8   0.0049   0.0083   0.0071   0.0022  -0.0050   0.0033   0.00    8.7
2173 255487.000    229481.0681  -4771570.9847   4212189.6340   1   8   0.0045   0.0082   0.0068   0.0019  -0.0046   0.0036   0.00    8.7
2173 255488.000    229481.0663  -4771570.9871   4212189.6344   1   8   0.0044   0.0081   0.0070   0.0026  -0.0049   0.0030   0.00    8.7
2173 255489.000    229481.0660  -4771570.9865   4212189.6317   1   8   0.0049   0.0082   0.0070   0.0020  -0.0049   0.0031   0.00    8.7
2173 255490.000    229481.0659  -4771570.9856   4212189.6315   1   8   0.0045   0.0082   0.0068   0.0013  -0.0045   0.0035   0.00    8.7
2173 255491.000    229481.0679  -4771570.9850   4212189.6330   1   8   0.0045   0.0081   0.0069   0.0023  -0.0047   0.0032   0.00    8.7
2173 255492.000    229481.0669  -4771570.9870   4212189.6322   1   8   0.0046   0.0082   0.0067   0.0023  -0.0048   0.0038   0.00    8.7
2173 255493.000    229481.0696  -4771570.9856   4212189.6335   1   8   0.0040   0.0082   0.0071   0.0021  -0.0047   0.0034   0.00    8.6
2173 255494.000    229481.0661  -4771570.9871   4212189.6331   1   8   0.0047   0.0082   0.0070   0.0024  -0.0048   0.0035   0.00    8.6
2173 255495.000    229481.0688  -4771570.9822   4212189.6310   1   8   0.0046   0.0081   0.0071   0.0025  -0.0048   0.0027   0.00    8.6
2173 255496.000    229481.0697  -4771570.9830   4212189.6329   1   8   0.0043   0.0081   0.0067   0.0018  -0.0048   0.0033   0.00    8.6
2173 255497.000    229481.0701  -4771570.9845   4212189.6345   1   8   0.0047   0.0082   0.0071   0.0024  -0.0046   0.0034   0.00    8.6
2173 255498.000    229481.0696  -4771570.9870   4212189.6356   1   8   0.0044   0.0081   0.0070   0.0025  -0.0049   0.0031   0.00    8.6
2173 255499.000    229481.0655  -4771570.9873   4212189.6326   1   8   0.0048   0.0082   0.0069   0.0018  -0.0047   0.0036   0.00    8.6
2173 255500.000    229481.0686  -4771570.9891   4212189.6345   1   8   0.0050   0.0082   0.0069   0.0024  -0.0048   0.0029   0.00    8.6
2173 255501.000    229481.0654  -4771570.9885   4212189.6339   1   8   0.0047   0.0081   0.0067   0.0023  -0.0048   0.0036   0.00    8.6
2173 255502.000    229481.0696  -4771570.9870   4212189.6366   1   8   0.0044   0.0082   0.0069   0.0019  -0.0049   0.0034   0.00    8.5
2173 255503.000    229481.0681  -4771570.9887   4212189.6343   1   8   0.0046   0.0082   0.0071   0.0022  -0.0048   0.0027   0.00    8.5
2173 255504.000    229481.0677  -4771570.9863   4212189.6373   1   8   0.0046   0.0082   0.0072   0.0019  -0.0047   0.0027   0.00    8.5
2173 255505.000    229481.0699  -4771570.9847   4212189.6334   1   8   0.0045   0.0082   0.0072   0.0021  -0.0046   0.0028   0.00    8.5
2173 255506.000    229481.0684  -4771570.9813   4212189.6327   1   8   0.0045   0.0082   0.0067   0.0025  -0.0046   0.0035   0.00    8.5
2173 255507.000    229481.0666  -4771570.9845   4212189.6322   1   8   0.0047   0.0081   0.0071   0.0023  -0.0047   0.0029   0.00    8.5
2173 255508.000    229481.0682  -4771570.9816   4212189.6308   1   8   0.0047   0.0082   0.0068   0.0018  -0.0049   0.0034   0.00    8.5
2173 255509.000    229481.0671  -4771570.9815   4212189.6313   1   8   0.0048   0.0081   0.0071   0.0022  -0.0049   0.0025   0.00    8.5
2173 255510.000    229481.0668  -4771570.9859   4212189.6350   1   8   0.0047   0.0082   0.0070   0.0022  -0.0044   0.0031   0.00    8.5
2173 255511.000    229481.0661  -4771570.9820   4212189.6319   1   8   0.0048   0.0082   0.0072   0.0018  -0.0047   0.0028   0.00    8.5
2173 255512.000    229481.0662  -4771570.9848   4212189.6332   1   8   0.0048   0.0082   0.0071   0.0018  -0.0045   0.0032   0.00    8.5
2173 255513.000    229481.0677  -4771570.9845   4212189.6320   1   8   0.0047   0.0082   0.0069   0.0019  -0.0044   0.0032   0.00    8.5
2173 255514.000    229481.0680  -4771570.9839   4212189.6332   1   8   0.0047   0.0081   0.0071   0.0023  -0.0048   0.0028   0.00    8.4
2173 255515.000    229481.0665  -4771570.9833   4212189.6304   1   8   0.0045   0.0081   0.0069   0.0024  -0.0047   0.0033   0.00    8.4
2173 255516.000    229481.0713  -4771570.9836   4212189.6340   1   8   0.0045   0.0082   0.0069   0.0022  -0.0047   0.0035   0.00    8.4
2173 255517.000    229481.0694  -4771570.9825   4212189.6311   1   8   0.0047   0.0082   0.0070   0.0023  -0.0047   0.0033   0.00    8.4
2173 255518.000    229481.0696  -4771570.9779   4212189.6329   1   8   0.0048   0.0082   0.0071   0.0023  -0.0048   0.0029   0.00    8.5
2173 255519.000    229481.0688  -4771570.9770   4212189.6341   1   8   0.0043   0.0082   0.0066   0.0026  -0.0047   0.0037   0.00    8.5
2173 255520.000    229481.0686  -4771570.9798   4212189.6336   1   8   0.0045   0.0081   0.0067   0.0022  -0.0049   0.0034   0.00    8.5
2173 255521.000    229481.0691  -4771570.9820   4212189.6345   1   8   0.0047   0.0082   0.0069   0.0026  -0.0047   0.0035   0.00    8.4
2173 255522.000    229481.0662  -4771570.9850   4212189.6355   1   8   0.0051   0.0082   0.0071   0.0027  -0.0050   0.0028   0.00    8.4
2173 255523.000    229481.0688  -4771570.9810   4212189.6323   1   8   0.0046   0.0082   0.0070   0.0019  -0.0047   0.0034   0.00    8.4
2173 255524.000    229481.0704  -4771570.9802   4212189.6352   1   8   0.0050   0.0081   0.0070   0.0018  -0.0046   0.0028   0.00    8.4
2173 255525.000    229481.0715  -4771570.9780   4212189.6360   1   8   0.0049   0.0082   0.0072   0.0025  -0.0046   0.0027   0.00    8.4
2173 255526.000    229481.0717  -4771570.9791   4212189.6358   1   8   0.0043   0.0082   0.0067   0.0016  -0.0046   0.0038   0.00    8.4
2173 255527.000    229481.0733  -4771570.9788   4212189.6331   1   8   0.0047   0.0082   0.0070   0.0020  -0.0048   0.0030   0.00    8.4
2173 255528.000    229481.0701  -4771570.9771   4212189.6328   1   8   0.0046   0.0081   0.0069   0.0023  -0.0047   0.0031   0.00    8.4
2173 255529.000    229481.0695  -4771570.9799   4212189.6306   1   8   0.0044   0.0081   0.0070   0.0017  -0.0047   0.0035   0.00    8.4
2173 255530.000    229481.0689  -4771570.9818   4212189.6337   1   8   0.0046   0.0083   0.0068   0.0025  -0.0049   0.0034   0.00    8.4
2173 255531.000    229481.0690  -4771570.9787   4212189.6318   1   8   0.0047   0.0082   0.0069   0.0024  -0.0048   0.0030   0.00    8.4
2173 255532.000    229481.0706  -4771570.9820   4212189.6356   1   8   0.0048   0.0082   0.0068   0.0019  -0.0047   0.0034   0.00    8.4
2173 255533.000    229481.0675  -4771570.9818   4212189.6305   1   8   0.0045   0.0082   0.0072   0.0017  -0.0048   0.0028   0.00    8.4
2173 255534.000    229481.0715  -4771570.9810   4212189.6302   1   8   0.0048   0.0081   0.0068   0.0022  -0.0051   0.0032   0.00    8.4
2173 255535.000    229481.0691  -4771570.9840   4212189.6342   1   8   0.0046   0.0082   0.0070   0.0021  -0.0049   0.0031   0.00    8.4
2173 255536.000    229481.0716  -4771570.9813   4212189.6318   1   8   0.0046   0.0082   0.0069   0.0025  -0.0047   0.0031   0.00    8.4
2173 255537.000    229481.0711  -4771570.9818   4212189.6352   1   8   0.0047   0.0082   0.0069   0.0021  -0.0048   0.0033   0.00    8.4
2173 255538.000    229481.0710  -4771570.9819   4212189.6355   1   8   0.0043   0.0082   0.0069   0.0018  -0.0045   0.0033   0.00    8.4
2173 255539.000    229481.0706  -4771570.9818   4212189.6312   1   8   0.0047   0.0083   0.0068   0.0019  -0.0047   0.0037   0.00    8.4
2173 255540.000    229481.0718  -4771570.9799   4212189.6326   1   8   0.0046   0.0082   0.0069   0.0017  -0.0046   0.0035   0.00    8.4
2173 255541.000    229481.0691  -4771570.9808   4212189.6302   1   8   0.0045   0.0081   0.0070   0.0019  -0.0047   0.0034   0.00    8.4
2173 255542.000    229481.0696  -4771570.9807   4212189.6304   1   8   0.0047   0.0082   0.0071   0.0021  -0.0046   0.0028   0.00    8.4
2173 255543.000    229481.0683  -4771570.9842   4212189.6297   1   8   0.0044   0.0081   0.0067   0.0019  -0.0049   0.0035   0.00    8.4
2173 255544.000    229481.0687  -4771570.9821   4212189.6303   1   8   0.0045   0.0082   0.0068   0.0017  -0.0047   0.0031   0.00    8.4
2173 255545.000    229481.0684  -4771570.9816   4212189.6325   1   8   0.0047   0.0081   0.0067   0.0019  -0.0046   0.0033   0.00    8.4
2173 255546.000    229481.0706  -4771570.9821   4212189.6315   1   8   0.0046   0.0082   0.0071   0.0025  -0.0050   0.0032   0.00    8.4
2173 255547.000    229481.0692  -4771570.9808   4212189.6301   1   8   0.0047   0.0082   0.0072   0.0023  -0.0048   0.0027   0.00    8.4
2173 255548.000    229481.0695  -4771570.9809   4212189.6304   1   8   0.0045   0.0083   0.0070   0.0020  -0.0049   0.0030   0.00    8.4
2173 255549.000    229481.0690  -4771570.9853   4212189.6315   1   8   0.0046   0.0081   0.0070   0.0021  -0.0046   0.0032   0.00    8.4
2173 255550.000    229481.0693  -4771570.9849   4212189.6341   1   8   0.0047   0.0081   0.0069   0.0022  -0.0049   0.0029   0.00    8.4
2173 255551.000    229481.0696  -4771570.9823   4212189.6341   1   8   0.0047   0.0081   0.0072   0.0023  -0.0049   0.0028   0.00    8.4
2173 255552.000    229481.0680  -4771570.9813   4212189.6340   1   8   0.0047   0.0082   0.0068   0.0023  -0.0048   0.0033   0.00    8.4
2173 255553.000    229481.0691  -4771570.9845   4212189.6338   1   8   0.0045   0.0081   0.0069   0.0016  -0.0049   0.0031   0.00    8.4
2173 255554.000    229481.0668  -4771570.9820   4212189.6314   1   8   0.0044   0.0081   0.0070   0.0022  -0.0048   0.0035   0.00    8.5
2173 255555.000    229481.0684  -4771570.9810   4212189.6286   1   8   0.0049   0.0081   0.0067   0.0024  -0.0048   0.0033   0.00    8.5
2173 255556.000    229481.0678  -4771570.9839   4212189.6302   1   8   0.0044   0.0082   0.0070   0.0020  -0.0049   0.0034   0.00    8.5
2173 255557.000    229481.0681  -4771570.9825   4212189.6296   1   8   0.0045   0.0082   0.0068   0.0024  -0.0049   0.0035   0.00    8.5
2173 255558.000    229481.0665  -4771570.9829   4212189.6290   1   8   0.0043   0.0082   0.0069   0.0016  -0.0047   0.0035   0.00    8.5
2173 255559.000    229481.0659  -4771570.9817   4212189.6302   1   8   0.0049   0.0081   0.0071   0.0024  -0.0050   0.0029   0.00    8.5
2173 255560.000    229481.0675  -4771570.9792   4212189.6303   1   8   0.0044   0.0081   0.0070   0.0022  -0.0048   0.0033   0.00    8.5
2173 255561.000    229481.0676  -4771570.9804   4212189.6279   1   8   0.0047   0.0082   0.0069   0.0018  -0.0047   0.0033   0.00    8.5
2173 255562.000    229481.0665  -4771570.9807   4212189.6300   1   8   0.0046   0.0081   0.0069   0.0017  -0.0048   0.0032   0.00    8.5
2173 255563.000    229481.0677  -4771570.9787   4212189.6304   1   8   0.0046   0.0083   0.0070   0.0016  -0.0045   0.0035   0.00    8.5
2173 255564.000    229481.0705  -4771570.9807   4212189.6304   1   8   0.0048   0.0081   0.0069   0.0020  -0.0049   0.0031   0.00    8.5
2173 255565.000    229481.0717  -4771570.9799   4212189.6333   1   8   0.0048   0.0081   0.0069   0.0019  -0.0046   0.0035   0.00    8.5
2173 255566.000    229481.0687  -4771570.9832   4212189.6319   1   8   0.0046   0.0082   0.0070   0.0021  -0.0047   0.0030   0.00    8.6
2173 255567.000    229481.0691  -4771570.9804   4212189.6307   1   8   0.0044   0.0081   0.0070   0.0022  -0.0048   0.0029   0.00    8.6
2173 255568.000    229481.0684  -4771570.9840   4212189.6329   1   8   0.0048   0.0081   0.0071   0.0020  -0.0049   0.0028   0.00    8.6
2173 255569.000    229481.0681  -4771570.9846   4212189.6338   1   8   0.0048   0.0082   0.0071   0.0019  -0.0047   0.0033   0.00    8.6
2173 255570.000    229481.0677  -4771570.9832   4212189.6332   1   8   0.0045   0.0082   0.0070   0.0016  -0.0046   0.0034   0.00    8.6
2173 255571.000    229481.0666  -4771570.9849   4212189.6350   1   8   0.0044   0.0082   0.0070   0.0026  -0.0050   0.0031   0.00    8.6
2173 255572.000    229481.0681  -4771570.9826   4212189.6345   1   8   0.0045   0.0082   0.0070   0.0021  -0.0046   0.0035   0.00    8.6
2173 255573.000    229481.0694  -4771570.9849   4212189.6349   1   8   0.0047   0.0082   0.0071   0.0027  -0.0049   0.0029   0.00    8.7
2173 255574.000    229481.0701  -4771570.9850   4212189.6344   1   8   0.0047   0.0082   0.0071   0.0016  -0.0048   0.0030   0.00    8.7
2173 255575.000    229481.0701  -4771570.9829   4212189.6349   1   8   0.0044   0.0080   0.0072   0.0023  -0.0049   0.0027   0.00    8.7
2173 255576.000    229481.0691  -4771570.9820   4212189.6337   1   8   0.0048   0.0082   0.0071   0.0020  -0.0047   0.0033   0.00    8.7
2173 255577.000    229481.0700  -4771570.9833   4212189.6344   1   8   0.0044   0.0082   0.0070   0.0019  -0.0048   0.0031   0.00    8.7
2173 255578.000    229481.0669  -4771570.9839   4212189.6339   1   8   0.0045   0.0081   0.0069   0.0021  -0.0050   0.0029   0.00    8.8
2173 255579.000    229481.0686  -4771570.9869   4212189.6353   1   8   0.0046   0.0082   0.0069   0.0020  -0.0047   0.0031   0.00    8.8
2173 255580.000    229481.0681  -4771570.9831   4212189.6337   1   8   0.0048   0.0082   0.0070   0.0015  -0.0047   0.0029   0.00    8.8
2173 255581.000    229481.0684  -4771570.9810   4212189.6344   1   8   0.0048   0.0082   0.0069   0.0017  -0.0047   0.0032   0.00    8.8
2173 255582.000    229481.0716  -4771570.9803   4212189.6357   1   8   0.0047   0.0082   0.0067   0.0017  -0.0047   0.0031   0.00    8.8
2173 255583.000    229481.0708  -4771570.9810   4212189.6351   1   8   0.0046   0.0081   0.0072   0.0023  -0.0049   0.0028   0.00    8.9
2173 255584.000    229481.0699  -4771570.9867   4212189.6390   1   8   0.0047   0.0082   0.0073   0.0024  -0.0048   0.0028   0.00    8.9
2173 255585.000    229481.0701  -4771570.9850   4212189.6376   1   8   0.0049   0.0082   0.0072   0.0023  -0.0048   0.0029   0.00    8.9
2173 255586.000    229481.0702  -4771570.9852   4212189.6345   1   8   0.0045   0.0082   0.0068   0.0020  -0.0046   0.0031   0.00    8.9
2173 255587.000    229481.0687  -4771570.9847   4212189.6351   1   8   0.0044   0.0081   0.0069   0.0018  -0.0046   0.0035   0.00    9.0
2173 255588.000    229481.0695  -4771570.9834   4212189.6358   1   8   0.0043   0.0081   0.0070   0.0022  -0.0048   0.0027   0.00    9.0
2173 255589.000    229481.0709  -4771570.9837   4212189.6357   1   8   0.0047   0.0081   0.0070   0.0024  -0.0049   0.0032   0.00    9.0
2173 255590.000    229481.0703  -4771570.9840   4212189.6350   1   8   0.0048   0.0082   0.0072   0.0023  -0.0048   0.0027   0.00    9.0
2173 255591.000    229481.0713  -4771570.9874   4212189.6369   1   8   0.0046   0.0081   0.0069   0.0024  -0.0049   0.0034   0.00    9.0
2173 255592.000    229481.0692  -4771570.9845   4212189.6345   1   8   0.0045   0.0082   0.0070   0.0017  -0.0046   0.0033   0.00    9.1
2173 255593.000    229481.0699  -4771570.9868   4212189.6362   1   8   0.0048   0.0082   0.0071   0.0019  -0.0048   0.0031   0.00    9.1
2173 255594.000    229481.0708  -4771570.9846   4212189.6335   1   8   0.0046   0.0082   0.0069   0.0019  -0.0047   0.0033   0.00    9.1
2173 255595.000    229481.0689  -4771570.9845   4212189.6332   1   8   0.0046   0.0082   0.0068   0.0011  -0.0050   0.0033   0.00    9.1
2173 255596.000    229481.0693  -4771570.9852   4212189.6327   1   8   0.0045   0.0080   0.0071   0.0023  -0.0052   0.0031   0.00    9.2
2173 255597.000    229481.0682  -4771570.9835   4212189.6315   1   8   0.0041   0.0081   0.0069   0.0023  -0.0049   0.0037   0.00    9.2
2173 255598.000    229481.0695  -4771570.9831   4212189.6336   1   8   0.0045   0.0081   0.0070   0.0022  -0.0049   0.0031   0.00    9.2
2173 255599.000    229481.0713  -4771570.9839   4212189.6327   1   8   0.0047   0.0082   0.0070   0.0017  -0.0048   0.0030   0.00    9.3
