% program   : rnx2rtkp ver.2.4.3 b31
% inp file  : ngs/21_08_31_17_48_16_mtei.obs
% inp file  : ngs/21_08_31_17_48_16_mtei_SW.obs
% inp file  : ngs/21_08_31_17_48_16_brdc.nav
% obs start : 2021/08/31 17:00:00.0 GPST (week2173 234000.0s)
% obs end   : 2021/08/31 17:59:59.0 GPST (week2173 237599.0s)
% ref pos   : -1444748.4814  -4292932.5491   4475403.8525
%
% (x/y/z-ecef=WGS84,Q=1:fix,2:float,3:sbas,4:dgps,5:single,6:ppp,ns=# of satellites)
%  GPST              x-ecef(m)      y-ecef(m)      z-ecef(m)   Q  ns   sdx(m)   sdy(m)   sdz(m)  sdxy(m)  sdyz(m)  sdzx(m) age(s)  ratio
2173 236871.000  -1422328.8808  -4226311.6236   4546316.9356   2   8   0.4757   0.8423   1.0709   0.4954  -0.8111  -0.5057 -30.00    1.7
2173 236872.000  -1422328.8851  -4226311.4584   4546317.1514   2   8   0.3382   0.5997   0.7615   0.3522  -0.5772  -0.3595 -29.00    2.1
2173 236873.000  -1422328.8952  -4226311.4507   4546317.2535   2   8   0.2768   0.4911   0.6236   0.2884  -0.4727  -0.2943 -28.00    2.3
2173 236874.000  -1422328.9028  -4226311.2887   4546317.0971   2   8   0.2402   0.4261   0.5411   0.2502  -0.4102  -0.2554 -27.00    2.3
2173 236875.000  -1422328.9079  -4226311.2018   4546317.0948   2   8   0.2151   0.3816   0.4848   0.2241  -0.3674  -0.2288 -26.00    2.3
2173 236876.000  -1422328.8417  -4226311.1388   4546317.0972   2   8   0.1966   0.3487   0.4431   0.2048  -0.3358  -0.2092 -25.00    2.3
2173 236877.000  -1422328.8440  -4226311.0592   4546317.0516   2   8   0.1822   0.3231   0.4106   0.1898  -0.3112  -0.1938 -24.00    2.2
2173 236878.000  -1422328.8208  -4226311.0547   4546316.9960   2   8   0.1705   0.3024   0.3844   0.1776  -0.2913  -0.1815 -23.00    2.2
2173 236879.000  -1422328.8097  -4226311.0398   4546316.9169   2   8   0.1608   0.2852   0.3626   0.1675  -0.2747  -0.1712 -22.00    2.0
2173 236880.000  -1422328.7904  -4226311.0861   4546316.9591   2   8   0.1526   0.2707   0.3441   0.1590  -0.2607  -0.1625 -21.00    2.0
2173 236881.000  -1422328.7571  -4226311.0337   4546316.8607   2   8   0.1455   0.2581   0.3282   0.1516  -0.2486  -0.1549 -20.00    1.9
2173 236882.000  -1422328.7661  -4226311.0445   4546316.8838   2   8   0.1393   0.2472   0.3142   0.1451  -0.2381  -0.1484 -19.00    1.9
2173 236883.000  -1422328.7687  -4226311.0076   4546316.8531   2   8   0.1338   0.2375   0.3019   0.1394  -0.2287  -0.1425 -18.00    1.9
2173 236884.000  -1422328.7745  -4226311.0190   4546316.8777   2   8   0.1289   0.2288   0.2909   0.1343  -0.2204  -0.1373 -17.00    1.8
2173 236885.000  -1422328.7728  -4226311.0092   4546316.8483   2   8   0.1245   0.2210   0.2809   0.1297  -0.2128  -0.1326 -16.00    1.7
2173 236886.000  -1422328.7613  -4226310.9774   4546316.8122   2   8   0.1205   0.2139   0.2719   0.1255  -0.2060  -0.1283 -15.00    1.6
2173 236887.000  -1422328.7622  -4226310.9511   4546316.7873   2   8   0.1169   0.2075   0.2636   0.1217  -0.1998  -0.1244 -14.00    1.6
2173 236888.000  -1422328.7724  -4226310.9687   4546316.8061   2   8   0.1135   0.2015   0.2561   0.1182  -0.1941  -0.1208 -13.00    1.6
2173 236889.000  -1422328.7661  -4226310.9546   4546316.8061   2   8   0.1104   0.1961   0.2491   0.1150  -0.1888  -0.1175 -12.00    1.5
2173 236890.000  -1422328.7735  -4226310.9454   4546316.7988   2   8   0.1076   0.1910   0.2426   0.1120  -0.1839  -0.1145 -11.00    1.5
2173 236891.000  -1422328.7904  -4226310.9507   4546316.8354   2   8   0.1049   0.1863   0.2365   0.1092  -0.1793  -0.1116 -10.00    1.5
2173 236892.000  -1422328.7894  -4226310.9379   4546316.8490   2   8   0.1024   0.1820   0.2309   0.1066  -0.1751  -0.1089  -9.00    1.6
2173 236893.000  -1422328.8020  -4226310.9458   4546316.8476   2   8   0.1001   0.1778   0.2256   0.1042  -0.1711  -0.1064  -8.00    1.5
2173 236894.000  -1422328.8169  -4226310.9581   4546316.8734   2   8   0.0979   0.1740   0.2206   0.1019  -0.1673  -0.1041  -7.00    1.6
2173 236895.000  -1422328.8128  -4226310.9594   4546316.8819   2   8   0.0959   0.1704   0.2159   0.0998  -0.1638  -0.1019  -6.00    1.6
2173 236896.000  -1422328.8315  -4226310.9883   4546316.9447   2   8   0.0940   0.1670   0.2115   0.0978  -0.1604  -0.0998  -5.00    1.7
2173 236897.000  -1422328.8412  -4226310.9896   4546316.9638   2   8   0.0921   0.1637   0.2073   0.0958  -0.1573  -0.0978  -4.00    1.7
2173 236898.000  -1422328.8546  -4226311.0093   4546317.0035   2   8   0.0904   0.1607   0.2033   0.0940  -0.1543  -0.0959  -3.00    1.8
2173 236899.000  -1422328.8433  -4226310.9949   4546316.9941   2   8   0.0888   0.1578   0.1995   0.0923  -0.1514  -0.0942  -2.00    1.8
2173 236900.000  -1422328.8580  -4226311.0150   4546317.0291   2   8   0.0873   0.1550   0.1959   0.0907  -0.1487  -0.0925  -1.00    1.8
2173 236901.000  -1422328.8488  -4226311.0125   4546317.0288   2   8   0.0858   0.1524   0.1925   0.0892  -0.1461  -0.0909   0.00    1.8
2173 236902.000  -1422328.8594  -4226311.0362   4546317.0300   2   8   0.0845   0.1499   0.1893   0.0877  -0.1437  -0.0894   0.00    1.8
2173 236903.000  -1422328.8719  -4226311.0631   4546317.0450   2   8   0.0831   0.1476   0.1862   0.0863  -0.1413  -0.0879   0.00    1.8
2173 236904.000  -1422328.8783  -4226311.0761   4546317.0547   2   8   0.0819   0.1453   0.1833   0.0850  -0.1391  -0.0865   0.00    1.8
2173 236905.000  -1422328.8855  -4226311.0903   4546317.0624   2   8   0.0807   0.1431   0.1804   0.0837  -0.1369  -0.0852   0.00    1.7
2173 236906.000  -1422328.8957  -4226311.1061   4546317.0697   2   8   0.0795   0.1411   0.1777   0.0825  -0.1349  -0.0839   0.00    1.7
2173 236907.000  -1422328.9064  -4226311.1399   4546317.0961   2   8   0.0784   0.1390   0.1750   0.0813  -0.1329  -0.0827   0.00    1.7
2173 236908.000  -1422328.9069  -4226311.1432   4546317.0823   2   8   0.0774   0.1371   0.1724   0.0801  -0.1309  -0.0815   0.00    1.7
2173 236909.000  -1422328.9186  -4226311.1652   4546317.1063   2   8   0.0763   0.1352   0.1699   0.0791  -0.1290  -0.0803   0.00    1.7
2173 236910.000  -1422328.9301  -4226311.1876   4546317.1274   2   8   0.0753   0.1334   0.1675   0.0780  -0.1272  -0.0792   0.00    1.8
2173 236911.000  -1422328.9382  -4226311.2043   4546317.1566   2   8   0.0744   0.1317   0.1652   0.0769  -0.1254  -0.0781   0.00    1.7
2173 236912.000  -1422328.9451  -4226311.2239   4546317.1936   2   8   0.0735   0.1300   0.1629   0.0759  -0.1237  -0.0770   0.00    1.7
2173 236913.000  -1422328.9565  -4226311.2244   4546317.1871   2   8   0.0726   0.1283   0.1606   0.0750  -0.1220  -0.0760   0.00    1.7
2173 236914.000  -1422328.9555  -4226311.2195   4546317.1778   2   8   0.0717   0.1267   0.1584   0.0740  -0.1204  -0.0750   0.00    1.6
2173 236915.000  -1422328.9683  -4226311.2370   4546317.1913   2   8   0.0708   0.1252   0.1563   0.0731  -0.1188  -0.0740   0.00    1.6
2173 236916.000  -1422328.9644  -4226311.2329   4546317.1766   2   8   0.0701   0.1237   0.1542   0.0722  -0.1172  -0.0730   0.00    1.6
2173 236917.000  -1422328.9645  -4226311.2307   4546317.1655   2   8   0.0693   0.1222   0.1521   0.0713  -0.1157  -0.0721   0.00    1.6
2173 236918.000  -1422328.9631  -4226311.2225   4546317.1524   2   8   0.0685   0.1208   0.1501   0.0705  -0.1142  -0.0711   0.00    1.5
2173 236919.000  -1422328.9668  -4226311.2206   4546317.1369   2   8   0.0677   0.1194   0.1482   0.0697  -0.1127  -0.0703   0.00    1.5
2173 236920.000  -1422328.9698  -4226311.2167   4546317.1345   2   8   0.0671   0.1180   0.1462   0.0689  -0.1113  -0.0694   0.00    1.5
2173 236921.000  -1422328.9760  -4226311.2277   4546317.1388   2   8   0.0663   0.1167   0.1443   0.0681  -0.1098  -0.0685   0.00    1.5
2173 236922.000  -1422328.9693  -4226311.2178   4546317.1396   2   8   0.0657   0.1154   0.1425   0.0673  -0.1084  -0.0676   0.00    1.5
2173 236923.000  -1422328.9657  -4226311.2095   4546317.1200   2   8   0.0650   0.1141   0.1406   0.0665  -0.1071  -0.0668   0.00    1.4
2173 236924.000  -1422328.9627  -4226311.2004   4546317.1023   2   8   0.0644   0.1128   0.1388   0.0658  -0.1057  -0.0660   0.00    1.4
2173 236925.000  -1422328.9617  -4226311.2007   4546317.0944   2   8   0.0636   0.1116   0.1371   0.0651  -0.1044  -0.0652   0.00    1.4
2173 236926.000  -1422328.9568  -4226311.1899   4546317.0875   2   8   0.0631   0.1104   0.1353   0.0644  -0.1031  -0.0644   0.00    1.4
2173 236927.000  -1422328.9508  -4226311.1898   4546317.0924   2   8   0.0625   0.1093   0.1336   0.0637  -0.1018  -0.0636   0.00    1.4
2173 236928.000  -1422328.9454  -4226311.1887   4546317.0843   2   8   0.0618   0.1081   0.1319   0.0630  -0.1006  -0.0629   0.00    1.4
2173 236929.000  -1422328.9385  -4226311.1723   4546317.0634   2   8   0.0613   0.1070   0.1302   0.0623  -0.0993  -0.0621   0.00    1.4
2173 236930.000  -1422328.9352  -4226311.1732   4546317.0531   2   8   0.0607   0.1059   0.1286   0.0617  -0.0981  -0.0613   0.00    1.4
2173 236931.000  -1422328.9366  -4226311.1690   4546317.0386   2   8   0.0603   0.1049   0.1270   0.0610  -0.0969  -0.0606   0.00    1.4
2173 236932.000  -1422328.9297  -4226311.1600   4546317.0171   2   8   0.0596   0.1038   0.1254   0.0604  -0.0957  -0.0599   0.00    1.4
2173 236933.000  -1422328.9287  -4226311.1619   4546317.0129   2   8   0.0591   0.1028   0.1238   0.0598  -0.0946  -0.0592   0.00    1.3
2173 236934.000  -1422328.9286  -4226311.1541   4546316.9890   2   8   0.0587   0.1017   0.1222   0.0592  -0.0934  -0.0585   0.00    1.3
2173 236935.000  -1422328.9251  -4226311.1480   4546316.9794   2   8   0.0581   0.1007   0.1207   0.0586  -0.0923  -0.0578   0.00    1.3
2173 236936.000  -1422328.9218  -4226311.1437   4546316.9635   2   8   0.0576   0.0998   0.1192   0.0580  -0.0912  -0.0571   0.00    1.3
2173 236937.000  -1422328.9190  -4226311.1306   4546316.9506   2   8   0.0571   0.0988   0.1177   0.0574  -0.0901  -0.0565   0.00    1.3
2173 236938.000  -1422328.9194  -4226311.1219   4546316.9344   2   8   0.0566   0.0979   0.1163   0.0569  -0.0890  -0.0558   0.00    1.3
2173 236939.000  -1422328.9133  -4226311.1131   4546316.9210   2   8   0.0562   0.0969   0.1148   0.0563  -0.0879  -0.0552   0.00    1.3
2173 236940.000  -1422328.9161  -4226311.1124   4546316.9330   2   8   0.0556   0.0960   0.1134   0.0558  -0.0869  -0.0545   0.00    1.3
2173 236941.000  -1422328.9150  -4226311.1034   4546316.9259   2   8   0.0554   0.0952   0.1120   0.0552  -0.0859  -0.0539   0.00    1.3
2173 236942.000  -1422328.9164  -4226311.1107   4546316.9249   2   8   0.0548   0.0943   0.1106   0.0547  -0.0848  -0.0534   0.00    1.3
2173 236943.000  -1422328.9170  -4226311.1071   4546316.9289   2   8   0.0544   0.0934   0.1093   0.0542  -0.0838  -0.0527   0.00    1.3
2173 236944.000  -1422328.9209  -4226311.1117   4546316.9355   2   8   0.0539   0.0926   0.1079   0.0537  -0.0829  -0.0521   0.00    1.3
2173 236945.000  -1422328.9200  -4226311.1063   4546316.9347   2   8   0.0536   0.0917   0.1066   0.0532  -0.0819  -0.0515   0.00    1.3
2173 236946.000  -1422328.9210  -4226311.1016   4546316.9295   2   8   0.0531   0.0909   0.1053   0.0527  -0.0809  -0.0510   0.00    1.2
2173 236947.000  -1422328.9223  -4226311.0953   4546316.9231   2   8   0.0528   0.0901   0.1040   0.0522  -0.0800  -0.0504   0.00    1.2
2173 236948.000  -1422328.9226  -4226311.0969   4546316.9228   2   8   0.0523   0.0893   0.1027   0.0517  -0.0790  -0.0498   0.00    1.2
2173 236949.000  -1422328.9246  -4226311.0975   4546316.9286   2   8   0.0520   0.0885   0.1015   0.0513  -0.0781  -0.0493   0.00    1.2
2173 236950.000  -1422328.9232  -4226311.0917   4546316.9133   2   8   0.0516   0.0878   0.1003   0.0508  -0.0772  -0.0487   0.00    1.2
2173 236951.000  -1422328.9275  -4226311.0882   4546316.9069   2   8   0.0513   0.0870   0.0990   0.0503  -0.0763  -0.0482   0.00    1.2
2173 236952.000  -1422328.9318  -4226311.0846   4546316.9049   2   8   0.0509   0.0863   0.0978   0.0499  -0.0754  -0.0477   0.00    1.2
2173 236953.000  -1422328.9390  -4226311.0730   4546316.8987   2   8   0.0505   0.0856   0.0967   0.0495  -0.0746  -0.0471   0.00    1.2
2173 236954.000  -1422328.9468  -4226311.0814   4546316.9222   2   8   0.0501   0.0848   0.0955   0.0491  -0.0737  -0.0466   0.00    1.3
2173 236955.000  -1422328.9570  -4226311.1008   4546316.9613   2   8   0.0497   0.0841   0.0944   0.0486  -0.0729  -0.0461   0.00    1.3
2173 236956.000  -1422328.9595  -4226311.1097   4546316.9792   2   8   0.0495   0.0834   0.0932   0.0482  -0.0721  -0.0456   0.00    1.3
2173 236957.000  -1422328.9673  -4226311.1166   4546316.9921   2   8   0.0491   0.0828   0.0921   0.0478  -0.0713  -0.0452   0.00    1.4
2173 236958.000  -1422328.9686  -4226311.1270   4546317.0049   2   8   0.0487   0.0821   0.0910   0.0474  -0.0704  -0.0447   0.00    1.4
2173 236959.000  -1422328.9670  -4226311.1332   4546317.0114   2   8   0.0486   0.0815   0.0899   0.0470  -0.0697  -0.0442   0.00    1.4
2173 236960.000  -1422328.9781  -4226311.1576   4546317.0449   2   8   0.0481   0.0808   0.0889   0.0466  -0.0689  -0.0438   0.00    1.4
2173 236961.000  -1422328.9817  -4226311.1553   4546317.0471   2   8   0.0478   0.0802   0.0878   0.0462  -0.0681  -0.0433   0.00    1.5
2173 236962.000  -1422328.9856  -4226311.1650   4546317.0637   2   8   0.0476   0.0795   0.0868   0.0458  -0.0674  -0.0429   0.00    1.5
2173 236963.000  -1422328.9847  -4226311.1594   4546317.0633   2   8   0.0473   0.0789   0.0858   0.0454  -0.0666  -0.0424   0.00    1.5
2173 236964.000  -1422328.9864  -4226311.1662   4546317.0628   2   8   0.0470   0.0783   0.0848   0.0451  -0.0659  -0.0419   0.00    1.5
2173 236965.000  -1422328.9857  -4226311.1616   4546317.0650   2   8   0.0466   0.0777   0.0838   0.0447  -0.0652  -0.0415   0.00    1.5
2173 236966.000  -1422328.9837  -4226311.1631   4546317.0628   2   8   0.0462   0.0771   0.0828   0.0444  -0.0645  -0.0411   0.00    1.5
2173 236967.000  -1422328.9760  -4226311.1474   4546317.0506   2   8   0.0461   0.0765   0.0819   0.0440  -0.0638  -0.0407   0.00    1.5
2173 236968.000  -1422328.9772  -4226311.1464   4546317.0540   2   8   0.0457   0.0760   0.0809   0.0437  -0.0631  -0.0403   0.00    1.6
2173 236969.000  -1422328.9798  -4226311.1456   4546317.0573   2   8   0.0456   0.0754   0.0800   0.0433  -0.0624  -0.0399   0.00    1.6
2173 236970.000  -1422328.9824  -4226311.1439   4546317.0598   2   8   0.0453   0.0749   0.0791   0.0430  -0.0618  -0.0395   0.00    1.6
2173 236971.000  -1422328.9734  -4226311.1341   4546317.0472   2   8   0.0450   0.0743   0.0782   0.0426  -0.0611  -0.0391   0.00    1.6
2173 236972.000  -1422328.9737  -4226311.1324   4546317.0549   2   8   0.0448   0.0738   0.0773   0.0424  -0.0605  -0.0387   0.00    1.6
2173 236973.000  -1422328.9714  -4226311.1271   4546317.0573   2   8   0.0444   0.0733   0.0764   0.0420  -0.0598  -0.0383   0.00    1.6
2173 236974.000  -1422328.9683  -4226311.1133   4546317.0495   2   8   0.0442   0.0728   0.0756   0.0417  -0.0592  -0.0380   0.00    1.6
2173 236975.000  -1422328.9625  -4226311.1080   4546317.0457   2   8   0.0439   0.0722   0.0747   0.0414  -0.0586  -0.0375   0.00    1.6
2173 236976.000  -1422328.9640  -4226311.1084   4546317.0514   2   8   0.0437   0.0717   0.0739   0.0411  -0.0580  -0.0372   0.00    1.6
2173 236977.000  -1422328.9583  -4226311.0975   4546317.0484   2   8   0.0434   0.0712   0.0731   0.0408  -0.0574  -0.0369   0.00    1.6
2173 236978.000  -1422328.9552  -4226311.0912   4546317.0466   2   8   0.0432   0.0708   0.0723   0.0405  -0.0568  -0.0365   0.00    1.6
2173 236979.000  -1422328.9532  -4226311.0912   4546317.0522   2   8   0.0429   0.0703   0.0715   0.0402  -0.0562  -0.0362   0.00    1.7
2173 236980.000  -1422328.9490  -4226311.0856   4546317.0529   2   8   0.0428   0.0698   0.0707   0.0399  -0.0556  -0.0359   0.00    1.7
2173 236981.000  -1422328.9445  -4226311.0878   4546317.0567   2   8   0.0425   0.0693   0.0699   0.0396  -0.0551  -0.0355   0.00    1.7
2173 236982.000  -1422328.9383  -4226311.0798   4546317.0498   2   8   0.0422   0.0689   0.0692   0.0393  -0.0545  -0.0352   0.00    1.7
2173 236983.000  -1422328.9369  -4226311.0819   4546317.0608   2   8   0.0421   0.0684   0.0684   0.0390  -0.0540  -0.0349   0.00    1.7
2173 236984.000  -1422328.9325  -4226311.0745   4546317.0633   2   8   0.0417   0.0680   0.0677   0.0388  -0.0534  -0.0345   0.00    1.7
2173 236985.000  -1422328.9359  -4226311.0844   4546317.0763   2   8   0.0415   0.0675   0.0670   0.0385  -0.0529  -0.0342   0.00    1.8
2173 236986.000  -1422328.9366  -4226311.0841   4546317.0847   2   8   0.0413   0.0671   0.0663   0.0382  -0.0524  -0.0339   0.00    1.8
2173 236987.000  -1422328.9382  -4226311.0950   4546317.0980   2   8   0.0411   0.0667   0.0656   0.0379  -0.0519  -0.0337   0.00    1.8
2173 236988.000  -1422328.9407  -4226311.0982   4546317.1018   2   8   0.0410   0.0662   0.0649   0.0377  -0.0514  -0.0333   0.00    1.8
2173 236989.000  -1422328.9454  -4226311.1107   4546317.1112   2   8   0.0408   0.0658   0.0642   0.0375  -0.0509  -0.0330   0.00    1.8
2173 236990.000  -1422328.9475  -4226311.1131   4546317.1190   2   8   0.0405   0.0654   0.0635   0.0372  -0.0504  -0.0328   0.00    1.8
2173 236991.000  -1422328.9515  -4226311.1193   4546317.1284   2   8   0.0402   0.0650   0.0629   0.0369  -0.0499  -0.0325   0.00    1.9
2173 236992.000  -1422328.9561  -4226311.1345   4546317.1397   2   8   0.0401   0.0646   0.0622   0.0367  -0.0495  -0.0322   0.00    1.9
2173 236993.000  -1422328.9586  -4226311.1418   4546317.1485   2   8   0.0399   0.0642   0.0616   0.0365  -0.0490  -0.0318   0.00    1.9
2173 236994.000  -1422328.9655  -4226311.1487   4546317.1634   2   8   0.0396   0.0638   0.0610   0.0362  -0.0486  -0.0317   0.00    1.9
2173 236995.000  -1422328.9708  -4226311.1637   4546317.1796   2   8   0.0396   0.0635   0.0603   0.0360  -0.0481  -0.0313   0.00    2.0
2173 236996.000  -1422328.9774  -4226311.1757   4546317.1807   2   8   0.0393   0.0631   0.0597   0.0358  -0.0477  -0.0311   0.00    2.0
2173 236997.000  -1422328.9844  -4226311.1959   4546317.2025   2   8   0.0392   0.0627   0.0591   0.0355  -0.0472  -0.0308   0.00    2.0
2173 236998.000  -1422328.9924  -4226311.2044   4546317.2041   2   8   0.0391   0.0624   0.0586   0.0353  -0.0468  -0.0306   0.00    2.1
2173 236999.000  -1422329.0026  -4226311.2207   4546317.2090   2   8   0.0387   0.0620   0.0580   0.0350  -0.0464  -0.0303   0.00    2.1
2173 237000.000  -1422329.0103  -4226311.2308   4546317.2254   2   8   0.0386   0.0616   0.0574   0.0348  -0.0460  -0.0301   0.00    2.1
2173 237001.000  -1422329.0146  -4226311.2411   4546317.2321   2   8   0.0384   0.0613   0.0568   0.0346  -0.0456  -0.0298   0.00    2.1
2173 237002.000  -1422329.0195  -4226311.2575   4546317.2451   2   8   0.0381   0.0610   0.0563   0.0344  -0.0452  -0.0296   0.00    2.2
2173 237003.000  -1422329.0201  -4226311.2619   4546317.2466   2   8   0.0380   0.0606   0.0557   0.0342  -0.0448  -0.0293   0.00    2.2
2173 237004.000  -1422329.0260  -4226311.2702   4546317.2529   2   8   0.0379   0.0603   0.0552   0.0339  -0.0444  -0.0291   0.00    2.2
2173 237005.000  -1422329.0312  -4226311.2805   4546317.2660   2   8   0.0378   0.0599   0.0547   0.0337  -0.0440  -0.0289   0.00    2.3
2173 237006.000  -1422329.0343  -4226311.2836   4546317.2659   2   8   0.0374   0.0596   0.0542   0.0336  -0.0436  -0.0286   0.00    2.3
2173 237007.000  -1422329.0387  -4226311.2839   4546317.2652   2   8   0.0374   0.0593   0.0537   0.0333  -0.0432  -0.0285   0.00    2.3
2173 237008.000  -1422329.0389  -4226311.2899   4546317.2748   2   8   0.0371   0.0589   0.0531   0.0332  -0.0429  -0.0282   0.00    2.3
2173 237009.000  -1422329.0413  -4226311.2928   4546317.2806   2   8   0.0371   0.0587   0.0526   0.0329  -0.0425  -0.0280   0.00    2.3
2173 237010.000  -1422329.0429  -4226311.2980   4546317.2764   2   8   0.0369   0.0583   0.0522   0.0328  -0.0422  -0.0278   0.00    2.3
2173 237011.000  -1422329.0441  -4226311.3021   4546317.2837   2   8   0.0366   0.0580   0.0517   0.0326  -0.0418  -0.0276   0.00    2.3
2173 237012.000  -1422329.0460  -4226311.3025   4546317.2768   2   8   0.0365   0.0577   0.0512   0.0324  -0.0415  -0.0274   0.00    2.3
2173 237013.000  -1422329.0546  -4226311.3161   4546317.2831   2   8   0.0362   0.0574   0.0507   0.0322  -0.0411  -0.0272   0.00    2.3
2173 237014.000  -1422329.0556  -4226311.3193   4546317.2864   2   8   0.0363   0.0571   0.0503   0.0320  -0.0408  -0.0270   0.00    2.3
2173 237015.000  -1422329.0803  -4226311.3599   4546317.3347   2   8   0.0360   0.0568   0.0498   0.0318  -0.0405  -0.0268   0.00    2.3
2173 237016.000  -1422329.0862  -4226311.3693   4546317.3373   2   8   0.0359   0.0565   0.0494   0.0316  -0.0401  -0.0266   0.00    2.3
2173 237017.000  -1422329.0868  -4226311.3714   4546317.3249   2   8   0.0358   0.0563   0.0489   0.0314  -0.0398  -0.0264   0.00    2.3
2173 237018.000  -1422329.0888  -4226311.3756   4546317.3306   2   8   0.0356   0.0560   0.0485   0.0313  -0.0395  -0.0262   0.00    2.3
2173 237019.000  -1422329.0902  -4226311.3855   4546317.3384   2   8   0.0356   0.0557   0.0481   0.0310  -0.0392  -0.0261   0.00    2.3
2173 237020.000  -1422329.0888  -4226311.3799   4546317.3337   2   8   0.0353   0.0554   0.0476   0.0309  -0.0389  -0.0258   0.00    2.2
2173 237021.000  -1422329.0917  -4226311.3877   4546317.3305   2   8   0.0351   0.0551   0.0472   0.0308  -0.0386  -0.0256   0.00    2.2
2173 237022.000  -1422329.0939  -4226311.3954   4546317.3367   2   8   0.0350   0.0549   0.0468   0.0306  -0.0383  -0.0255   0.00    2.2
2173 237023.000  -1422329.0979  -4226311.3956   4546317.3296   2   8   0.0348   0.0546   0.0464   0.0304  -0.0380  -0.0253   0.00    2.2
2173 237024.000  -1422329.0927  -4226311.3943   4546317.3245   2   8   0.0347   0.0543   0.0460   0.0303  -0.0377  -0.0251   0.00    2.2
2173 237025.000  -1422329.0943  -4226311.3947   4546317.3194   2   8   0.0345   0.0541   0.0456   0.0301  -0.0374  -0.0250   0.00    2.1
2173 237026.000  -1422329.0954  -4226311.3994   4546317.3155   2   8   0.0345   0.0538   0.0453   0.0298  -0.0371  -0.0249   0.00    2.1
2173 237027.000  -1422329.0950  -4226311.3993   4546317.3066   2   8   0.0344   0.0536   0.0449   0.0297  -0.0368  -0.0247   0.00    2.1
2173 237028.000  -1422329.0974  -4226311.4079   4546317.3103   2   8   0.0342   0.0533   0.0445   0.0295  -0.0365  -0.0245   0.00    2.1
2173 237029.000  -1422329.1006  -4226311.4098   4546317.3106   2   8   0.0340   0.0531   0.0441   0.0294  -0.0363  -0.0243   0.00    2.1
2173 237030.000  -1422329.0991  -4226311.4143   4546317.3089   2   8   0.0339   0.0528   0.0438   0.0292  -0.0360  -0.0241   0.00    2.1
2173 237031.000  -1422329.0906  -4226311.4060   4546317.2945   2   8   0.0338   0.0526   0.0434   0.0290  -0.0357  -0.0240   0.00    2.1
2173 237032.000  -1422329.0908  -4226311.4160   4546317.2932   2   8   0.0336   0.0523   0.0431   0.0289  -0.0355  -0.0238   0.00    2.1
2173 237033.000  -1422329.0933  -4226311.4176   4546317.2885   2   8   0.0333   0.0521   0.0427   0.0287  -0.0352  -0.0237   0.00    2.0
2173 237034.000  -1422329.0891  -4226311.4102   4546317.2793   2   8   0.0334   0.0518   0.0423   0.0286  -0.0350  -0.0235   0.00    2.0
2173 237035.000  -1422329.0842  -4226311.4045   4546317.2672   2   8   0.0332   0.0516   0.0420   0.0284  -0.0347  -0.0234   0.00    2.0
2173 237036.000  -1422329.0892  -4226311.4174   4546317.2680   2   8   0.0332   0.0514   0.0417   0.0283  -0.0345  -0.0232   0.00    2.0
2173 237037.000  -1422329.0879  -4226311.4096   4546317.2593   2   8   0.0331   0.0511   0.0414   0.0282  -0.0343  -0.0231   0.00    2.0
2173 237038.000  -1422329.0891  -4226311.4166   4546317.2530   2   8   0.0328   0.0509   0.0411   0.0280  -0.0340  -0.0229   0.00    2.0
2173 237039.000  -1422329.0871  -4226311.4130   4546317.2494   2   8   0.0327   0.0507   0.0407   0.0279  -0.0338  -0.0227   0.00    2.0
2173 237040.000  -1422329.0859  -4226311.4166   4546317.2449   2   8   0.0325   0.0505   0.0404   0.0277  -0.0335  -0.0226   0.00    2.0
2173 237041.000  -1422329.0884  -4226311.4201   4546317.2431   2   8   0.0326   0.0503   0.0401   0.0276  -0.0333  -0.0225   0.00    2.0
2173 237042.000  -1422329.0890  -4226311.4206   4546317.2399   2   8   0.0324   0.0501   0.0398   0.0274  -0.0331  -0.0224   0.00    2.0
2173 237043.000  -1422329.0857  -4226311.4179   4546317.2267   2   8   0.0321   0.0499   0.0395   0.0273  -0.0329  -0.0223   0.00    2.0
2173 237044.000  -1422329.0861  -4226311.4232   4546317.2209   2   8   0.0321   0.0496   0.0392   0.0272  -0.0327  -0.0221   0.00    2.0
2173 237045.000  -1422329.0826  -4226311.4116   4546317.2045   2   8   0.0320   0.0494   0.0389   0.0270  -0.0325  -0.0220   0.00    1.9
2173 237046.000  -1422329.0796  -4226311.4117   4546317.2034   2   8   0.0318   0.0492   0.0386   0.0269  -0.0322  -0.0218   0.00    1.9
2173 237047.000  -1422329.0856  -4226311.4160   4546317.2016   2   8   0.0318   0.0490   0.0383   0.0268  -0.0320  -0.0217   0.00    1.9
2173 237048.000  -1422329.0860  -4226311.4126   4546317.1956   2   8   0.0317   0.0488   0.0380   0.0266  -0.0318  -0.0216   0.00    1.9
2173 237049.000  -1422329.0869  -4226311.4091   4546317.1877   2   8   0.0314   0.0486   0.0378   0.0265  -0.0316  -0.0215   0.00    1.9
2173 237050.000  -1422329.0869  -4226311.4095   4546317.1900   2   8   0.0314   0.0483   0.0375   0.0264  -0.0314  -0.0213   0.00    1.9
2173 237051.000  -1422329.0884  -4226311.4093   4546317.1873   2   8   0.0314   0.0482   0.0372   0.0262  -0.0312  -0.0212   0.00    1.9
2173 237052.000  -1422329.0871  -4226311.4070   4546317.1828   2   8   0.0312   0.0480   0.0369   0.0261  -0.0310  -0.0211   0.00    1.9
2173 237053.000  -1422329.0827  -4226311.3982   4546317.1764   2   8   0.0312   0.0478   0.0367   0.0260  -0.0308  -0.0210   0.00    1.9
2173 237054.000  -1422329.0817  -4226311.3963   4546317.1826   2   8   0.0311   0.0476   0.0364   0.0258  -0.0306  -0.0209   0.00    1.9
2173 237055.000  -1422329.0788  -4226311.3895   4546317.1735   2   8   0.0309   0.0474   0.0362   0.0257  -0.0304  -0.0207   0.00    1.9
2173 237056.000  -1422329.0762  -4226311.3855   4546317.1660   2   8   0.0308   0.0472   0.0359   0.0256  -0.0302  -0.0207   0.00    1.8
2173 237057.000  -1422329.0767  -4226311.3807   4546317.1600   2   8   0.0306   0.0470   0.0357   0.0254  -0.0300  -0.0206   0.00    1.8
2173 237058.000  -1422329.0800  -4226311.3854   4546317.1557   2   8   0.0306   0.0468   0.0354   0.0253  -0.0299  -0.0204   0.00    1.8
2173 237059.000  -1422329.0830  -4226311.3912   4546317.1518   2   8   0.0305   0.0466   0.0352   0.0252  -0.0297  -0.0203   0.00    1.8
2173 237060.000  -1422329.0871  -4226311.3950   4546317.1494   2   8   0.0304   0.0464   0.0349   0.0251  -0.0295  -0.0202   0.00    1.8
2173 237061.000  -1422329.0910  -4226311.3985   4546317.1491   2   8   0.0302   0.0463   0.0347   0.0249  -0.0293  -0.0202   0.00    1.8
2173 237062.000  -1422329.0923  -4226311.4052   4546317.1491   2   8   0.0301   0.0461   0.0345   0.0248  -0.0291  -0.0200   0.00    1.8
2173 237063.000  -1422329.0956  -4226311.4084   4546317.1546   2   8   0.0300   0.0459   0.0342   0.0247  -0.0290  -0.0199   0.00    1.8
2173 237064.000  -1422329.0984  -4226311.4125   4546317.1652   2   8   0.0299   0.0457   0.0340   0.0246  -0.0288  -0.0198   0.00    1.8
2173 237065.000  -1422329.1003  -4226311.4139   4546317.1665   2   8   0.0298   0.0455   0.0338   0.0245  -0.0287  -0.0197   0.00    1.8
2173 237066.000  -1422329.1050  -4226311.4239   4546317.1754   2   8   0.0297   0.0454   0.0335   0.0244  -0.0285  -0.0195   0.00    1.8
2173 237067.000  -1422329.1076  -4226311.4286   4546317.1768   2   8   0.0296   0.0452   0.0333   0.0243  -0.0283  -0.0195   0.00    1.8
2173 237068.000  -1422329.1035  -4226311.4291   4546317.1790   2   8   0.0295   0.0450   0.0331   0.0242  -0.0282  -0.0194   0.00    1.8
2173 237069.000  -1422329.0990  -4226311.4849   4546317.2294   2   8   0.0295   0.0449   0.0329   0.0240  -0.0280  -0.0193   0.00    1.8
2173 237070.000  -1422329.1049  -4226311.4998   4546317.2499   2   8   0.0295   0.0447   0.0327   0.0239  -0.0278  -0.0192   0.00    1.7
2173 237071.000  -1422329.1067  -4226311.5125   4546317.2690   2   8   0.0291   0.0445   0.0325   0.0238  -0.0277  -0.0191   0.00    1.7
2173 237072.000  -1422329.1061  -4226311.5157   4546317.2715   2   8   0.0293   0.0444   0.0323   0.0237  -0.0275  -0.0190   0.00    1.7
2173 237073.000  -1422329.1088  -4226311.5214   4546317.2855   2   8   0.0291   0.0442   0.0321   0.0236  -0.0273  -0.0189   0.00    1.7
2173 237074.000  -1422329.1170  -4226311.5401   4546317.3140   2   8   0.0291   0.0440   0.0319   0.0235  -0.0272  -0.0188   0.00    1.7
2173 237075.000  -1422329.1204  -4226311.5537   4546317.3303   2   8   0.0288   0.0439   0.0317   0.0233  -0.0270  -0.0187   0.00    1.7
2173 237076.000  -1422329.1255  -4226311.5672   4546317.3465   2   8   0.0288   0.0437   0.0315   0.0233  -0.0270  -0.0186   0.00    1.7
2173 237077.000  -1422329.1282  -4226311.5825   4546317.3632   2   8   0.0288   0.0436   0.0313   0.0231  -0.0268  -0.0186   0.00    1.7
2173 237078.000  -1422329.1322  -4226311.5897   4546317.3697   2   8   0.0288   0.0434   0.0311   0.0230  -0.0266  -0.0184   0.00    1.7
2173 237079.000  -1422329.1382  -4226311.6059   4546317.3903   2   8   0.0286   0.0433   0.0309   0.0229  -0.0265  -0.0184   0.00    1.7
2173 237080.000  -1422329.1446  -4226311.6176   4546317.4031   2   8   0.0285   0.0431   0.0307   0.0228  -0.0263  -0.0182   0.00    1.7
2173 237081.000  -1422329.1474  -4226311.6332   4546317.4111   2   8   0.0283   0.0429   0.0305   0.0228  -0.0262  -0.0182   0.00    1.7
2173 237082.000  -1422329.1522  -4226311.6409   4546317.4221   2   8   0.0283   0.0428   0.0304   0.0226  -0.0260  -0.0181   0.00    1.7
2173 237083.000  -1422329.1552  -4226311.6522   4546317.4394   2   8   0.0282   0.0426   0.0302   0.0225  -0.0260  -0.0180   0.00    1.7
2173 237084.000  -1422329.1638  -4226311.6664   4546317.4552   2   8   0.0282   0.0425   0.0300   0.0224  -0.0258  -0.0179   0.00    1.7
2173 237085.000  -1422329.1690  -4226311.6727   4546317.4669   2   8   0.0281   0.0423   0.0298   0.0223  -0.0257  -0.0178   0.00    1.7
2173 237086.000  -1422329.1718  -4226311.6791   4546317.4756   2   8   0.0279   0.0422   0.0297   0.0222  -0.0255  -0.0178   0.00    1.7
2173 237087.000  -1422329.1787  -4226311.6913   4546317.4950   2   8   0.0278   0.0420   0.0295   0.0221  -0.0254  -0.0176   0.00    1.6
2173 237088.000  -1422329.1841  -4226311.7040   4546317.5037   2   8   0.0279   0.0419   0.0293   0.0220  -0.0253  -0.0176   0.00    1.6
2173 237089.000  -1422329.1843  -4226311.7111   4546317.5122   2   8   0.0277   0.0418   0.0292   0.0219  -0.0251  -0.0175   0.00    1.6
2173 237090.000  -1422329.1900  -4226311.7226   4546317.5217   2   8   0.0275   0.0416   0.0290   0.0218  -0.0250  -0.0175   0.00    1.6
2173 237091.000  -1422329.1920  -4226311.7272   4546317.5295   2   8   0.0276   0.0415   0.0288   0.0217  -0.0249  -0.0174   0.00    1.6
2173 237092.000  -1422329.1944  -4226311.7366   4546317.5325   2   8   0.0275   0.0413   0.0287   0.0216  -0.0248  -0.0174   0.00    1.6
2173 237093.000  -1422329.1927  -4226311.7390   4546317.5369   2   8   0.0274   0.0412   0.0285   0.0215  -0.0246  -0.0172   0.00    1.6
2173 237094.000  -1422329.1938  -4226311.7367   4546317.5375   2   8   0.0273   0.0410   0.0283   0.0214  -0.0246  -0.0171   0.00    1.6
2173 237095.000  -1422329.1958  -4226311.7475   4546317.5508   2   8   0.0272   0.0409   0.0282   0.0214  -0.0244  -0.0170   0.00    1.6
2173 237096.000  -1422329.1959  -4226311.7454   4546317.5455   2   8   0.0273   0.0408   0.0281   0.0212  -0.0243  -0.0170   0.00    1.6
2173 237097.000  -1422329.1993  -4226311.7606   4546317.5576   2   8   0.0270   0.0406   0.0279   0.0211  -0.0242  -0.0169   0.00    1.6
2173 237098.000  -1422329.2029  -4226311.7716   4546317.5731   2   8   0.0269   0.0405   0.0277   0.0211  -0.0241  -0.0168   0.00    1.6
2173 237099.000  -1422329.2030  -4226311.7774   4546317.5774   2   8   0.0269   0.0403   0.0276   0.0210  -0.0240  -0.0168   0.00    1.6
2173 237100.000  -1422329.2044  -4226311.7776   4546317.5801   2   8   0.0268   0.0402   0.0274   0.0209  -0.0239  -0.0167   0.00    1.6
2173 237101.000  -1422329.2054  -4226311.7846   4546317.5848   2   8   0.0267   0.0401   0.0273   0.0208  -0.0237  -0.0167   0.00    1.6
2173 237102.000  -1422329.2081  -4226311.7912   4546317.5876   2   8   0.0266   0.0400   0.0272   0.0206  -0.0236  -0.0167   0.00    1.5
2173 237103.000  -1422329.2099  -4226311.8000   4546317.5932   2   8   0.0267   0.0398   0.0270   0.0206  -0.0235  -0.0165   0.00    1.5
2173 237104.000  -1422329.2127  -4226311.8092   4546317.5987   2   8   0.0265   0.0397   0.0269   0.0205  -0.0234  -0.0164   0.00    1.5
2173 237105.000  -1422329.2135  -4226311.8103   4546317.5972   2   8   0.0264   0.0396   0.0268   0.0204  -0.0233  -0.0163   0.00    1.5
2173 237106.000  -1422329.2137  -4226311.8156   4546317.5970   2   8   0.0262   0.0395   0.0266   0.0203  -0.0232  -0.0164   0.00    1.5
2173 237107.000  -1422329.2165  -4226311.8217   4546317.5987   2   8   0.0261   0.0394   0.0265   0.0202  -0.0230  -0.0163   0.00    1.5
2173 237108.000  -1422329.2182  -4226311.8238   4546317.6043   2   8   0.0262   0.0392   0.0264   0.0201  -0.0230  -0.0162   0.00    1.5
2173 237109.000  -1422329.2228  -4226311.8299   4546317.6086   2   8   0.0262   0.0391   0.0262   0.0200  -0.0228  -0.0162   0.00    1.5
2173 237110.000  -1422329.2227  -4226311.8328   4546317.6101   2   8   0.0261   0.0390   0.0261   0.0200  -0.0227  -0.0160   0.00    1.5
2173 237111.000  -1422329.2246  -4226311.8353   4546317.6136   2   8   0.0260   0.0388   0.0260   0.0199  -0.0226  -0.0160   0.00    1.5
2173 237112.000  -1422329.2259  -4226311.8311   4546317.6133   2   8   0.0260   0.0387   0.0259   0.0198  -0.0225  -0.0159   0.00    1.5
2173 237113.000  -1422329.2275  -4226311.8390   4546317.6194   2   8   0.0259   0.0386   0.0257   0.0197  -0.0225  -0.0158   0.00    1.5
2173 237114.000  -1422329.2299  -4226311.8442   4546317.6230   2   8   0.0257   0.0385   0.0255   0.0196  -0.0224  -0.0158   0.00    1.5
2173 237115.000  -1422329.2300  -4226311.8458   4546317.6265   2   8   0.0257   0.0384   0.0255   0.0195  -0.0223  -0.0158   0.00    1.5
2173 237116.000  -1422329.2347  -4226311.8523   4546317.6232   2   8   0.0257   0.0382   0.0253   0.0194  -0.0222  -0.0157   0.00    1.4
2173 237117.000  -1422329.2368  -4226311.8552   4546317.6300   2   8   0.0257   0.0382   0.0252   0.0193  -0.0220  -0.0156   0.00    1.4
2173 237118.000  -1422329.2416  -4226311.8583   4546317.6336   2   8   0.0255   0.0380   0.0251   0.0193  -0.0220  -0.0156   0.00    1.4
2173 237119.000  -1422329.2425  -4226311.8633   4546317.6280   2   8   0.0254   0.0379   0.0249   0.0193  -0.0219  -0.0154   0.00    1.4
2173 237120.000  -1422329.2439  -4226311.8626   4546317.6362   2   8   0.0253   0.0378   0.0249   0.0192  -0.0218  -0.0154   0.00    1.4
2173 237121.000  -1422329.2454  -4226311.8641   4546317.6324   2   8   0.0254   0.0376   0.0248   0.0191  -0.0217  -0.0154   0.00    1.4
2173 237122.000  -1422329.2443  -4226311.8655   4546317.6301   2   8   0.0253   0.0375   0.0246   0.0190  -0.0217  -0.0152   0.00    1.4
2173 237123.000  -1422329.2472  -4226311.8670   4546317.6359   2   8   0.0251   0.0374   0.0246   0.0189  -0.0215  -0.0153   0.00    1.4
2173 237124.000  -1422329.2481  -4226311.8685   4546317.6339   2   8   0.0250   0.0373   0.0244   0.0189  -0.0215  -0.0152   0.00    1.4
2173 237125.000  -1422329.2507  -4226311.8680   4546317.6324   2   8   0.0250   0.0372   0.0244   0.0187  -0.0214  -0.0153   0.00    1.4
2173 237126.000  -1422329.2526  -4226311.8725   4546317.6288   2   8   0.0250   0.0371   0.0242   0.0187  -0.0213  -0.0151   0.00    1.4
2173 237127.000  -1422329.2529  -4226311.8699   4546317.6263   2   8   0.0248   0.0370   0.0241   0.0186  -0.0211  -0.0151   0.00    1.4
2173 237128.000  -1422329.2520  -4226311.8689   4546317.6354   2   8   0.0249   0.0368   0.0239   0.0185  -0.0211  -0.0150   0.00    1.4
2173 237129.000  -1422329.2541  -4226311.8742   4546317.6367   2   8   0.0247   0.0368   0.0239   0.0184  -0.0210  -0.0150   0.00    1.4
2173 237130.000  -1422329.2563  -4226311.8712   4546317.6353   2   8   0.0246   0.0367   0.0238   0.0183  -0.0209  -0.0150   0.00    1.4
2173 237131.000  -1422329.2600  -4226311.8718   4546317.6349   2   8   0.0246   0.0366   0.0237   0.0182  -0.0208  -0.0149   0.00    1.4
2173 237132.000  -1422329.2682  -4226311.8816   4546317.6370   2   8   0.0246   0.0364   0.0236   0.0182  -0.0207  -0.0148   0.00    1.4
2173 237133.000  -1422329.2660  -4226311.8735   4546317.6421   2   8   0.0244   0.0363   0.0235   0.0181  -0.0207  -0.0148   0.00    1.4
2173 237134.000  -1422329.2729  -4226311.8808   4546317.6420   2   8   0.0245   0.0362   0.0234   0.0180  -0.0206  -0.0147   0.00    1.4
2173 237135.000  -1422329.2753  -4226311.8818   4546317.6468   2   8   0.0244   0.0361   0.0233   0.0179  -0.0205  -0.0147   0.00    1.4
2173 237136.000  -1422329.2790  -4226311.8828   4546317.6559   2   8   0.0243   0.0360   0.0232   0.0179  -0.0204  -0.0145   0.00    1.3
2173 237137.000  -1422329.2829  -4226311.8903   4546317.6655   2   8   0.0244   0.0359   0.0231   0.0178  -0.0204  -0.0145   0.00    1.3
2173 237138.000  -1422329.2860  -4226311.8898   4546317.6811   2   8   0.0243   0.0358   0.0230   0.0177  -0.0203  -0.0146   0.00    1.3
2173 237139.000  -1422329.2903  -4226311.8937   4546317.6896   2   8   0.0241   0.0358   0.0229   0.0176  -0.0201  -0.0145   0.00    1.3
2173 237140.000  -1422329.2928  -4226311.9049   4546317.7039   2   8   0.0240   0.0356   0.0228   0.0176  -0.0201  -0.0144   0.00    1.3
2173 237141.000  -1422329.2973  -4226311.9086   4546317.7129   2   8   0.0240   0.0355   0.0226   0.0176  -0.0201  -0.0142   0.00    1.3
2173 237142.000  -1422329.3021  -4226311.9192   4546317.7322   2   8   0.0239   0.0354   0.0226   0.0174  -0.0200  -0.0142   0.00    1.3
2173 237143.000  -1422329.3070  -4226311.9292   4546317.7422   2   8   0.0239   0.0353   0.0225   0.0173  -0.0199  -0.0143   0.00    1.3
2173 237144.000  -1422329.3088  -4226311.9334   4546317.7524   2   8   0.0238   0.0352   0.0224   0.0173  -0.0198  -0.0142   0.00    1.3
2173 237145.000  -1422329.3105  -4226311.9379   4546317.7612   2   8   0.0239   0.0351   0.0223   0.0173  -0.0197  -0.0141   0.00    1.3
2173 237146.000  -1422329.3133  -4226311.9421   4546317.7730   2   8   0.0238   0.0350   0.0223   0.0172  -0.0197  -0.0140   0.00    1.3
2173 237147.000  -1422329.3155  -4226311.9485   4546317.7809   2   8   0.0237   0.0349   0.0221   0.0171  -0.0196  -0.0140   0.00    1.3
2173 237148.000  -1422329.3188  -4226311.9498   4546317.7843   2   8   0.0237   0.0348   0.0221   0.0169  -0.0195  -0.0141   0.00    1.3
2173 237149.000  -1422329.3137  -4226311.9502   4546317.7902   2   8   0.0237   0.0347   0.0220   0.0170  -0.0195  -0.0140   0.00    1.3
2173 237150.000  -1422329.3165  -4226311.9486   4546317.7928   2   8   0.0235   0.0347   0.0219   0.0168  -0.0193  -0.0139   0.00    1.3
2173 237151.000  -1422329.3185  -4226311.9538   4546317.7982   2   8   0.0235   0.0345   0.0218   0.0169  -0.0193  -0.0138   0.00    1.3
2173 237152.000  -1422329.3196  -4226311.9555   4546317.7986   2   8   0.0235   0.0345   0.0218   0.0167  -0.0192  -0.0138   0.00    1.3
2173 237153.000  -1422329.3212  -4226311.9592   4546317.8118   2   8   0.0233   0.0343   0.0217   0.0166  -0.0192  -0.0139   0.00    1.3
2173 237154.000  -1422329.3203  -4226311.9627   4546317.8121   2   8   0.0232   0.0343   0.0215   0.0166  -0.0191  -0.0137   0.00    1.3
2173 237155.000  -1422329.3245  -4226311.9678   4546317.8189   2   8   0.0231   0.0342   0.0215   0.0166  -0.0190  -0.0136   0.00    1.3
2173 237156.000  -1422329.3261  -4226311.9706   4546317.8230   2   8   0.0233   0.0341   0.0214   0.0164  -0.0190  -0.0137   0.00    1.3
2173 237157.000  -1422329.3299  -4226311.9714   4546317.8288   2   8   0.0231   0.0340   0.0214   0.0164  -0.0189  -0.0137   0.00    1.3
2173 237158.000  -1422329.3301  -4226311.9701   4546317.8282   2   8   0.0231   0.0339   0.0213   0.0163  -0.0189  -0.0137   0.00    1.3
2173 237159.000  -1422329.3299  -4226311.9750   4546317.8373   2   8   0.0230   0.0338   0.0212   0.0163  -0.0188  -0.0134   0.00    1.3
2173 237160.000  -1422329.3320  -4226311.9697   4546317.8378   2   8   0.0230   0.0337   0.0211   0.0162  -0.0187  -0.0133   0.00    1.3
2173 237161.000  -1422329.3310  -4226311.9668   4546317.8381   2   8   0.0230   0.0336   0.0210   0.0161  -0.0187  -0.0133   0.00    1.3
2173 237162.000  -1422329.3296  -4226311.9683   4546317.8379   2   8   0.0230   0.0335   0.0209   0.0161  -0.0186  -0.0133   0.00    1.3
2173 237163.000  -1422329.3330  -4226311.9730   4546317.8453   2   8   0.0230   0.0335   0.0210   0.0159  -0.0185  -0.0134   0.00    1.3
2173 237164.000  -1422329.3288  -4226311.9690   4546317.8410   2   8   0.0227   0.0333   0.0208   0.0159  -0.0185  -0.0134   0.00    1.3
2173 237165.000  -1422329.3265  -4226311.9725   4546317.8427   2   8   0.0228   0.0332   0.0207   0.0159  -0.0184  -0.0132   0.00    1.3
2173 237166.000  -1422329.3276  -4226311.9720   4546317.8487   2   8   0.0226   0.0332   0.0207   0.0158  -0.0184  -0.0133   0.00    1.3
2173 237167.000  -1422329.3227  -4226311.9714   4546317.8482   2   8   0.0225   0.0331   0.0206   0.0158  -0.0183  -0.0133   0.00    1.3
2173 237168.000  -1422329.3246  -4226311.9671   4546317.8486   2   8   0.0224   0.0330   0.0206   0.0157  -0.0182  -0.0131   0.00    1.3
2173 237169.000  -1422329.3206  -4226311.9674   4546317.8510   2   8   0.0224   0.0329   0.0204   0.0157  -0.0182  -0.0130   0.00    1.3
2173 237170.000  -1422329.3199  -4226311.9610   4546317.8401   2   8   0.0224   0.0328   0.0204   0.0156  -0.0181  -0.0130   0.00    1.3
2173 237171.000  -1422329.3197  -4226311.9658   4546317.8496   2   8   0.0223   0.0328   0.0204   0.0155  -0.0180  -0.0131   0.00    1.3
2173 237172.000  -1422329.3178  -4226311.9592   4546317.8504   2   8   0.0223   0.0326   0.0203   0.0154  -0.0181  -0.0131   0.00    1.3
2173 237173.000  -1422329.3148  -4226311.9542   4546317.8443   2   8   0.0223   0.0326   0.0202   0.0154  -0.0179  -0.0129   0.00    1.3
2173 237174.000  -1422329.3163  -4226311.9554   4546317.8505   2   8   0.0222   0.0325   0.0202   0.0153  -0.0179  -0.0130   0.00    1.3
2173 237175.000  -1422329.3122  -4226311.9533   4546317.8499   2   8   0.0222   0.0324   0.0201   0.0152  -0.0178  -0.0130   0.00    1.3
2173 237176.000  -1422329.3166  -4226311.9598   4546317.8560   2   8   0.0221   0.0323   0.0200   0.0152  -0.0177  -0.0128   0.00    1.3
2173 237177.000  -1422329.3163  -4226311.9546   4546317.8519   2   8   0.0219   0.0323   0.0200   0.0151  -0.0177  -0.0129   0.00    1.3
2173 237178.000  -1422329.3142  -4226311.9504   4546317.8454   2   8   0.0219   0.0322   0.0199   0.0150  -0.0176  -0.0129   0.00    1.3
2173 237179.000  -1422329.3141  -4226311.9547   4546317.8505   2   8   0.0219   0.0321   0.0198   0.0150  -0.0176  -0.0127   0.00    1.3
2173 237180.000  -1422329.3136  -4226311.9522   4546317.8492   2   8   0.0219   0.0320   0.0198   0.0149  -0.0175  -0.0128   0.00    1.3
2173 237181.000  -1422329.3141  -4226311.9461   4546317.8473   2   8   0.0219   0.0320   0.0197   0.0148  -0.0174  -0.0127   0.00    1.3
2173 237182.000  -1422329.3164  -4226311.9529   4546317.8526   2   8   0.0217   0.0319   0.0196   0.0148  -0.0174  -0.0126   0.00    1.3
2173 237183.000  -1422329.3104  -4226311.9427   4546317.8402   2   8   0.0218   0.0318   0.0196   0.0148  -0.0174  -0.0124   0.00    1.3
2173 237184.000  -1422329.3078  -4226311.9376   4546317.8286   2   8   0.0218   0.0317   0.0195   0.0147  -0.0174  -0.0126   0.00    1.3
2173 237185.000  -1422329.3100  -4226311.9409   4546317.8410   2   8   0.0218   0.0316   0.0195   0.0146  -0.0173  -0.0126   0.00    1.3
2173 237186.000  -1422329.3044  -4226311.9328   4546317.8350   2   8   0.0216   0.0315   0.0194   0.0146  -0.0172  -0.0126   0.00    1.3
2173 237187.000  -1422329.3011  -4226311.9306   4546317.8269   2   8   0.0213   0.0315   0.0193   0.0145  -0.0171  -0.0125   0.00    1.3
2173 237188.000  -1422329.2985  -4226311.9178   4546317.8226   2   8   0.0215   0.0314   0.0193   0.0144  -0.0171  -0.0124   0.00    1.3
2173 237189.000  -1422329.2982  -4226311.9136   4546317.8207   2   8   0.0213   0.0313   0.0192   0.0144  -0.0171  -0.0124   0.00    1.3
2173 237190.000  -1422329.2958  -4226311.9069   4546317.8199   2   8   0.0215   0.0313   0.0192   0.0143  -0.0170  -0.0123   0.00    1.3
2173 237191.000  -1422329.2954  -4226311.9051   4546317.8175   2   8   0.0214   0.0311   0.0191   0.0143  -0.0170  -0.0124   0.00    1.3
2173 237192.000  -1422329.2947  -4226311.9060   4546317.8231   2   8   0.0212   0.0311   0.0190   0.0142  -0.0169  -0.0123   0.00    1.3
2173 237193.000  -1422329.2929  -4226311.8974   4546317.8251   2   8   0.0212   0.0310   0.0189   0.0142  -0.0170  -0.0123   0.00    1.3
2173 237194.000  -1422329.2627  -4226311.8621   4546317.7740   2   8   0.0211   0.0309   0.0190   0.0142  -0.0169  -0.0123   0.00    1.4
2173 237195.000  -1422329.2583  -4226311.8525   4546317.7684   2   8   0.0212   0.0309   0.0190   0.0141  -0.0168  -0.0122   0.00    1.4
2173 237196.000  -1422329.2505  -4226311.8383   4546317.7634   2   8   0.0211   0.0308   0.0188   0.0140  -0.0167  -0.0122   0.00    1.4
2173 237197.000  -1422329.2474  -4226311.8316   4546317.7585   2   8   0.0212   0.0307   0.0187   0.0140  -0.0168  -0.0121   0.00    1.4
2173 237198.000  -1422329.2461  -4226311.8246   4546317.7550   2   8   0.0210   0.0306   0.0187   0.0139  -0.0167  -0.0120   0.00    1.4
2173 237199.000  -1422329.2362  -4226311.8148   4546317.7490   2   8   0.0210   0.0306   0.0187   0.0138  -0.0166  -0.0120   0.00    1.4
2173 237200.000  -1422329.2311  -4226311.8044   4546317.7383   2   8   0.0210   0.0305   0.0186   0.0139  -0.0166  -0.0120   0.00    1.4
2173 237201.000  -1422329.2328  -4226311.8035   4546317.7430   2   8   0.0211   0.0304   0.0186   0.0137  -0.0165  -0.0121   0.00    1.4
2173 237202.000  -1422329.2270  -4226311.7944   4546317.7357   2   8   0.0208   0.0304   0.0186   0.0136  -0.0164  -0.0120   0.00    1.4
2173 237203.000  -1422329.2233  -4226311.7869   4546317.7313   2   8   0.0208   0.0303   0.0185   0.0137  -0.0164  -0.0119   0.00    1.4
2173 237204.000  -1422329.2196  -4226311.7787   4546317.7247   2   8   0.0207   0.0302   0.0185   0.0136  -0.0163  -0.0119   0.00    1.4
2173 237205.000  -1422329.2152  -4226311.7709   4546317.7237   2   8   0.0208   0.0301   0.0184   0.0134  -0.0163  -0.0120   0.00    1.4
2173 237206.000  -1422329.2123  -4226311.7613   4546317.7139   2   8   0.0207   0.0300   0.0183   0.0135  -0.0163  -0.0119   0.00    1.4
2173 237207.000  -1422329.2075  -4226311.7527   4546317.7156   2   8   0.0207   0.0300   0.0182   0.0135  -0.0162  -0.0118   0.00    1.4
2173 237208.000  -1422329.2073  -4226311.7577   4546317.7215   2   8   0.0207   0.0299   0.0182   0.0134  -0.0162  -0.0117   0.00    1.4
2173 237209.000  -1422329.2043  -4226311.7461   4546317.7143   2   8   0.0206   0.0299   0.0182   0.0132  -0.0161  -0.0118   0.00    1.4
2173 237210.000  -1422329.2051  -4226311.7469   4546317.7087   2   8   0.0206   0.0298   0.0181   0.0133  -0.0161  -0.0116   0.00    1.4
2173 237211.000  -1422329.2009  -4226311.7390   4546317.7053   2   8   0.0204   0.0297   0.0181   0.0131  -0.0161  -0.0118   0.00    1.5
2173 237212.000  -1422329.2025  -4226311.7392   4546317.7130   2   8   0.0203   0.0297   0.0181   0.0131  -0.0159  -0.0117   0.00    1.5
2173 237213.000  -1422329.1997  -4226311.7358   4546317.7070   2   8   0.0205   0.0297   0.0180   0.0130  -0.0159  -0.0117   0.00    1.5
2173 237214.000  -1422329.1999  -4226311.7362   4546317.7086   2   8   0.0204   0.0295   0.0180   0.0131  -0.0159  -0.0117   0.00    1.5
2173 237215.000  -1422329.1928  -4226311.7243   4546317.7004   2   8   0.0201   0.0295   0.0179   0.0130  -0.0158  -0.0116   0.00    1.5
2173 237216.000  -1422329.1913  -4226311.7252   4546317.7026   2   8   0.0205   0.0294   0.0178   0.0130  -0.0159  -0.0115   0.00    1.5
2173 237217.000  -1422329.1903  -4226311.7235   4546317.7036   2   8   0.0203   0.0293   0.0178   0.0129  -0.0158  -0.0116   0.00    1.5
2173 237218.000  -1422329.1873  -4226311.7197   4546317.6966   2   8   0.0202   0.0293   0.0178   0.0128  -0.0157  -0.0115   0.00    1.5
2173 237219.000  -1422329.1846  -4226311.7165   4546317.6961   2   8   0.0200   0.0292   0.0177   0.0127  -0.0157  -0.0116   0.00    1.5
2173 237220.000  -1422329.1840  -4226311.7177   4546317.7003   2   8   0.0201   0.0291   0.0177   0.0127  -0.0157  -0.0115   0.00    1.5
2173 237221.000  -1422329.1764  -4226311.7053   4546317.6880   2   8   0.0200   0.0291   0.0177   0.0127  -0.0156  -0.0115   0.00    1.5
2173 237222.000  -1422329.1732  -4226311.6986   4546317.6907   2   8   0.0199   0.0290   0.0176   0.0128  -0.0157  -0.0113   0.00    1.5
2173 237223.000  -1422329.1736  -4226311.6946   4546317.6852   2   8   0.0200   0.0289   0.0176   0.0125  -0.0155  -0.0114   0.00    1.5
2173 237224.000  -1422329.1701  -4226311.6931   4546317.6837   2   8   0.0200   0.0289   0.0175   0.0125  -0.0156  -0.0114   0.00    1.5
2173 237225.000  -1422329.1704  -4226311.6903   4546317.6842   2   8   0.0198   0.0288   0.0175   0.0125  -0.0155  -0.0113   0.00    1.5
2173 237226.000  -1422329.1686  -4226311.6863   4546317.6799   2   8   0.0199   0.0288   0.0174   0.0124  -0.0154  -0.0112   0.00    1.5
2173 237227.000  -1422329.1672  -4226311.6835   4546317.6767   2   8   0.0199   0.0287   0.0174   0.0123  -0.0154  -0.0113   0.00    1.5
2173 237228.000  -1422329.1655  -4226311.6785   4546317.6786   2   8   0.0198   0.0286   0.0173   0.0123  -0.0154  -0.0112   0.00    1.5
2173 237229.000  -1422329.1625  -4226311.6778   4546317.6775   2   8   0.0198   0.0286   0.0173   0.0122  -0.0153  -0.0112   0.00    1.5
2173 237230.000  -1422329.1630  -4226311.6686   4546317.6695   2   8   0.0198   0.0285   0.0173   0.0122  -0.0153  -0.0112   0.00    1.5
2173 237231.000  -1422329.1557  -4226311.6599   4546317.6679   2   8   0.0197   0.0284   0.0172   0.0123  -0.0153  -0.0112   0.00    1.5
2173 237232.000  -1422329.1549  -4226311.6612   4546317.6680   2   8   0.0196   0.0284   0.0172   0.0122  -0.0152  -0.0111   0.00    1.5
2173 237233.000  -1422329.1487  -4226311.6540   4546317.6661   2   8   0.0196   0.0283   0.0171   0.0121  -0.0152  -0.0110   0.00    1.5
2173 237234.000  -1422329.1493  -4226311.6548   4546317.6695   2   8   0.0194   0.0283   0.0171   0.0120  -0.0152  -0.0112   0.00    1.5
2173 237235.000  -1422329.1446  -4226311.6473   4546317.6642   2   8   0.0197   0.0281   0.0171   0.0121  -0.0152  -0.0111   0.00    1.5
2173 237236.000  -1422329.1416  -4226311.6387   4546317.6609   2   8   0.0195   0.0281   0.0170   0.0120  -0.0151  -0.0110   0.00    1.5
2173 237237.000  -1422329.1358  -4226311.6074   4546317.5844   2   8   0.0193   0.0281   0.0170   0.0118  -0.0151  -0.0111   0.00    1.5
2173 237238.000  -1422329.1378  -4226311.6091   4546317.5853   2   8   0.0193   0.0280   0.0170   0.0119  -0.0150  -0.0109   0.00    1.5
2173 237239.000  -1422329.1394  -4226311.6150   4546317.5862   2   8   0.0194   0.0280   0.0170   0.0118  -0.0150  -0.0109   0.00    1.5
2173 237240.000  -1422329.1452  -4226311.6271   4546317.6015   2   8   0.0192   0.0279   0.0169   0.0118  -0.0150  -0.0110   0.00    1.5
2173 237241.000  -1422329.1429  -4226311.6254   4546317.5989   2   8   0.0194   0.0278   0.0169   0.0118  -0.0150  -0.0109   0.00    1.5
2173 237242.000  -1422329.1470  -4226311.6325   4546317.6066   2   8   0.0191   0.0278   0.0169   0.0116  -0.0149  -0.0110   0.00    1.5
2173 237243.000  -1422329.1478  -4226311.6366   4546317.6089   2   8   0.0192   0.0277   0.0168   0.0115  -0.0149  -0.0108   0.00    1.5
2173 237244.000  -1422329.1474  -4226311.6405   4546317.6059   2   8   0.0192   0.0277   0.0168   0.0116  -0.0148  -0.0108   0.00    1.5
2173 237245.000  -1422329.1524  -4226311.6483   4546317.6131   2   8   0.0192   0.0276   0.0167   0.0115  -0.0148  -0.0108   0.00    1.5
2173 237246.000  -1422329.1588  -4226311.6580   4546317.6199   2   8   0.0193   0.0276   0.0166   0.0114  -0.0148  -0.0108   0.00    1.5
2173 237247.000  -1422329.1535  -4226311.6516   4546317.6065   2   8   0.0191   0.0275   0.0166   0.0115  -0.0148  -0.0106   0.00    1.5
2173 237248.000  -1422329.1566  -4226311.6562   4546317.6225   2   8   0.0188   0.0274   0.0167   0.0115  -0.0147  -0.0107   0.00    1.5
2173 237249.000  -1422329.1553  -4226311.6588   4546317.6227   2   8   0.0191   0.0274   0.0166   0.0113  -0.0146  -0.0107   0.00    1.5
2173 237250.000  -1422329.1575  -4226311.6586   4546317.6248   2   8   0.0190   0.0273   0.0165   0.0113  -0.0146  -0.0106   0.00    1.5
2173 237251.000  -1422329.1591  -4226311.6586   4546317.6229   2   8   0.0189   0.0273   0.0165   0.0113  -0.0146  -0.0107   0.00    1.5
2173 237252.000  -1422329.1614  -4226311.6695   4546317.6321   2   8   0.0189   0.0272   0.0166   0.0112  -0.0145  -0.0107   0.00    1.5
2173 237253.000  -1422329.1605  -4226311.6655   4546317.6260   2   8   0.0191   0.0271   0.0165   0.0112  -0.0145  -0.0107   0.00    1.5
2173 237254.000  -1422329.1658  -4226311.6731   4546317.6323   2   8   0.0191   0.0271   0.0165   0.0112  -0.0146  -0.0106   0.00    1.5
2173 237255.000  -1422329.1558  -4226311.6577   4546317.6024   2   8   0.0189   0.0270   0.0164   0.0110  -0.0145  -0.0106   0.00    1.5
2173 237256.000  -1422329.1555  -4226311.6555   4546317.5968   2   8   0.0188   0.0270   0.0164   0.0110  -0.0144  -0.0105   0.00    1.5
2173 237257.000  -1422329.1550  -4226311.6579   4546317.5974   2   8   0.0187   0.0269   0.0163   0.0111  -0.0144  -0.0105   0.00    1.5
2173 237258.000  -1422329.1560  -4226311.6604   4546317.6008   2   8   0.0188   0.0269   0.0163   0.0111  -0.0145  -0.0105   0.00    1.5
2173 237259.000  -1422329.1568  -4226311.6633   4546317.6076   2   8   0.0189   0.0268   0.0163   0.0109  -0.0143  -0.0106   0.00    1.5
2173 237260.000  -1422329.1522  -4226311.6581   4546317.6057   2   8   0.0187   0.0268   0.0162   0.0108  -0.0143  -0.0106   0.00    1.5
2173 237261.000  -1422329.1545  -4226311.6645   4546317.6074   2   8   0.0185   0.0267   0.0162   0.0109  -0.0143  -0.0105   0.00    1.5
2173 237262.000  -1422329.1564  -4226311.6696   4546317.6200   2   8   0.0185   0.0267   0.0162   0.0108  -0.0142  -0.0105   0.00    1.5
2173 237263.000  -1422329.1574  -4226311.6683   4546317.6140   2   8   0.0186   0.0266   0.0161   0.0107  -0.0142  -0.0104   0.00    1.5
2173 237264.000  -1422329.1576  -4226311.6739   4546317.6189   2   8   0.0185   0.0265   0.0162   0.0108  -0.0142  -0.0104   0.00    1.5
2173 237265.000  -1422329.1600  -4226311.6745   4546317.6186   2   8   0.0186   0.0265   0.0161   0.0107  -0.0142  -0.0104   0.00    1.4
2173 237266.000  -1422329.1583  -4226311.6785   4546317.6263   2   8   0.0185   0.0265   0.0160   0.0106  -0.0142  -0.0104   0.00    1.4
2173 237267.000  -1422329.1584  -4226311.6780   4546317.6222   2   8   0.0182   0.0264   0.0160   0.0105  -0.0141  -0.0103   0.00    1.4
2173 237268.000  -1422329.1576  -4226311.6748   4546317.6207   2   8   0.0184   0.0264   0.0160   0.0104  -0.0141  -0.0105   0.00    1.4
2173 237269.000  -1422329.1616  -4226311.6853   4546317.6314   2   8   0.0184   0.0263   0.0161   0.0105  -0.0141  -0.0104   0.00    1.4
2173 237270.000  -1422329.1578  -4226311.6799   4546317.6236   2   8   0.0184   0.0262   0.0159   0.0105  -0.0141  -0.0103   0.00    1.4
2173 237271.000  -1422329.1595  -4226311.6831   4546317.6302   2   8   0.0183   0.0262   0.0160   0.0104  -0.0140  -0.0104   0.00    1.4
2173 237272.000  -1422329.1569  -4226311.6791   4546317.6200   2   8   0.0180   0.0262   0.0159   0.0103  -0.0139  -0.0103   0.00    1.4
2173 237273.000  -1422329.1528  -4226311.6788   4546317.6260   2   8   0.0183   0.0261   0.0158   0.0103  -0.0140  -0.0101   0.00    1.4
2173 237274.000  -1422329.1529  -4226311.6815   4546317.6307   2   8   0.0182   0.0261   0.0159   0.0102  -0.0139  -0.0103   0.00    1.4
2173 237275.000  -1422329.1523  -4226311.6819   4546317.6250   2   8   0.0182   0.0260   0.0159   0.0102  -0.0138  -0.0103   0.00    1.4
2173 237276.000  -1422329.1544  -4226311.6859   4546317.6278   2   8   0.0181   0.0260   0.0158   0.0101  -0.0138  -0.0102   0.00    1.4
2173 237277.000  -1422329.1522  -4226311.6856   4546317.6297   2   8   0.0181   0.0259   0.0158   0.0102  -0.0139  -0.0102   0.00    1.4
2173 237278.000  -1422329.1557  -4226311.6910   4546317.6336   2   8   0.0179   0.0259   0.0157   0.0101  -0.0138  -0.0101   0.00    1.4
2173 237279.000  -1422329.1556  -4226311.6965   4546317.6358   2   8   0.0178   0.0258   0.0157   0.0101  -0.0137  -0.0102   0.00    1.4
2173 237280.000  -1422329.1553  -4226311.6940   4546317.6341   2   8   0.0180   0.0258   0.0157   0.0101  -0.0138  -0.0100   0.00    1.4
2173 237281.000  -1422329.1585  -4226311.6938   4546317.6332   2   8   0.0179   0.0257   0.0156   0.0100  -0.0138  -0.0100   0.00    1.4
2173 237282.000  -1422329.1608  -4226311.6964   4546317.6355   2   8   0.0178   0.0256   0.0157   0.0100  -0.0137  -0.0101   0.00    1.4
2173 237283.000  -1422329.1600  -4226311.6955   4546317.6275   2   8   0.0178   0.0256   0.0156   0.0099  -0.0136  -0.0102   0.00    1.4
2173 237284.000  -1422329.1601  -4226311.6979   4546317.6354   2   8   0.0180   0.0256   0.0155   0.0099  -0.0136  -0.0100   0.00    1.4
2173 237285.000  -1422329.1634  -4226311.7027   4546317.6395   2   8   0.0179   0.0255   0.0156   0.0099  -0.0137  -0.0101   0.00    1.4
2173 237286.000  -1422329.1605  -4226311.7004   4546317.6422   2   8   0.0178   0.0255   0.0155   0.0098  -0.0136  -0.0099   0.00    1.4
2173 237287.000  -1422329.1599  -4226311.6993   4546317.6420   2   8   0.0181   0.0254   0.0155   0.0099  -0.0136  -0.0100   0.00    1.4
2173 237288.000  -1422329.1631  -4226311.7053   4546317.6443   2   8   0.0178   0.0254   0.0155   0.0097  -0.0136  -0.0100   0.00    1.4
2173 237289.000  -1422329.1601  -4226311.7016   4546317.6429   2   8   0.0178   0.0254   0.0155   0.0097  -0.0134  -0.0100   0.00    1.4
2173 237290.000  -1422329.1576  -4226311.6986   4546317.6385   2   8   0.0177   0.0253   0.0154   0.0097  -0.0135  -0.0100   0.00    1.4
2173 237291.000  -1422329.1607  -4226311.6997   4546317.6474   2   8   0.0178   0.0252   0.0153   0.0097  -0.0135  -0.0099   0.00    1.4
2173 237292.000  -1422329.1590  -4226311.6967   4546317.6441   2   8   0.0175   0.0252   0.0154   0.0097  -0.0135  -0.0099   0.00    1.4
2173 237293.000  -1422329.1591  -4226311.7020   4546317.6488   2   8   0.0176   0.0252   0.0154   0.0096  -0.0134  -0.0098   0.00    1.4
2173 237294.000  -1422329.1618  -4226311.7050   4546317.6560   2   8   0.0176   0.0251   0.0153   0.0095  -0.0134  -0.0099   0.00    1.4
2173 237295.000  -1422329.1635  -4226311.7025   4546317.6466   2   8   0.0177   0.0250   0.0153   0.0095  -0.0134  -0.0097   0.00    1.4
2173 237296.000  -1422329.1627  -4226311.7042   4546317.6511   2   8   0.0173   0.0250   0.0153   0.0093  -0.0134  -0.0099   0.00    1.4
2173 237297.000  -1422329.1707  -4226311.7145   4546317.6579   2   8   0.0174   0.0250   0.0152   0.0095  -0.0134  -0.0097   0.00    1.4
2173 237298.000  -1422329.1739  -4226311.7157   4546317.6598   2   8   0.0175   0.0249   0.0152   0.0094  -0.0133  -0.0097   0.00    1.4
2173 237299.000  -1422329.1743  -4226311.7154   4546317.6519   2   8   0.0175   0.0248   0.0152   0.0094  -0.0133  -0.0097   0.00    1.4
2173 237300.000  -1422329.1757  -4226311.7169   4546317.6512   2   8   0.0174   0.0249   0.0152   0.0092  -0.0132  -0.0099   0.00    1.4
2173 237301.000  -1422329.1778  -4226311.7210   4546317.6607   2   8   0.0174   0.0248   0.0152   0.0092  -0.0132  -0.0098   0.00    1.4
2173 237302.000  -1422329.1764  -4226311.7215   4546317.6585   2   8   0.0172   0.0248   0.0152   0.0092  -0.0132  -0.0097   0.00    1.3
2173 237303.000  -1422329.1765  -4226311.7233   4546317.6571   2   8   0.0175   0.0247   0.0151   0.0093  -0.0132  -0.0096   0.00    1.3
