% program   : rnx2rtkp ver.2.4.3 b31
% inp file  : ngs/21_08_31_18_18_25_okdt.obs
% inp file  : ngs/21_08_31_18_18_25_okdt_P1.obs
% inp file  : ngs/21_08_31_18_18_25_brdc.nav
% obs start : 2021/08/31 18:00:00.0 GPST (week2173 237600.0s)
% obs end   : 2021/08/31 18:59:59.0 GPST (week2173 241199.0s)
% ref pos   :  -676049.6620  -5145466.3320   3695940.4870
%
% (x/y/z-ecef=WGS84,Q=1:fix,2:float,3:sbas,4:dgps,5:single,6:ppp,ns=# of satellites)
%  GPST              x-ecef(m)      y-ecef(m)      z-ecef(m)   Q  ns   sdx(m)   sdy(m)   sdz(m)  sdxy(m)  sdyz(m)  sdzx(m) age(s)  ratio
2173 238680.000   -679343.5049  -5154772.6586   3682489.8313   2   7   0.4452   1.1023   1.1346   0.4118  -0.9682  -0.4832 -30.00    1.0
2173 238681.000   -679343.5011  -5154772.6548   3682489.8235   2   7   0.3165   0.7859   0.8092   0.2927  -0.6912  -0.3433 -29.00    1.0
2173 238682.000   -679343.5017  -5154772.6573   3682489.8218   2   7   0.2591   0.6438   0.6629   0.2395  -0.5663  -0.2810 -28.00    1.0
2173 238683.000   -679343.5029  -5154772.6563   3682489.8255   2   7   0.2247   0.5587   0.5751   0.2077  -0.4914  -0.2437 -27.00    1.0
2173 238684.000   -679343.5043  -5154772.6565   3682489.8277   2   7   0.2013   0.5004   0.5150   0.1859  -0.4400  -0.2182 -26.00    1.0
2173 238685.000   -679343.5047  -5154772.6544   3682489.8249   2   7   0.1839   0.4572   0.4706   0.1698  -0.4020  -0.1994 -25.00    1.0
2173 238686.000   -679343.5065  -5154772.6536   3682489.8272   2   7   0.1704   0.4236   0.4359   0.1572  -0.3724  -0.1847 -24.00    1.0
2173 238687.000   -679343.5084  -5154772.6562   3682489.8312   2   7   0.1595   0.3965   0.4079   0.1471  -0.3485  -0.1728 -23.00    1.0
2173 238688.000   -679343.5099  -5154772.6599   3682489.8342   2   7   0.1504   0.3739   0.3847   0.1387  -0.3286  -0.1629 -22.00    1.0
2173 238689.000   -679343.5108  -5154772.6598   3682489.8360   2   7   0.1427   0.3548   0.3650   0.1315  -0.3118  -0.1546 -21.00    1.0
2173 238690.000   -679343.5113  -5154772.6616   3682489.8385   2   7   0.1361   0.3384   0.3480   0.1254  -0.2973  -0.1473 -20.00    1.0
2173 238691.000   -679343.5129  -5154772.6608   3682489.8415   2   7   0.1303   0.3240   0.3331   0.1200  -0.2846  -0.1410 -19.00    1.0
2173 238692.000   -679343.5128  -5154772.6611   3682489.8446   2   7   0.1252   0.3113   0.3200   0.1152  -0.2734  -0.1354 -18.00    1.0
2173 238693.000   -679343.5132  -5154772.6626   3682489.8478   2   7   0.1206   0.2999   0.3083   0.1110  -0.2635  -0.1304 -17.00    1.1
2173 238694.000   -679343.5121  -5154772.6602   3682489.8486   2   7   0.1164   0.2897   0.2977   0.1071  -0.2545  -0.1259 -16.00    1.1
2173 238695.000   -679343.5107  -5154772.6594   3682489.8508   2   7   0.1127   0.2804   0.2881   0.1036  -0.2463  -0.1218 -15.00    1.1
2173 238696.000   -679343.5108  -5154772.6585   3682489.8505   2   7   0.1093   0.2720   0.2794   0.1005  -0.2389  -0.1180 -14.00    1.1
2173 238697.000   -679343.5082  -5154772.6561   3682489.8535   2   7   0.1061   0.2642   0.2713   0.0975  -0.2321  -0.1146 -13.00    1.1
2173 238698.000   -679343.5087  -5154772.6562   3682489.8540   2   7   0.1032   0.2571   0.2639   0.0948  -0.2258  -0.1114 -12.00    1.1
2173 238699.000   -679343.5085  -5154772.6580   3682489.8580   2   7   0.1005   0.2505   0.2571   0.0923  -0.2200  -0.1085 -11.00    1.1
2173 238700.000   -679343.5073  -5154772.6589   3682489.8606   2   7   0.0980   0.2443   0.2507   0.0900  -0.2145  -0.1057 -10.00    1.1
2173 238701.000   -679343.5066  -5154772.6552   3682489.8579   2   7   0.0957   0.2386   0.2447   0.0878  -0.2095  -0.1031  -9.00    1.0
2173 238702.000   -679343.5068  -5154772.6554   3682489.8622   2   7   0.0936   0.2333   0.2391   0.0858  -0.2048  -0.1007  -8.00    1.0
2173 238703.000   -679343.5066  -5154772.6549   3682489.8625   2   7   0.0915   0.2282   0.2339   0.0839  -0.2003  -0.0985  -7.00    1.0
2173 238704.000   -679343.5040  -5154772.6481   3682489.8575   2   7   0.0896   0.2235   0.2289   0.0821  -0.1961  -0.0963  -6.00    1.0
2173 238705.000   -679343.5050  -5154772.6500   3682489.8602   2   7   0.0878   0.2190   0.2242   0.0804  -0.1921  -0.0943  -5.00    1.0
2173 238706.000   -679343.5044  -5154772.6503   3682489.8631   2   7   0.0861   0.2148   0.2198   0.0788  -0.1884  -0.0924  -4.00    1.0
2173 238707.000   -679343.5042  -5154772.6486   3682489.8653   2   7   0.0845   0.2109   0.2155   0.0773  -0.1848  -0.0906  -3.00    1.0
2173 238708.000   -679343.5060  -5154772.6529   3682489.8728   2   7   0.0830   0.2071   0.2115   0.0758  -0.1814  -0.0889  -2.00    1.1
2173 238709.000   -679343.5052  -5154772.6541   3682489.8747   2   7   0.0815   0.2035   0.2077   0.0744  -0.1782  -0.0873  -1.00    1.1
2173 238710.000   -679343.5056  -5154772.6527   3682489.8786   2   7   0.0802   0.2001   0.2041   0.0732  -0.1752  -0.0857   0.00    1.1
2173 238711.000   -679343.6006  -5154772.7740   3682489.9989   2   7   0.4434   1.0975   1.1238   0.4066  -0.9599  -0.4777   0.00    1.0
2173 238712.000   -679343.5400  -5154772.7055   3682490.1861   2   7   0.4434   1.0974   1.1235   0.4065  -0.9597  -0.4775   0.00    1.1
2173 238713.000   -679343.4594  -5154772.4383   3682490.0135   2   7   0.4434   1.0973   1.1232   0.4063  -0.9595  -0.4774   0.00    1.0
2173 238714.000   -679343.5037  -5154772.2789   3682489.8917   2   7   0.4433   1.0972   1.1229   0.4062  -0.9592  -0.4772   0.00    1.1
2173 238715.000   -679343.5186  -5154772.3319   3682490.0279   2   7   0.4433   1.0971   1.1226   0.4060  -0.9590  -0.4771   0.00    1.0
2173 238716.000   -679343.5291  -5154772.5200   3682490.2701   2   7   0.4433   1.0970   1.1223   0.4059  -0.9588  -0.4769   0.00    1.1
2173 238717.000   -679343.5284  -5154772.4309   3682490.1159   2   7   0.4432   1.0968   1.1220   0.4057  -0.9585  -0.4768   0.00    1.0
2173 238718.000   -679343.5426  -5154772.4901   3682489.9828   2   7   0.4432   1.0967   1.1217   0.4056  -0.9583  -0.4766   0.00    1.1
2173 238719.000   -679343.5575  -5154772.5946   3682490.1504   2   7   0.4432   1.0966   1.1214   0.4054  -0.9581  -0.4765   0.00    1.1
2173 238720.000   -679343.5473  -5154772.6682   3682490.3008   2   7   0.4431   1.0965   1.1211   0.4053  -0.9578  -0.4763   0.00    1.2
2173 238721.000   -679343.4666  -5154772.6560   3682490.2174   2   7   0.4431   1.0964   1.1208   0.4051  -0.9576  -0.4762   0.00    1.0
2173 238722.000   -679343.4149  -5154772.4414   3682490.1007   2   7   0.4431   1.0963   1.1205   0.4050  -0.9574  -0.4760   0.00    1.1
2173 238723.000   -679343.3498  -5154772.3295   3682489.8428   2   7   0.4430   1.0962   1.1202   0.4048  -0.9572  -0.4759   0.00    1.0
2173 238724.000   -679343.3285  -5154772.3161   3682489.6385   2   7   0.4430   1.0961   1.1199   0.4047  -0.9569  -0.4757   0.00    1.0
2173 238725.000   -679343.2897  -5154772.2848   3682489.5581   2   7   0.4430   1.0960   1.1196   0.4045  -0.9567  -0.4756   0.00    1.1
2173 238726.000   -679343.2681  -5154772.5514   3682489.8293   2   7   0.4429   1.0959   1.1193   0.4044  -0.9565  -0.4755   0.00    1.1
2173 238727.000   -679343.2049  -5154772.3470   3682489.4660   2   7   0.4429   1.0958   1.1190   0.4042  -0.9562  -0.4753   0.00    1.1
2173 238728.000   -679343.1708  -5154772.5315   3682489.6711   2   7   0.4429   1.0957   1.1187   0.4041  -0.9560  -0.4752   0.00    1.0
2173 238729.000   -679343.1961  -5154772.5110   3682489.6561   2   7   0.4428   1.0956   1.1184   0.4039  -0.9558  -0.4750   0.00    1.1
2173 238730.000   -679343.1761  -5154772.4584   3682489.4334   2   7   0.4428   1.0955   1.1181   0.4038  -0.9555  -0.4749   0.00    1.0
2173 238731.000   -679343.1881  -5154772.5504   3682489.4366   2   7   0.4428   1.0954   1.1178   0.4036  -0.9553  -0.4747   0.00    1.0
2173 238732.000   -679343.0470  -5154772.4645   3682489.3259   2   7   0.4427   1.0953   1.1175   0.4035  -0.9551  -0.4746   0.00    1.1
2173 238733.000   -679343.0659  -5154772.3895   3682489.2298   2   7   0.4427   1.0952   1.1172   0.4033  -0.9549  -0.4744   0.00    1.1
2173 238734.000   -679343.1909  -5154772.5947   3682489.5199   2   7   0.4427   1.0951   1.1169   0.4032  -0.9546  -0.4743   0.00    1.0
2173 238735.000   -679343.1632  -5154772.7062   3682489.6655   2   7   0.4426   1.0950   1.1166   0.4030  -0.9544  -0.4741   0.00    1.0
2173 238736.000   -679343.0860  -5154772.5953   3682489.5406   2   7   0.4426   1.0949   1.1163   0.4029  -0.9542  -0.4740   0.00    1.1
2173 238737.000   -679343.0253  -5154772.6426   3682489.5889   2   7   0.4426   1.0948   1.1160   0.4028  -0.9539  -0.4738   0.00    1.1
2173 238738.000   -679343.0559  -5154772.8160   3682489.7647   2   7   0.4425   1.0947   1.1157   0.4026  -0.9537  -0.4737   0.00    1.1
2173 238739.000   -679343.1395  -5154772.9490   3682489.9762   2   7   0.4425   1.0945   1.1154   0.4025  -0.9535  -0.4735   0.00    1.1
2173 238740.000   -679343.1074  -5154772.9470   3682489.9113   2   7   0.4425   1.0944   1.1151   0.4023  -0.9532  -0.4734   0.00    1.0
2173 238741.000   -679343.0658  -5154772.6303   3682489.7950   2   7   0.4425   1.0943   1.1149   0.4022  -0.9530  -0.4732   0.00    1.1
2173 238742.000   -679343.0741  -5154772.4064   3682489.7580   2   7   0.4424   1.0942   1.1146   0.4020  -0.9528  -0.4731   0.00    1.0
2173 238743.000   -679343.1043  -5154772.7140   3682489.8146   2   7   0.4424   1.0941   1.1143   0.4019  -0.9526  -0.4730   0.00    1.1
2173 238744.000   -679343.0770  -5154772.6001   3682489.8299   2   7   0.4424   1.0940   1.1140   0.4017  -0.9523  -0.4728   0.00    1.2
2173 238745.000   -679342.9519  -5154772.2732   3682489.7675   2   7   0.4423   1.0939   1.1137   0.4016  -0.9521  -0.4727   0.00    1.1
2173 238746.000   -679342.9138  -5154771.9954   3682489.4797   2   7   0.4423   1.0938   1.1134   0.4014  -0.9519  -0.4725   0.00    1.1
2173 238747.000   -679342.9003  -5154771.9530   3682489.3482   2   7   0.4423   1.0937   1.1131   0.4013  -0.9516  -0.4724   0.00    1.1
2173 238748.000   -679342.9452  -5154772.1780   3682489.5599   2   7   0.4422   1.0936   1.1128   0.4011  -0.9514  -0.4722   0.00    1.1
2173 238749.000   -679342.8361  -5154772.0195   3682489.4259   2   7   0.4422   1.0935   1.1125   0.4010  -0.9512  -0.4721   0.00    1.0
2173 238750.000   -679342.8670  -5154772.2671   3682489.5209   2   7   0.4422   1.0934   1.1122   0.4008  -0.9510  -0.4719   0.00    1.0
2173 238751.000   -679342.9130  -5154772.2748   3682489.5042   2   7   0.4421   1.0933   1.1119   0.4007  -0.9507  -0.4718   0.00    1.0
2173 238752.000   -679342.9399  -5154772.6707   3682489.6441   2   7   0.4421   1.0932   1.1116   0.4005  -0.9505  -0.4716   0.00    1.0
2173 238753.000   -679342.9876  -5154772.8896   3682489.9157   2   7   0.4421   1.0931   1.1113   0.4004  -0.9503  -0.4715   0.00    1.0
2173 238754.000   -679343.0037  -5154773.1489   3682490.0621   2   7   0.4420   1.0930   1.1110   0.4002  -0.9500  -0.4713   0.00    1.1
2173 238755.000   -679343.0125  -5154773.0688   3682490.0863   2   7   0.4420   1.0929   1.1107   0.4001  -0.9498  -0.4712   0.00    1.1
2173 238756.000   -679343.0527  -5154773.1397   3682490.1806   2   7   0.4420   1.0928   1.1104   0.3999  -0.9496  -0.4710   0.00    1.1
2173 238757.000   -679343.0166  -5154773.0425   3682490.3066   2   7   0.4419   1.0927   1.1101   0.3998  -0.9494  -0.4709   0.00    1.1
2173 238758.000   -679343.0525  -5154772.9838   3682490.1256   2   7   0.4419   1.0926   1.1098   0.3996  -0.9491  -0.4707   0.00    1.0
2173 238759.000   -679343.1545  -5154773.0620   3682490.3321   2   7   0.4419   1.0925   1.1095   0.3995  -0.9489  -0.4706   0.00    1.0
2173 238760.000   -679343.0915  -5154773.0029   3682490.1565   2   7   0.4418   1.0924   1.1092   0.3993  -0.9487  -0.4705   0.00    1.0
2173 238761.000   -679342.9748  -5154773.1785   3682490.3493   2   7   0.4418   1.0923   1.1090   0.3992  -0.9485  -0.4703   0.00    1.1
2173 238762.000   -679342.9861  -5154773.3861   3682490.5364   2   7   0.4418   1.0922   1.1087   0.3990  -0.9482  -0.4702   0.00    1.0
2173 238763.000   -679342.9283  -5154773.5813   3682490.7130   2   7   0.4418   1.0921   1.1084   0.3989  -0.9480  -0.4700   0.00    1.1
2173 238764.000   -679342.9135  -5154773.7780   3682490.9073   2   7   0.4417   1.0920   1.1081   0.3987  -0.9478  -0.4699   0.00    1.3
2173 238765.000   -679342.8904  -5154773.4653   3682490.5983   2   7   0.4417   1.0919   1.1078   0.3986  -0.9475  -0.4697   0.00    1.1
2173 238766.000   -679342.8193  -5154773.3014   3682490.5907   2   7   0.4417   1.0918   1.1075   0.3984  -0.9473  -0.4696   0.00    1.1
2173 238767.000   -679342.8644  -5154773.2400   3682490.5149   2   7   0.4416   1.0917   1.1072   0.3983  -0.9471  -0.4694   0.00    1.2
2173 238768.000   -679342.8747  -5154773.1813   3682490.4535   2   7   0.4416   1.0916   1.1069   0.3981  -0.9469  -0.4693   0.00    1.1
2173 238769.000   -679342.9862  -5154773.2188   3682490.4912   2   7   0.4416   1.0915   1.1066   0.3980  -0.9466  -0.4691   0.00    1.0
2173 238770.000   -679342.9214  -5154773.4489   3682490.7306   2   7   0.4415   1.0914   1.1063   0.3979  -0.9464  -0.4690   0.00    1.1
2173 238771.000   -679342.8682  -5154773.4454   3682490.6217   2   7   0.4415   1.0913   1.1060   0.3977  -0.9462  -0.4688   0.00    1.0
2173 238772.000   -679342.8842  -5154773.4650   3682490.4690   2   7   0.4415   1.0912   1.1057   0.3976  -0.9460  -0.4687   0.00    1.0
2173 238773.000   -679342.9835  -5154773.4685   3682490.4720   2   7   0.4414   1.0911   1.1054   0.3974  -0.9457  -0.4686   0.00    1.1
2173 238774.000   -679343.0919  -5154773.3781   3682490.2911   2   7   0.4414   1.0910   1.1051   0.3973  -0.9455  -0.4684   0.00    1.1
2173 238775.000   -679343.0935  -5154773.5041   3682490.3420   2   7   0.4414   1.0909   1.1048   0.3971  -0.9453  -0.4683   0.00    1.0
2173 238776.000   -679343.1285  -5154773.6958   3682490.3577   2   7   0.4413   1.0908   1.1046   0.3970  -0.9451  -0.4681   0.00    1.0
2173 238777.000   -679343.1164  -5154773.4812   3682490.1336   2   7   0.4413   1.0907   1.1043   0.3968  -0.9448  -0.4680   0.00    1.1
2173 238778.000   -679343.0315  -5154773.0657   3682489.7795   2   7   0.4413   1.0906   1.1040   0.3967  -0.9446  -0.4678   0.00    1.0
2173 238779.000   -679343.0391  -5154773.1939   3682489.8716   2   7   0.4413   1.0905   1.1037   0.3965  -0.9444  -0.4677   0.00    1.1
2173 238780.000   -679343.0068  -5154773.3364   3682490.0971   2   7   0.4412   1.0904   1.1034   0.3964  -0.9441  -0.4675   0.00    1.0
2173 238781.000   -679342.9482  -5154773.1559   3682489.9935   2   7   0.4412   1.0903   1.1031   0.3962  -0.9439  -0.4674   0.00    1.2
2173 238782.000   -679342.9562  -5154773.1986   3682490.0973   2   7   0.4412   1.0902   1.1028   0.3961  -0.9437  -0.4672   0.00    1.3
2173 238783.000   -679343.1223  -5154773.4124   3682490.2927   2   7   0.4411   1.0901   1.1025   0.3959  -0.9435  -0.4671   0.00    1.2
2173 238784.000   -679343.0973  -5154773.4861   3682490.2731   2   7   0.4411   1.0900   1.1022   0.3958  -0.9432  -0.4670   0.00    1.1
2173 238785.000   -679343.0656  -5154773.6066   3682490.3561   2   7   0.4411   1.0899   1.1019   0.3956  -0.9430  -0.4668   0.00    1.1
2173 238786.000   -679343.0325  -5154773.6360   3682490.2262   2   7   0.4410   1.0898   1.1016   0.3955  -0.9428  -0.4667   0.00    1.3
2173 238787.000   -679343.0314  -5154773.5893   3682490.2210   2   7   0.4410   1.0897   1.1013   0.3953  -0.9426  -0.4665   0.00    1.2
2173 238788.000   -679343.0206  -5154773.7516   3682490.3727   2   7   0.4410   1.0896   1.1010   0.3952  -0.9423  -0.4664   0.00    1.2
2173 238789.000   -679342.9807  -5154773.8201   3682490.5024   2   7   0.4409   1.0895   1.1008   0.3950  -0.9421  -0.4662   0.00    1.1
2173 238790.000   -679342.9993  -5154773.8631   3682490.4837   2   7   0.4409   1.0894   1.1005   0.3949  -0.9419  -0.4661   0.00    1.0
2173 238791.000   -679342.9988  -5154773.8583   3682490.5831   2   7   0.4409   1.0893   1.1002   0.3947  -0.9417  -0.4659   0.00    1.0
2173 238792.000   -679342.9459  -5154773.6172   3682490.4042   2   7   0.4409   1.0892   1.0999   0.3946  -0.9414  -0.4658   0.00    1.1
2173 238793.000   -679342.9247  -5154773.5483   3682490.3116   2   7   0.4408   1.0891   1.0996   0.3944  -0.9412  -0.4656   0.00    1.0
2173 238794.000   -679342.8735  -5154773.4144   3682490.1786   2   7   0.4408   1.0890   1.0993   0.3943  -0.9410  -0.4655   0.00    1.0
2173 238795.000   -679342.8530  -5154773.3660   3682490.1675   2   7   0.4408   1.0889   1.0990   0.3942  -0.9408  -0.4654   0.00    1.1
2173 238796.000   -679342.8215  -5154773.2920   3682490.0811   2   7   0.4407   1.0888   1.0987   0.3940  -0.9405  -0.4652   0.00    1.1
2173 238797.000   -679342.7403  -5154773.3769   3682490.1629   2   7   0.4407   1.0887   1.0984   0.3939  -0.9403  -0.4651   0.00    1.0
2173 238798.000   -679342.7647  -5154773.3853   3682490.1078   2   7   0.4407   1.0886   1.0981   0.3937  -0.9401  -0.4649   0.00    1.0
2173 238799.000   -679342.7808  -5154773.3428   3682490.2230   2   7   0.4406   1.0885   1.0978   0.3936  -0.9399  -0.4648   0.00    1.1
2173 238800.000   -679342.7412  -5154773.2346   3682490.1599   2   7   0.4406   1.0884   1.0976   0.3934  -0.9397  -0.4646   0.00    1.0
2173 238801.000   -679342.7134  -5154773.1863   3682490.1257   2   7   0.4406   1.0883   1.0973   0.3933  -0.9394  -0.4645   0.00    1.1
2173 238802.000   -679342.7795  -5154773.4640   3682490.3850   2   7   0.4405   1.0882   1.0970   0.3931  -0.9392  -0.4643   0.00    1.0
2173 238803.000   -679342.7844  -5154773.6032   3682490.4238   2   7   0.4405   1.0882   1.0967   0.3930  -0.9390  -0.4642   0.00    1.1
2173 238804.000   -679342.7831  -5154773.5622   3682490.2969   2   7   0.4405   1.0881   1.0964   0.3928  -0.9388  -0.4640   0.00    1.0
2173 238805.000   -679342.8377  -5154773.9066   3682490.5365   2   7   0.4405   1.0880   1.0961   0.3927  -0.9385  -0.4639   0.00    1.0
2173 238806.000   -679342.9555  -5154774.0972   3682490.6191   2   7   0.4404   1.0879   1.0958   0.3925  -0.9383  -0.4638   0.00    1.0
2173 238807.000   -679342.9951  -5154774.1709   3682490.6086   2   7   0.4404   1.0878   1.0955   0.3924  -0.9381  -0.4636   0.00    1.1
2173 238808.000   -679342.9680  -5154774.0973   3682490.5853   2   7   0.4404   1.0877   1.0952   0.3922  -0.9379  -0.4635   0.00    1.0
2173 238809.000   -679342.9361  -5154774.2552   3682490.6097   2   7   0.4403   1.0876   1.0949   0.3921  -0.9376  -0.4633   0.00    1.0
2173 238810.000   -679342.8866  -5154774.2529   3682490.5113   2   7   0.4403   1.0875   1.0947   0.3919  -0.9374  -0.4632   0.00    1.0
2173 238811.000   -679342.8812  -5154774.0847   3682490.3046   2   7   0.4403   1.0874   1.0944   0.3918  -0.9372  -0.4630   0.00    1.1
2173 238812.000   -679342.9247  -5154774.0203   3682490.1547   2   7   0.4402   1.0873   1.0941   0.3916  -0.9370  -0.4629   0.00    1.1
2173 238813.000   -679342.8427  -5154773.6215   3682489.9337   2   7   0.4402   1.0872   1.0938   0.3915  -0.9367  -0.4627   0.00    1.2
2173 238814.000   -679342.8137  -5154773.6801   3682490.0701   2   7   0.4402   1.0871   1.0935   0.3913  -0.9365  -0.4626   0.00    1.0
2173 238815.000   -679342.8618  -5154773.8664   3682490.1315   2   7   0.4402   1.0870   1.0932   0.3912  -0.9363  -0.4625   0.00    1.0
2173 238816.000   -679342.7845  -5154773.6708   3682489.8745   2   7   0.4401   1.0869   1.0929   0.3911  -0.9361  -0.4623   0.00    1.1
2173 238817.000   -679342.7174  -5154773.8056   3682490.0369   2   7   0.4401   1.0868   1.0926   0.3909  -0.9359  -0.4622   0.00    1.0
2173 238818.000   -679342.7246  -5154773.8543   3682490.1349   2   7   0.4401   1.0867   1.0923   0.3908  -0.9356  -0.4620   0.00    1.0
2173 238819.000   -679342.6959  -5154773.8271   3682490.0027   2   7   0.4400   1.0866   1.0920   0.3906  -0.9354  -0.4619   0.00    1.1
2173 238820.000   -679342.6207  -5154773.8923   3682489.9408   2   7   0.4400   1.0865   1.0918   0.3905  -0.9352  -0.4617   0.00    1.0
2173 238821.000   -679342.6515  -5154774.0602   3682490.0894   2   7   0.4400   1.0864   1.0915   0.3903  -0.9350  -0.4616   0.00    1.1
2173 238822.000   -679342.7244  -5154773.9975   3682490.0210   2   7   0.4399   1.0863   1.0912   0.3902  -0.9347  -0.4615   0.00    1.1
2173 238823.000   -679342.5890  -5154773.9118   3682489.9448   2   7   0.4399   1.0862   1.0909   0.3900  -0.9345  -0.4613   0.00    1.1
2173 238824.000   -679342.4824  -5154773.7256   3682489.8690   2   7   0.4399   1.0862   1.0906   0.3899  -0.9343  -0.4612   0.00    1.1
2173 238825.000   -679342.5286  -5154773.8948   3682490.0019   2   7   0.4399   1.0861   1.0903   0.3897  -0.9341  -0.4610   0.00    1.1
2173 238826.000   -679342.5735  -5154774.0652   3682490.0928   2   7   0.4398   1.0860   1.0900   0.3896  -0.9339  -0.4609   0.00    1.2
2173 238827.000   -679342.5572  -5154774.2326   3682490.1733   2   7   0.4398   1.0859   1.0897   0.3894  -0.9336  -0.4607   0.00    1.1
2173 238828.000   -679342.5628  -5154774.3635   3682490.2472   2   7   0.4398   1.0858   1.0895   0.3893  -0.9334  -0.4606   0.00    1.2
2173 238829.000   -679342.4739  -5154774.3339   3682490.1224   2   7   0.4397   1.0857   1.0892   0.3891  -0.9332  -0.4604   0.00    1.0
2173 238830.000   -679342.4732  -5154774.2248   3682490.1010   2   7   0.4397   1.0856   1.0889   0.3890  -0.9330  -0.4603   0.00    1.1
2173 238831.000   -679342.5176  -5154774.2937   3682490.2785   2   7   0.4397   1.0855   1.0886   0.3888  -0.9328  -0.4602   0.00    1.0
2173 238832.000   -679342.4659  -5154774.4249   3682490.2206   2   7   0.4397   1.0854   1.0883   0.3887  -0.9325  -0.4600   0.00    1.1
2173 238833.000   -679342.4581  -5154774.2570   3682490.1243   2   7   0.4396   1.0853   1.0880   0.3885  -0.9323  -0.4599   0.00    1.0
2173 238834.000   -679342.4720  -5154774.2168   3682489.9623   2   7   0.4396   1.0852   1.0877   0.3884  -0.9321  -0.4597   0.00    1.0
2173 238835.000   -679342.4989  -5154774.0077   3682489.8729   2   7   0.4396   1.0851   1.0874   0.3883  -0.9319  -0.4596   0.00    1.3
2173 238836.000   -679342.5152  -5154774.0653   3682489.9129   2   7   0.4395   1.0850   1.0872   0.3881  -0.9316  -0.4594   0.00    1.2
2173 238837.000   -679342.5592  -5154774.1622   3682489.9625   2   7   0.4395   1.0849   1.0869   0.3880  -0.9314  -0.4593   0.00    1.4
2173 238838.000   -679342.6492  -5154774.2330   3682490.0644   2   7   0.4395   1.0848   1.0866   0.3878  -0.9312  -0.4592   0.00    1.0
2173 238839.000   -679342.5984  -5154774.3954   3682490.1363   2   7   0.4394   1.0848   1.0863   0.3877  -0.9310  -0.4590   0.00    1.2
2173 238840.000   -679342.6399  -5154774.5134   3682490.2214   2   7   0.4394   1.0847   1.0860   0.3875  -0.9308  -0.4589   0.00    1.0
2173 238841.000   -679342.6219  -5154774.4979   3682490.1703   2   7   0.4394   1.0846   1.0857   0.3874  -0.9305  -0.4587   0.00    1.2
2173 238842.000   -679342.5914  -5154774.3954   3682490.1141   2   7   0.4394   1.0845   1.0854   0.3872  -0.9303  -0.4586   0.00    1.1
2173 238843.000   -679342.6037  -5154774.5275   3682490.1656   2   7   0.4393   1.0844   1.0851   0.3871  -0.9301  -0.4584   0.00    1.1
2173 238844.000   -679342.5911  -5154774.5092   3682490.2004   2   7   0.4393   1.0843   1.0849   0.3869  -0.9299  -0.4583   0.00    1.2
2173 238845.000   -679342.5552  -5154774.3735   3682490.1111   2   7   0.4393   1.0842   1.0846   0.3868  -0.9297  -0.4581   0.00    1.1
2173 238846.000   -679342.4961  -5154774.3289   3682489.9512   2   7   0.4392   1.0841   1.0843   0.3866  -0.9294  -0.4580   0.00    1.2
2173 238847.000   -679342.4725  -5154774.4011   3682489.9954   2   7   0.4392   1.0840   1.0840   0.3865  -0.9292  -0.4579   0.00    1.1
2173 238848.000   -679342.4791  -5154774.5187   3682490.1552   2   7   0.4392   1.0839   1.0837   0.3863  -0.9290  -0.4577   0.00    1.2
2173 238849.000   -679342.5534  -5154774.5820   3682490.1113   2   7   0.4392   1.0838   1.0834   0.3862  -0.9288  -0.4576   0.00    1.2
2173 238850.000   -679342.5020  -5154774.5598   3682490.0634   2   7   0.4391   1.0837   1.0831   0.3860  -0.9286  -0.4574   0.00    1.3
2173 238851.000   -679342.4701  -5154774.5518   3682490.0571   2   7   0.4391   1.0837   1.0829   0.3859  -0.9283  -0.4573   0.00    1.3
2173 238852.000   -679342.5616  -5154774.6839   3682490.1962   2   7   0.4391   1.0836   1.0826   0.3858  -0.9281  -0.4571   0.00    1.4
2173 238853.000   -679342.6027  -5154774.5312   3682490.2073   2   7   0.4390   1.0835   1.0823   0.3856  -0.9279  -0.4570   0.00    1.2
2173 238854.000   -679342.5774  -5154774.5525   3682490.0516   2   7   0.4390   1.0834   1.0820   0.3855  -0.9277  -0.4569   0.00    1.2
2173 238855.000   -679342.6151  -5154774.5535   3682490.0616   2   7   0.4390   1.0833   1.0817   0.3853  -0.9275  -0.4567   0.00    1.2
2173 238856.000   -679342.6408  -5154774.3902   3682489.8797   2   7   0.4390   1.0832   1.0814   0.3852  -0.9273  -0.4566   0.00    1.0
2173 238857.000   -679342.7239  -5154774.5629   3682489.9198   2   7   0.4389   1.0831   1.0811   0.3850  -0.9270  -0.4564   0.00    1.3
2173 238858.000   -679342.7154  -5154774.5435   3682489.9471   2   7   0.4389   1.0830   1.0809   0.3849  -0.9268  -0.4563   0.00    1.4
2173 238859.000   -679342.8431  -5154774.7708   3682490.1259   2   7   0.4389   1.0829   1.0806   0.3847  -0.9266  -0.4561   0.00    1.3
2173 238860.000   -679342.7629  -5154774.9280   3682490.1493   2   7   0.4388   1.0828   1.0803   0.3846  -0.9264  -0.4560   0.00    1.3
2173 238861.000   -679342.8064  -5154775.0535   3682490.1966   2   7   0.4388   1.0827   1.0800   0.3844  -0.9262  -0.4559   0.00    1.4
2173 238862.000   -679342.7950  -5154774.9315   3682490.2078   2   7   0.4388   1.0827   1.0797   0.3843  -0.9259  -0.4557   0.00    1.4
2173 238863.000   -679342.7802  -5154774.7981   3682490.1399   2   7   0.4387   1.0826   1.0794   0.3841  -0.9257  -0.4556   0.00    1.2
2173 238864.000   -679342.7979  -5154774.7898   3682490.1704   2   7   0.4387   1.0825   1.0791   0.3840  -0.9255  -0.4554   0.00    1.3
2173 238865.000   -679342.7238  -5154774.5664   3682489.9941   2   7   0.4387   1.0824   1.0789   0.3838  -0.9253  -0.4553   0.00    1.5
2173 238866.000   -679342.6811  -5154774.5522   3682489.9603   2   7   0.4387   1.0823   1.0786   0.3837  -0.9251  -0.4552   0.00    1.2
2173 238867.000   -679342.6900  -5154774.5231   3682489.7849   2   7   0.4386   1.0822   1.0783   0.3836  -0.9249  -0.4550   0.00    1.3
2173 238868.000   -679342.7686  -5154774.5376   3682489.7738   2   7   0.4386   1.0821   1.0780   0.3834  -0.9246  -0.4549   0.00    1.2
2173 238869.000   -679342.8069  -5154774.3983   3682489.7428   2   7   0.4386   1.0820   1.0777   0.3833  -0.9244  -0.4547   0.00    1.3
2173 238870.000   -679342.7635  -5154774.3970   3682489.6746   2   7   0.4385   1.0819   1.0774   0.3831  -0.9242  -0.4546   0.00    1.2
2173 238871.000   -679342.8020  -5154774.2787   3682489.5390   2   7   0.4385   1.0819   1.0772   0.3830  -0.9240  -0.4544   0.00    1.2
2173 238872.000   -679342.8067  -5154774.2375   3682489.5699   2   7   0.4385   1.0818   1.0769   0.3828  -0.9238  -0.4543   0.00    1.2
2173 238873.000   -679342.8049  -5154774.3245   3682489.5957   2   7   0.4385   1.0817   1.0766   0.3827  -0.9235  -0.4542   0.00    1.3
2173 238874.000   -679342.7323  -5154774.3288   3682489.4654   2   7   0.4384   1.0816   1.0763   0.3825  -0.9233  -0.4540   0.00    1.4
2173 238875.000   -679342.7644  -5154774.4281   3682489.5348   2   7   0.4384   1.0815   1.0760   0.3824  -0.9231  -0.4539   0.00    1.4
2173 238876.000   -679342.8221  -5154774.4390   3682489.5641   2   7   0.4384   1.0814   1.0757   0.3822  -0.9229  -0.4537   0.00    1.4
2173 238877.000   -679342.9003  -5154774.4429   3682489.5361   2   7   0.4384   1.0813   1.0755   0.3821  -0.9227  -0.4536   0.00    1.2
2173 238878.000   -679343.0447  -5154774.4645   3682489.6648   2   7   0.4383   1.0812   1.0752   0.3819  -0.9225  -0.4534   0.00    1.4
2173 238879.000   -679343.0823  -5154774.3351   3682489.7218   2   7   0.4383   1.0811   1.0749   0.3818  -0.9222  -0.4533   0.00    1.1
2173 238880.000   -679343.0985  -5154774.2443   3682489.7477   2   7   0.4383   1.0811   1.0746   0.3816  -0.9220  -0.4532   0.00    1.2
2173 238881.000   -679343.2045  -5154774.4091   3682489.9735   2   7   0.4382   1.0810   1.0743   0.3815  -0.9218  -0.4530   0.00    1.3
2173 238882.000   -679343.1661  -5154774.2588   3682489.9098   2   7   0.4382   1.0809   1.0740   0.3814  -0.9216  -0.4529   0.00    1.1
2173 238883.000   -679343.1647  -5154774.3068   3682489.9022   2   7   0.4382   1.0808   1.0738   0.3812  -0.9214  -0.4527   0.00    1.4
2173 238884.000   -679343.0613  -5154774.1219   3682489.6561   2   7   0.4382   1.0807   1.0735   0.3811  -0.9212  -0.4526   0.00    1.2
2173 238885.000   -679343.0373  -5154774.1784   3682489.6822   2   7   0.4381   1.0806   1.0732   0.3809  -0.9209  -0.4525   0.00    1.5
2173 238886.000   -679343.0389  -5154774.1481   3682489.7064   2   7   0.4381   1.0805   1.0729   0.3808  -0.9207  -0.4523   0.00    1.5
2173 238887.000   -679343.1095  -5154774.2045   3682489.6151   2   7   0.4381   1.0804   1.0726   0.3806  -0.9205  -0.4522   0.00    1.3
2173 238888.000   -679343.0273  -5154774.1946   3682489.5202   2   7   0.4380   1.0804   1.0724   0.3805  -0.9203  -0.4520   0.00    1.3
2173 238889.000   -679343.0229  -5154774.3806   3682489.7723   2   7   0.4380   1.0803   1.0721   0.3803  -0.9201  -0.4519   0.00    1.0
2173 238890.000   -679343.1030  -5154774.4269   3682489.7476   2   7   0.4380   1.0802   1.0718   0.3802  -0.9199  -0.4517   0.00    1.2
2173 238891.000   -679343.0964  -5154774.3061   3682489.5595   2   7   0.4380   1.0801   1.0715   0.3800  -0.9197  -0.4516   0.00    1.0
2173 238892.000   -679343.1143  -5154774.2886   3682489.6539   2   7   0.4379   1.0800   1.0712   0.3799  -0.9194  -0.4515   0.00    1.2
2173 238893.000   -679343.1341  -5154774.1028   3682489.6327   2   7   0.4379   1.0799   1.0709   0.3797  -0.9192  -0.4513   0.00    1.1
2173 238894.000   -679343.1730  -5154774.0443   3682489.6196   2   7   0.4379   1.0798   1.0707   0.3796  -0.9190  -0.4512   0.00    1.1
2173 238895.000   -679343.1420  -5154774.0299   3682489.5222   2   7   0.4378   1.0798   1.0704   0.3795  -0.9188  -0.4510   0.00    1.1
2173 238896.000   -679343.1903  -5154774.0138   3682489.5029   2   7   0.4378   1.0797   1.0701   0.3793  -0.9186  -0.4509   0.00    1.0
2173 238897.000   -679343.1139  -5154773.9779   3682489.4707   2   7   0.4378   1.0796   1.0698   0.3792  -0.9184  -0.4508   0.00    1.1
2173 238898.000   -679343.1146  -5154773.9970   3682489.5239   2   7   0.4378   1.0795   1.0695   0.3790  -0.9181  -0.4506   0.00    1.1
2173 238899.000   -679343.1470  -5154774.0508   3682489.6236   2   7   0.4377   1.0794   1.0693   0.3789  -0.9179  -0.4505   0.00    1.3
2173 238900.000   -679343.1364  -5154773.9316   3682489.4777   2   7   0.4377   1.0793   1.0690   0.3787  -0.9177  -0.4503   0.00    1.1
2173 238901.000   -679343.1615  -5154773.9739   3682489.3605   2   7   0.4377   1.0792   1.0687   0.3786  -0.9175  -0.4502   0.00    1.1
2173 238902.000   -679343.1531  -5154773.8524   3682489.3788   2   7   0.4377   1.0792   1.0684   0.3784  -0.9173  -0.4501   0.00    1.1
2173 238903.000   -679343.1392  -5154773.8544   3682489.4878   2   7   0.4376   1.0791   1.0681   0.3783  -0.9171  -0.4499   0.00    1.1
2173 238904.000   -679343.0688  -5154773.7518   3682489.3426   2   7   0.4376   1.0790   1.0679   0.3781  -0.9169  -0.4498   0.00    1.0
2173 238905.000   -679343.1208  -5154773.7317   3682489.3492   2   7   0.4376   1.0789   1.0676   0.3780  -0.9166  -0.4496   0.00    1.0
2173 238906.000   -679343.1216  -5154773.4578   3682489.2062   2   7   0.4375   1.0788   1.0673   0.3779  -0.9164  -0.4495   0.00    1.0
2173 238907.000   -679343.1692  -5154773.5191   3682489.2379   2   7   0.4375   1.0787   1.0670   0.3777  -0.9162  -0.4494   0.00    1.0
2173 238908.000   -679343.1178  -5154773.5097   3682489.2336   2   7   0.4375   1.0786   1.0667   0.3776  -0.9160  -0.4492   0.00    1.2
2173 238909.000   -679343.1597  -5154773.6556   3682489.2239   2   7   0.4375   1.0786   1.0665   0.3774  -0.9158  -0.4491   0.00    1.1
2173 238910.000   -679343.1814  -5154773.5323   3682489.1481   2   7   0.4374   1.0785   1.0662   0.3773  -0.9156  -0.4489   0.00    1.1
2173 238911.000   -679343.1564  -5154773.4806   3682489.1242   2   7   0.4374   1.0784   1.0659   0.3771  -0.9154  -0.4488   0.00    1.0
2173 238912.000   -679343.1081  -5154773.4472   3682489.1888   2   7   0.4374   1.0783   1.0656   0.3770  -0.9152  -0.4487   0.00    1.2
2173 238913.000   -679343.0269  -5154773.3901   3682489.1199   2   7   0.4374   1.0782   1.0653   0.3768  -0.9149  -0.4485   0.00    1.2
2173 238914.000   -679343.0177  -5154773.3737   3682489.1075   2   7   0.4373   1.0781   1.0651   0.3767  -0.9147  -0.4484   0.00    1.0
2173 238915.000   -679342.9244  -5154773.3197   3682488.9753   2   7   0.4373   1.0781   1.0648   0.3765  -0.9145  -0.4482   0.00    1.2
2173 238916.000   -679342.9118  -5154773.4521   3682489.0773   2   7   0.4373   1.0780   1.0645   0.3764  -0.9143  -0.4481   0.00    1.5
2173 238917.000   -679342.9193  -5154773.3787   3682488.9702   2   7   0.4372   1.0779   1.0642   0.3762  -0.9141  -0.4480   0.00    1.3
2173 238918.000   -679342.9010  -5154773.3932   3682489.0305   2   7   0.4372   1.0778   1.0639   0.3761  -0.9139  -0.4478   0.00    1.6
2173 238919.000   -679342.8768  -5154773.5397   3682489.1978   2   7   0.4372   1.0777   1.0637   0.3760  -0.9137  -0.4477   0.00    1.5
2173 238920.000   -679342.7534  -5154773.3940   3682489.0758   2   7   0.4372   1.0776   1.0634   0.3758  -0.9134  -0.4475   0.00    1.6
2173 238921.000   -679342.7812  -5154773.6011   3682489.3561   2   7   0.4371   1.0775   1.0631   0.3757  -0.9132  -0.4474   0.00    1.6
2173 238922.000   -679342.8227  -5154773.5916   3682489.4044   2   7   0.4371   1.0775   1.0628   0.3755  -0.9130  -0.4473   0.00    1.8
2173 238923.000   -679342.7535  -5154773.5150   3682489.3239   2   7   0.4371   1.0774   1.0625   0.3754  -0.9128  -0.4471   0.00    1.9
2173 238924.000   -679342.7037  -5154773.4711   3682489.1806   2   7   0.4371   1.0773   1.0623   0.3752  -0.9126  -0.4470   0.00    1.7
2173 238925.000   -679342.6796  -5154773.3850   3682489.0724   2   7   0.4370   1.0772   1.0620   0.3751  -0.9124  -0.4468   0.00    2.0
2173 238926.000   -679342.7081  -5154773.2567   3682489.1848   2   7   0.4370   1.0771   1.0617   0.3749  -0.9122  -0.4467   0.00    1.9
2173 238927.000   -679342.7182  -5154773.0901   3682489.0716   2   7   0.4370   1.0771   1.0614   0.3748  -0.9120  -0.4466   0.00    1.9
2173 238928.000   -679342.6990  -5154773.0854   3682488.9353   2   7   0.4369   1.0770   1.0612   0.3746  -0.9118  -0.4464   0.00    2.0
2173 238929.000   -679342.7159  -5154773.0887   3682488.9316   2   7   0.4369   1.0769   1.0609   0.3745  -0.9115  -0.4463   0.00    2.0
2173 238930.000   -679342.6829  -5154773.0122   3682488.9167   2   7   0.4369   1.0768   1.0606   0.3744  -0.9113  -0.4461   0.00    2.1
2173 238931.000   -679342.6977  -5154772.9838   3682488.8984   2   7   0.4369   1.0767   1.0603   0.3742  -0.9111  -0.4460   0.00    2.0
2173 238932.000   -679342.6332  -5154772.9276   3682488.8794   2   7   0.4368   1.0766   1.0600   0.3741  -0.9109  -0.4459   0.00    1.9
2173 238933.000   -679342.6628  -5154773.0036   3682488.8814   2   7   0.4368   1.0766   1.0598   0.3739  -0.9107  -0.4457   0.00    2.0
2173 238934.000   -679342.6218  -5154772.9758   3682488.9081   2   7   0.4368   1.0765   1.0595   0.3738  -0.9105  -0.4456   0.00    2.1
2173 238935.000   -679342.5997  -5154773.1040   3682489.0416   2   7   0.4368   1.0764   1.0592   0.3736  -0.9103  -0.4454   0.00    2.1
2173 238936.000   -679342.6788  -5154773.0517   3682489.1115   2   7   0.4367   1.0763   1.0589   0.3735  -0.9101  -0.4453   0.00    2.0
2173 238937.000   -679342.6482  -5154773.0875   3682489.2114   2   7   0.4367   1.0762   1.0587   0.3733  -0.9098  -0.4452   0.00    2.1
2173 238938.000   -679342.6852  -5154773.2020   3682489.2624   2   7   0.4367   1.0762   1.0584   0.3732  -0.9096  -0.4450   0.00    1.9
2173 238939.000   -679342.6875  -5154773.2229   3682489.2630   2   7   0.4367   1.0761   1.0581   0.3730  -0.9094  -0.4449   0.00    1.9
2173 238940.000   -679342.7559  -5154773.3018   3682489.4023   2   7   0.4366   1.0760   1.0578   0.3729  -0.9092  -0.4447   0.00    1.9
2173 238941.000   -679342.7417  -5154773.2611   3682489.2678   2   7   0.4366   1.0759   1.0576   0.3728  -0.9090  -0.4446   0.00    2.0
2173 238942.000   -679342.7388  -5154773.2614   3682489.4254   2   7   0.4366   1.0758   1.0573   0.3726  -0.9088  -0.4445   0.00    2.0
2173 238943.000   -679342.8310  -5154773.3570   3682489.5948   2   7   0.4365   1.0757   1.0570   0.3725  -0.9086  -0.4443   0.00    2.1
2173 238944.000   -679342.8164  -5154773.1586   3682489.5082   2   7   0.4365   1.0757   1.0567   0.3723  -0.9084  -0.4442   0.00    2.0
2173 238945.000   -679342.7097  -5154772.8618   3682489.2485   2   7   0.4365   1.0756   1.0564   0.3722  -0.9082  -0.4440   0.00    2.0
2173 238946.000   -679342.7567  -5154772.9240   3682489.3912   2   7   0.4365   1.0755   1.0562   0.3720  -0.9080  -0.4439   0.00    2.1
2173 238947.000   -679342.8351  -5154772.8890   3682489.4482   2   7   0.4364   1.0754   1.0559   0.3719  -0.9077  -0.4438   0.00    2.2
2173 238948.000   -679342.8601  -5154773.0168   3682489.5159   2   7   0.4364   1.0753   1.0556   0.3717  -0.9075  -0.4436   0.00    2.1
2173 238949.000   -679342.8480  -5154773.0931   3682489.6323   2   7   0.4364   1.0753   1.0553   0.3716  -0.9073  -0.4435   0.00    2.0
2173 238950.000   -679342.8915  -5154773.1400   3682489.6245   2   7   0.4364   1.0752   1.0551   0.3715  -0.9071  -0.4434   0.00    2.0
2173 238951.000   -679342.9624  -5154773.3537   3682489.8037   2   7   0.4363   1.0751   1.0548   0.3713  -0.9069  -0.4432   0.00    2.0
2173 238952.000   -679343.0408  -5154773.4457   3682489.8473   2   7   0.4363   1.0750   1.0545   0.3712  -0.9067  -0.4431   0.00    1.9
2173 238953.000   -679343.0308  -5154773.4136   3682489.8002   2   7   0.4363   1.0749   1.0542   0.3710  -0.9065  -0.4429   0.00    1.7
2173 238954.000   -679343.0259  -5154773.3175   3682489.6743   2   7   0.4363   1.0749   1.0540   0.3709  -0.9063  -0.4428   0.00    1.9
2173 238955.000   -679343.0636  -5154773.4331   3682489.7546   2   7   0.4362   1.0748   1.0537   0.3707  -0.9061  -0.4427   0.00    1.9
2173 238956.000   -679343.0612  -5154773.3334   3682489.7169   2   7   0.4362   1.0747   1.0534   0.3706  -0.9059  -0.4425   0.00    1.9
2173 238957.000   -679342.9605  -5154773.0589   3682489.5971   2   7   0.4362   1.0746   1.0531   0.3704  -0.9057  -0.4424   0.00    1.9
2173 238958.000   -679342.8814  -5154773.1693   3682489.5186   2   7   0.4362   1.0745   1.0529   0.3703  -0.9054  -0.4423   0.00    2.2
2173 238959.000   -679342.8169  -5154773.2936   3682489.5435   2   7   0.4361   1.0745   1.0526   0.3701  -0.9052  -0.4421   0.00    1.9
2173 238960.000   -679342.8035  -5154773.2565   3682489.5538   2   7   0.4361   1.0744   1.0523   0.3700  -0.9050  -0.4420   0.00    2.2
2173 238961.000   -679342.8460  -5154773.2470   3682489.6196   2   7   0.4361   1.0743   1.0520   0.3699  -0.9048  -0.4418   0.00    2.1
2173 238962.000   -679342.9256  -5154773.4133   3682489.8093   2   7   0.4360   1.0742   1.0518   0.3697  -0.9046  -0.4417   0.00    2.1
2173 238963.000   -679342.9447  -5154773.4161   3682489.7673   2   7   0.4360   1.0742   1.0515   0.3696  -0.9044  -0.4416   0.00    2.0
2173 238964.000   -679343.0705  -5154773.7411   3682490.0217   2   7   0.4360   1.0741   1.0512   0.3694  -0.9042  -0.4414   0.00    1.9
2173 238965.000   -679342.9794  -5154773.5301   3682489.8534   2   7   0.4360   1.0740   1.0510   0.3693  -0.9040  -0.4413   0.00    2.0
2173 238966.000   -679342.8852  -5154773.3955   3682489.7229   2   7   0.4359   1.0739   1.0507   0.3691  -0.9038  -0.4411   0.00    1.9
2173 238967.000   -679342.9223  -5154773.4984   3682489.7452   2   7   0.4359   1.0738   1.0504   0.3690  -0.9036  -0.4410   0.00    1.8
2173 238968.000   -679342.9433  -5154773.4250   3682489.7353   2   7   0.4359   1.0738   1.0501   0.3688  -0.9034  -0.4409   0.00    1.9
2173 238969.000   -679342.9888  -5154773.5487   3682489.9368   2   7   0.4359   1.0737   1.0499   0.3687  -0.9032  -0.4407   0.00    2.1
2173 238970.000   -679342.9785  -5154773.7501   3682490.2252   2   7   0.4358   1.0736   1.0496   0.3686  -0.9029  -0.4406   0.00    2.1
2173 238971.000   -679343.0517  -5154773.8833   3682490.3219   2   7   0.4358   1.0735   1.0493   0.3684  -0.9027  -0.4405   0.00    1.9
2173 238972.000   -679343.0602  -5154773.9482   3682490.2831   2   7   0.4358   1.0734   1.0490   0.3683  -0.9025  -0.4403   0.00    2.0
2173 238973.000   -679343.0622  -5154774.0578   3682490.2973   2   7   0.4358   1.0734   1.0488   0.3681  -0.9023  -0.4402   0.00    2.1
2173 238974.000   -679343.1190  -5154773.9944   3682490.3193   2   7   0.4357   1.0733   1.0485   0.3680  -0.9021  -0.4400   0.00    1.8
2173 238975.000   -679343.1197  -5154773.8568   3682490.3350   2   7   0.4357   1.0732   1.0482   0.3678  -0.9019  -0.4399   0.00    2.0
2173 238976.000   -679343.1191  -5154773.8129   3682490.2784   2   7   0.4357   1.0731   1.0479   0.3677  -0.9017  -0.4398   0.00    1.8
2173 238977.000   -679343.1052  -5154773.9303   3682490.2140   2   7   0.4357   1.0731   1.0477   0.3675  -0.9015  -0.4396   0.00    1.8
2173 238978.000   -679343.1143  -5154774.0272   3682490.2271   2   7   0.4356   1.0730   1.0474   0.3674  -0.9013  -0.4395   0.00    1.7
2173 238979.000   -679343.1216  -5154774.1490   3682490.3168   2   7   0.4356   1.0729   1.0471   0.3673  -0.9011  -0.4394   0.00    1.7
2173 238980.000   -679343.2166  -5154774.3272   3682490.4431   2   7   0.4356   1.0728   1.0469   0.3671  -0.9009  -0.4392   0.00    1.7
2173 238981.000   -679343.1899  -5154774.3362   3682490.3963   2   7   0.4356   1.0728   1.0466   0.3670  -0.9007  -0.4391   0.00    1.6
2173 238982.000   -679343.2101  -5154774.4331   3682490.4857   2   7   0.4355   1.0727   1.0463   0.3668  -0.9005  -0.4389   0.00    1.7
2173 238983.000   -679343.1591  -5154774.5437   3682490.4866   2   7   0.4355   1.0726   1.0460   0.3667  -0.9003  -0.4388   0.00    1.6
2173 238984.000   -679343.1774  -5154774.4335   3682490.4151   2   7   0.4355   1.0725   1.0458   0.3665  -0.9000  -0.4387   0.00    1.6
2173 238985.000   -679343.1043  -5154774.2509   3682490.3002   2   7   0.4355   1.0724   1.0455   0.3664  -0.8998  -0.4385   0.00    1.6
2173 238986.000   -679343.1582  -5154774.3389   3682490.4092   2   7   0.4354   1.0724   1.0452   0.3662  -0.8996  -0.4384   0.00    1.7
2173 238987.000   -679343.1317  -5154774.2898   3682490.2989   2   7   0.4354   1.0723   1.0450   0.3661  -0.8994  -0.4383   0.00    1.7
2173 238988.000   -679343.1040  -5154774.2011   3682490.1536   2   7   0.4354   1.0722   1.0447   0.3660  -0.8992  -0.4381   0.00    1.7
2173 238989.000   -679343.0712  -5154774.2426   3682490.1110   2   7   0.4354   1.0721   1.0444   0.3658  -0.8990  -0.4380   0.00    1.6
2173 238990.000   -679343.0047  -5154774.3760   3682490.1266   2   7   0.4353   1.0721   1.0441   0.3657  -0.8988  -0.4379   0.00    1.5
2173 238991.000   -679343.0108  -5154774.1967   3682490.0358   2   7   0.4353   1.0720   1.0439   0.3655  -0.8986  -0.4377   0.00    1.6
2173 238992.000   -679343.1351  -5154774.3574   3682490.2587   2   7   0.4353   1.0719   1.0436   0.3654  -0.8984  -0.4376   0.00    1.4
2173 238993.000   -679343.0820  -5154774.2780   3682490.1482   2   7   0.4353   1.0718   1.0433   0.3652  -0.8982  -0.4374   0.00    1.4
2173 238994.000   -679343.1282  -5154774.4550   3682490.1935   2   7   0.4352   1.0718   1.0431   0.3651  -0.8980  -0.4373   0.00    1.3
2173 238995.000   -679343.1462  -5154774.6143   3682490.2830   2   7   0.4352   1.0717   1.0428   0.3649  -0.8978  -0.4372   0.00    1.4
2173 238996.000   -679343.1830  -5154774.4077   3682490.1309   2   7   0.4352   1.0716   1.0425   0.3648  -0.8976  -0.4370   0.00    1.3
2173 238997.000   -679343.1365  -5154774.1575   3682489.9336   2   7   0.4352   1.0715   1.0422   0.3647  -0.8974  -0.4369   0.00    1.3
2173 238998.000   -679343.1215  -5154773.9101   3682489.7967   2   7   0.4351   1.0715   1.0420   0.3645  -0.8972  -0.4368   0.00    1.3
2173 238999.000   -679343.1963  -5154773.8715   3682489.8407   2   7   0.4351   1.0714   1.0417   0.3644  -0.8970  -0.4366   0.00    1.1
2173 239000.000   -679343.2955  -5154774.0259   3682489.9332   2   7   0.4351   1.0713   1.0414   0.3642  -0.8968  -0.4365   0.00    1.1
2173 239001.000   -679343.3945  -5154774.0629   3682490.0129   2   7   0.4351   1.0712   1.0412   0.3641  -0.8966  -0.4364   0.00    1.1
2173 239002.000   -679343.3903  -5154774.1907   3682490.0105   2   7   0.4350   1.0712   1.0409   0.3639  -0.8964  -0.4362   0.00    1.1
2173 239003.000   -679343.3199  -5154774.0510   3682489.9400   2   7   0.4350   1.0711   1.0406   0.3638  -0.8961  -0.4361   0.00    1.1
2173 239004.000   -679343.2505  -5154773.8976   3682489.8674   2   7   0.4350   1.0710   1.0404   0.3636  -0.8959  -0.4359   0.00    1.1
2173 239005.000   -679343.2882  -5154774.0242   3682490.0691   2   7   0.4350   1.0710   1.0401   0.3635  -0.8957  -0.4358   0.00    1.0
2173 239006.000   -679343.3550  -5154774.0996   3682490.0890   2   7   0.4349   1.0709   1.0398   0.3634  -0.8955  -0.4357   0.00    1.0
2173 239007.000   -679343.3715  -5154773.9800   3682489.9491   2   7   0.4349   1.0708   1.0396   0.3632  -0.8953  -0.4355   0.00    1.0
2173 239008.000   -679343.2961  -5154773.9448   3682489.8375   2   7   0.4349   1.0707   1.0393   0.3631  -0.8951  -0.4354   0.00    1.0
2173 239009.000   -679343.3809  -5154774.1317   3682489.8904   2   7   0.4349   1.0707   1.0390   0.3629  -0.8949  -0.4353   0.00    1.0
2173 239010.000   -679343.4506  -5154773.8879   3682489.7790   2   7   0.4348   1.0706   1.0387   0.3628  -0.8947  -0.4351   0.00    1.1
2173 239011.000   -679343.4897  -5154773.6699   3682489.6621   2   7   0.4348   1.0705   1.0385   0.3626  -0.8945  -0.4350   0.00    1.2
2173 239012.000   -679343.5599  -5154773.7735   3682489.6962   2   7   0.4348   1.0704   1.0382   0.3625  -0.8943  -0.4349   0.00    1.3
2173 239013.000   -679343.5305  -5154773.7737   3682489.6442   2   7   0.4348   1.0704   1.0379   0.3624  -0.8941  -0.4347   0.00    1.2
2173 239014.000   -679343.5849  -5154773.8287   3682489.8124   2   7   0.4347   1.0703   1.0377   0.3622  -0.8939  -0.4346   0.00    1.1
2173 239015.000   -679343.6386  -5154773.7943   3682489.8280   2   7   0.4347   1.0702   1.0374   0.3621  -0.8937  -0.4345   0.00    1.1
2173 239016.000   -679343.6611  -5154773.6545   3682489.7936   2   7   0.4347   1.0701   1.0371   0.3619  -0.8935  -0.4343   0.00    1.1
2173 239017.000   -679343.6742  -5154773.7098   3682489.9304   2   7   0.4347   1.0701   1.0369   0.3618  -0.8933  -0.4342   0.00    1.2
2173 239018.000   -679343.7003  -5154773.7345   3682489.9579   2   7   0.4346   1.0700   1.0366   0.3616  -0.8931  -0.4340   0.00    1.3
2173 239019.000   -679343.7773  -5154773.7579   3682489.9623   2   7   0.4346   1.0699   1.0363   0.3615  -0.8929  -0.4339   0.00    1.3
2173 239020.000   -679343.7281  -5154774.0119   3682490.0067   2   7   0.4346   1.0699   1.0361   0.3613  -0.8927  -0.4338   0.00    1.3
2173 239021.000   -679343.7364  -5154774.0902   3682490.0794   2   7   0.4346   1.0698   1.0358   0.3612  -0.8925  -0.4336   0.00    1.2
2173 239022.000   -679343.6797  -5154774.2178   3682490.0565   2   7   0.4345   1.0697   1.0355   0.3611  -0.8923  -0.4335   0.00    1.3
2173 239023.000   -679343.7516  -5154773.9523   3682489.8208   2   7   0.4345   1.0696   1.0353   0.3609  -0.8921  -0.4334   0.00    1.3
2173 239024.000   -679343.7739  -5154773.8014   3682489.7161   2   7   0.4345   1.0696   1.0350   0.3608  -0.8919  -0.4332   0.00    1.3
2173 239025.000   -679343.8312  -5154773.6152   3682489.4530   2   7   0.4345   1.0695   1.0347   0.3606  -0.8917  -0.4331   0.00    1.2
2173 239026.000   -679343.8616  -5154773.4746   3682489.3218   2   7   0.4344   1.0694   1.0345   0.3605  -0.8915  -0.4330   0.00    1.4
2173 239027.000   -679343.8505  -5154773.2233   3682489.1778   2   7   0.4344   1.0694   1.0342   0.3603  -0.8913  -0.4328   0.00    1.3
2173 239028.000   -679343.8189  -5154773.2847   3682489.1588   2   7   0.4344   1.0693   1.0339   0.3602  -0.8911  -0.4327   0.00    1.5
2173 239029.000   -679343.8174  -5154773.4903   3682489.3800   2   7   0.4344   1.0692   1.0337   0.3601  -0.8909  -0.4326   0.00    1.4
2173 239030.000   -679343.7274  -5154773.7778   3682489.5393   2   7   0.4343   1.0691   1.0334   0.3599  -0.8907  -0.4324   0.00    1.5
2173 239031.000   -679343.7230  -5154773.7821   3682489.5681   2   7   0.4343   1.0691   1.0331   0.3598  -0.8905  -0.4323   0.00    1.4
2173 239032.000   -679343.6592  -5154773.8135   3682489.5961   2   7   0.4343   1.0690   1.0329   0.3596  -0.8903  -0.4322   0.00    1.4
2173 239033.000   -679343.6569  -5154773.8255   3682489.6703   2   7   0.4343   1.0689   1.0326   0.3595  -0.8901  -0.4320   0.00    1.3
2173 239034.000   -679343.6448  -5154773.8149   3682489.5755   2   7   0.4343   1.0689   1.0323   0.3593  -0.8899  -0.4319   0.00    1.4
2173 239035.000   -679343.6398  -5154773.7192   3682489.3892   2   7   0.4342   1.0688   1.0321   0.3592  -0.8897  -0.4318   0.00    1.5
2173 239036.000   -679343.5882  -5154773.7904   3682489.4523   2   7   0.4342   1.0687   1.0318   0.3590  -0.8895  -0.4316   0.00    1.2
2173 239037.000   -679343.5674  -5154773.7678   3682489.3566   2   7   0.4342   1.0686   1.0315   0.3589  -0.8893  -0.4315   0.00    1.2
2173 239038.000   -679343.5150  -5154773.5884   3682489.1728   2   7   0.4342   1.0686   1.0313   0.3588  -0.8891  -0.4314   0.00    1.4
2173 239039.000   -679343.4511  -5154773.5926   3682489.2574   2   7   0.4341   1.0685   1.0310   0.3586  -0.8889  -0.4312   0.00    1.5
2173 239040.000   -679343.4639  -5154773.6606   3682489.3304   2   7   0.4341   1.0684   1.0307   0.3585  -0.8887  -0.4311   0.00    1.6
2173 239041.000   -679343.5826  -5154773.7525   3682489.5117   2   7   0.4341   1.0684   1.0305   0.3583  -0.8885  -0.4309   0.00    1.5
2173 239042.000   -679343.7029  -5154773.8655   3682489.6364   2   7   0.4341   1.0683   1.0302   0.3582  -0.8883  -0.4308   0.00    1.5
2173 239043.000   -679343.7198  -5154773.7026   3682489.4859   2   7   0.4340   1.0682   1.0299   0.3580  -0.8881  -0.4307   0.00    1.6
2173 239044.000   -679343.7621  -5154773.6220   3682489.3533   2   7   0.4340   1.0682   1.0297   0.3579  -0.8879  -0.4305   0.00    1.3
2173 239045.000   -679343.7568  -5154773.8078   3682489.5124   2   7   0.4340   1.0681   1.0294   0.3578  -0.8877  -0.4304   0.00    1.6
2173 239046.000   -679343.6861  -5154773.8096   3682489.5674   2   7   0.4340   1.0680   1.0291   0.3576  -0.8875  -0.4303   0.00    1.5
2173 239047.000   -679343.7249  -5154773.8737   3682489.5950   2   7   0.4339   1.0679   1.0289   0.3575  -0.8873  -0.4301   0.00    1.6
2173 239048.000   -679343.6947  -5154773.9465   3682489.6490   2   7   0.4339   1.0679   1.0286   0.3573  -0.8871  -0.4300   0.00    1.6
2173 239049.000   -679343.7633  -5154773.9250   3682489.5805   2   7   0.4339   1.0678   1.0284   0.3572  -0.8869  -0.4299   0.00    1.6
2173 239050.000   -679343.7756  -5154773.8941   3682489.6079   2   7   0.4339   1.0677   1.0281   0.3570  -0.8867  -0.4297   0.00    1.7
2173 239051.000   -679343.8156  -5154774.0275   3682489.6495   2   7   0.4339   1.0677   1.0278   0.3569  -0.8865  -0.4296   0.00    1.4
2173 239052.000   -679343.8189  -5154774.0228   3682489.5845   2   7   0.4338   1.0676   1.0276   0.3568  -0.8863  -0.4295   0.00    1.4
2173 239053.000   -679343.7970  -5154773.9303   3682489.5998   2   7   0.4338   1.0675   1.0273   0.3566  -0.8861  -0.4293   0.00    1.3
2173 239054.000   -679343.8457  -5154774.1686   3682489.7572   2   7   0.4338   1.0675   1.0270   0.3565  -0.8859  -0.4292   0.00    1.6
2173 239055.000   -679343.8966  -5154774.3223   3682489.8815   2   7   0.4338   1.0674   1.0268   0.3563  -0.8857  -0.4291   0.00    1.6
2173 239056.000   -679343.8532  -5154774.2276   3682489.6828   2   7   0.4337   1.0673   1.0265   0.3562  -0.8855  -0.4289   0.00    1.5
2173 239057.000   -679343.7001  -5154774.0814   3682489.3936   2   7   0.4337   1.0673   1.0262   0.3560  -0.8853  -0.4288   0.00    1.5
2173 239058.000   -679343.6649  -5154774.0877   3682489.3717   2   7   0.4337   1.0672   1.0260   0.3559  -0.8851  -0.4287   0.00    1.5
2173 239059.000   -679343.6279  -5154773.9330   3682489.3298   2   7   0.4337   1.0671   1.0257   0.3558  -0.8849  -0.4285   0.00    1.3
2173 239060.000   -679343.5038  -5154773.9820   3682489.3150   2   7   0.4336   1.0671   1.0255   0.3556  -0.8847  -0.4284   0.00    1.3
2173 239061.000   -679343.4684  -5154774.0508   3682489.2401   2   7   0.4336   1.0670   1.0252   0.3555  -0.8845  -0.4283   0.00    1.2
2173 239062.000   -679343.4746  -5154774.2907   3682489.5261   2   7   0.4336   1.0669   1.0249   0.3553  -0.8843  -0.4281   0.00    1.2
2173 239063.000   -679343.4708  -5154774.4907   3682489.7057   2   7   0.4336   1.0669   1.0247   0.3552  -0.8841  -0.4280   0.00    1.2
2173 239064.000   -679343.4198  -5154774.2376   3682489.6222   2   7   0.4336   1.0668   1.0244   0.3550  -0.8839  -0.4279   0.00    1.2
2173 239065.000   -679343.3076  -5154773.9732   3682489.3242   2   7   0.4335   1.0667   1.0241   0.3549  -0.8837  -0.4277   0.00    1.2
2173 239066.000   -679343.2388  -5154774.0042   3682489.4262   2   7   0.4335   1.0667   1.0239   0.3548  -0.8835  -0.4276   0.00    1.2
2173 239067.000   -679343.1416  -5154773.8467   3682489.3947   2   7   0.4335   1.0666   1.0236   0.3546  -0.8833  -0.4275   0.00    1.2
2173 239068.000   -679343.2087  -5154773.7872   3682489.4072   2   7   0.4335   1.0665   1.0234   0.3545  -0.8831  -0.4273   0.00    1.2
2173 239069.000   -679343.2237  -5154773.7831   3682489.4748   2   7   0.4334   1.0665   1.0231   0.3543  -0.8829  -0.4272   0.00    1.2
2173 239070.000   -679343.2935  -5154773.7431   3682489.5221   2   7   0.4334   1.0664   1.0228   0.3542  -0.8827  -0.4271   0.00    1.3
2173 239071.000   -679343.2934  -5154773.4417   3682489.2014   2   7   0.4334   1.0663   1.0226   0.3540  -0.8825  -0.4269   0.00    1.5
2173 239072.000   -679343.3792  -5154773.3882   3682489.1653   2   7   0.4334   1.0663   1.0223   0.3539  -0.8823  -0.4268   0.00    1.3
2173 239073.000   -679343.3961  -5154773.3571   3682488.9841   2   7   0.4333   1.0662   1.0220   0.3538  -0.8821  -0.4267   0.00    1.4
2173 239074.000   -679343.3215  -5154773.3551   3682488.9627   2   7   0.4333   1.0661   1.0218   0.3536  -0.8819  -0.4265   0.00    1.3
2173 239075.000   -679343.2482  -5154773.4154   3682489.2189   2   7   0.4333   1.0661   1.0215   0.3535  -0.8817  -0.4264   0.00    1.4
2173 239076.000   -679343.1972  -5154773.4718   3682489.3404   2   7   0.4333   1.0660   1.0213   0.3533  -0.8815  -0.4263   0.00    1.4
2173 239077.000   -679343.0763  -5154773.2736   3682489.2986   2   7   0.4333   1.0659   1.0210   0.3532  -0.8813  -0.4262   0.00    1.3
2173 239078.000   -679343.1432  -5154773.4382   3682489.2912   2   7   0.4332   1.0659   1.0207   0.3530  -0.8811  -0.4260   0.00    1.3
2173 239079.000   -679343.2242  -5154773.5746   3682489.4350   2   7   0.4332   1.0658   1.0205   0.3529  -0.8809  -0.4259   0.00    1.4
2173 239080.000   -679343.2245  -5154773.6301   3682489.4839   2   7   0.4332   1.0657   1.0202   0.3528  -0.8807  -0.4258   0.00    1.4
2173 239081.000   -679343.2321  -5154773.7160   3682489.6339   2   7   0.4332   1.0657   1.0200   0.3526  -0.8805  -0.4256   0.00    1.5
2173 239082.000   -679343.2876  -5154773.6718   3682489.6701   2   7   0.4331   1.0656   1.0197   0.3525  -0.8803  -0.4255   0.00    1.5
2173 239083.000   -679343.2388  -5154773.5846   3682489.6377   2   7   0.4331   1.0655   1.0194   0.3523  -0.8801  -0.4254   0.00    1.4
2173 239084.000   -679343.1264  -5154773.4150   3682489.4431   2   7   0.4331   1.0655   1.0192   0.3522  -0.8799  -0.4252   0.00    1.2
2173 239085.000   -679342.9564  -5154773.0215   3682489.2063   2   7   0.4331   1.0654   1.0189   0.3520  -0.8798  -0.4251   0.00    1.2
2173 239086.000   -679342.9422  -5154772.9548   3682489.1546   2   7   0.4331   1.0653   1.0187   0.3519  -0.8796  -0.4250   0.00    1.2
2173 239087.000   -679342.9475  -5154772.9888   3682489.1640   2   7   0.4330   1.0653   1.0184   0.3518  -0.8794  -0.4248   0.00    1.2
2173 239088.000   -679342.9663  -5154772.9749   3682489.1649   2   7   0.4330   1.0652   1.0181   0.3516  -0.8792  -0.4247   0.00    1.3
2173 239089.000   -679342.8513  -5154772.9016   3682488.9218   2   7   0.4330   1.0651   1.0179   0.3515  -0.8790  -0.4246   0.00    1.2
2173 239090.000   -679342.8306  -5154772.8116   3682488.8608   2   7   0.4330   1.0651   1.0176   0.3513  -0.8788  -0.4244   0.00    1.2
2173 239091.000   -679342.7867  -5154772.9415   3682488.9817   2   7   0.4329   1.0650   1.0174   0.3512  -0.8786  -0.4243   0.00    1.2
2173 239092.000   -679342.7439  -5154772.7772   3682488.8553   2   7   0.4329   1.0649   1.0171   0.3510  -0.8784  -0.4242   0.00    1.2
2173 239093.000   -679342.6864  -5154772.6554   3682488.7486   2   7   0.4329   1.0649   1.0168   0.3509  -0.8782  -0.4240   0.00    1.1
2173 239094.000   -679342.6911  -5154772.6223   3682488.7809   2   7   0.4329   1.0648   1.0166   0.3508  -0.8780  -0.4239   0.00    1.1
2173 239095.000   -679342.7730  -5154772.5311   3682488.6894   2   7   0.4328   1.0648   1.0163   0.3506  -0.8778  -0.4238   0.00    1.2
2173 239096.000   -679342.8029  -5154772.6666   3682488.6802   2   7   0.4328   1.0647   1.0161   0.3505  -0.8776  -0.4236   0.00    1.2
2173 239097.000   -679342.8526  -5154772.6969   3682488.5960   2   7   0.4328   1.0646   1.0158   0.3503  -0.8774  -0.4235   0.00    1.3
2173 239098.000   -679342.9434  -5154772.7966   3682488.6278   2   7   0.4328   1.0646   1.0156   0.3502  -0.8772  -0.4234   0.00    1.4
2173 239099.000   -679342.9293  -5154772.6126   3682488.6231   2   7   0.4328   1.0645   1.0153   0.3500  -0.8770  -0.4233   0.00    1.4
2173 239100.000   -679342.8979  -5154772.4501   3682488.3763   2   7   0.4327   1.0644   1.0150   0.3499  -0.8768  -0.4231   0.00    1.4
2173 239101.000   -679342.8813  -5154772.3728   3682488.3175   2   7   0.4327   1.0644   1.0148   0.3498  -0.8766  -0.4230   0.00    1.3
2173 239102.000   -679342.7888  -5154772.4090   3682488.3223   2   7   0.4327   1.0643   1.0145   0.3496  -0.8764  -0.4229   0.00    1.2
2173 239103.000   -679342.7936  -5154772.4905   3682488.4270   2   7   0.4327   1.0642   1.0143   0.3495  -0.8762  -0.4227   0.00    1.3
2173 239104.000   -679342.7215  -5154772.5810   3682488.4264   2   7   0.4327   1.0642   1.0140   0.3493  -0.8760  -0.4226   0.00    1.2
2173 239105.000   -679342.6771  -5154772.5588   3682488.3701   2   7   0.4326   1.0641   1.0137   0.3492  -0.8759  -0.4225   0.00    1.3
2173 239106.000   -679342.6494  -5154772.5438   3682488.4174   2   7   0.4326   1.0641   1.0135   0.3490  -0.8757  -0.4223   0.00    1.2
2173 239107.000   -679342.6525  -5154772.3388   3682488.2031   2   7   0.4326   1.0640   1.0132   0.3489  -0.8755  -0.4222   0.00    1.2
2173 239108.000   -679342.6810  -5154772.5155   3682488.3724   2   7   0.4326   1.0639   1.0130   0.3488  -0.8753  -0.4221   0.00    1.3
2173 239109.000   -679342.5909  -5154772.5191   3682488.3637   2   7   0.4325   1.0639   1.0127   0.3486  -0.8751  -0.4219   0.00    1.2
2173 239110.000   -679342.5601  -5154772.5400   3682488.3513   2   7   0.4325   1.0638   1.0125   0.3485  -0.8749  -0.4218   0.00    1.2
2173 239111.000   -679342.4939  -5154772.5363   3682488.3126   2   7   0.4325   1.0637   1.0122   0.3483  -0.8747  -0.4217   0.00    1.2
2173 239112.000   -679342.4441  -5154772.3869   3682488.2522   2   7   0.4325   1.0637   1.0119   0.3482  -0.8745  -0.4215   0.00    1.1
