     2.11           OBSERVATION DATA    M (MIXED)           RINEX VERSION / TYPE
CONVBIN 2.4.3                           20210901 190810 UTC PGM / RUN BY / DATE 
log: logs/21_09_01_09_12_17_pass_SNPA.rtcm                  COMMENT             
format: RTCM 3, station ID: 3759                            COMMENT             
3759                                                        MARKER NAME         
                                                            MARKER NUMBER       
                                                            OBSERVER / AGENCY   
1706024             LEICA GR30          4.50                REC # / TYPE / VERS 
                    GPPNULLANTENNA                          ANT # / TYPE        
  1159548.2401 -4706036.6509  4132097.1447                  APPROX POSITION XYZ 
        0.0000        0.0000        0.0000                  ANTENNA: DELTA H/E/N
     1     1                                                WAVELENGTH FACT L1/2
     7    C1    L1    C2    L2    P2    C5    L5            # / TYPES OF OBSERV 
  2021     9     1     9    12   24.0000000     GPS         TIME OF FIRST OBS   
  2021     9     1     9    42   21.0000000     GPS         TIME OF LAST OBS    
                                                            END OF HEADER       
 21  9  1  9 12 24.0000000  0 17G 1G 7G 8G14G17G19G21G22G30R12R13R14
                                R24E13E15E21E27
  20226846.014   106292793.210    20226845.799    82825552.062    20226845.692  
  20226845.031    79374484.505  
  21967481.621   115439894.407    21967478.673    89953151.284    21967478.423  
                                
  23975802.216   125993690.425    23975802.412    98176899.542    23975801.590  
  23975801.162    94086193.096  
  20969145.706   110193604.892    20969143.257    85865135.188    20969142.972  
  20969147.207    82287437.190  
  21671168.763   113882759.791    21671165.761    88739799.432    21671165.385  
                                
  23842812.209   125294823.447                    97632311.671    23842807.760  
                                
  21856172.904   114854963.878                    89497358.328    21856168.955  
                                
  24112390.329   126711466.195                    98736186.873    24112385.272  
                                
  20991258.157   110309806.030    20991257.603    85955687.955    20991256.977  
  20991257.692    82374203.476  
  22490610.349   120140803.369    22490610.939    93442849.540    22490611.242  
                                
  19358520.284   103373418.498    19358519.820    80401545.638    19358519.980  
                                
  20578527.595   109695131.612    20578528.024    85318437.618    20578527.809  
                                
  19948027.357   106671066.992    19948026.356    82966381.061    19948026.428  
                                
  23946149.394   125837864.837                                                  
  23946150.770    93969838.897  
  23692445.381   124504641.057                                                  
  23692447.883    92974254.125  
  24660699.816   129592852.408                                                  
  24660701.335    96773888.339  
  23536473.399   123685002.938                                                  
  23536474.864    92362183.058  
 21  9  1  9 12 25.0000000  0 17G 1G 7G 8G14G17G19G21G22G30R12R13R14
                                R24E13E15E21E27
  20226799.608   106292549.490    20226799.411    82825362.153    20226799.322  
  20226798.661    79374302.506  
  21968066.653   115442968.799    21968063.723    89955546.912    21968063.437  
                                
  23976379.082   125996721.895    23976379.278    98179261.724    23976378.456  
  23976378.027    94088456.856  
  20968811.430   110191848.225    20968808.982    85863766.359    20968808.714  
  20968812.913    82286125.389  
  21670851.427   113881092.227    21670848.442    88738500.031    21670848.067  
                                
  23842233.163   125291780.598                    97629940.635    23842228.714  
                                
  21856551.585   114856953.939                    89498909.027    21856547.671  
                                
  24111969.496   126709254.613                    98734463.564    24111964.439  
                                
  20991494.636   110311048.733    20991494.099    85956656.297    20991493.456  
  20991494.153    82375131.472  
  22491313.977   120144562.011    22491314.567    93445772.931    22491314.889  
                                
  19358721.704   103374494.044    19358721.239    80402382.176    19358721.400  
                                
  20577973.727   109692179.222    20577974.155    85316141.312    20577973.959  
                                
  19947629.503   106668939.513    19947628.503    82964726.355    19947628.574  
                                
  23945793.497   125835994.601                                                  
  23945794.855    93968442.297  
  23692635.276   124505638.987                                                  
  23692637.777    92974999.332  
  24660364.361   129591089.515                                                  
  24660365.879    96772571.899  
  23536595.194   123685643.082                                                  
  23536596.677    92362661.088  
 21  9  1  9 12 26.0000000  0 17G 1G 7G 8G14G17G19G21G22G30R12R13R14
                                R24E13E15E21E27
  20226753.398   106292306.555    20226753.184    82825172.853    20226753.077  
  20226752.416    79374121.096  
  21968651.757   115446043.608    21968648.826    89957942.863    21968648.558  
                                
  23976955.965   125999753.418    23976956.162    98181623.947    23976955.340  
  23976954.911    94090720.649  
  20968477.190   110190091.879    20968474.759    85862397.775    20968474.474  
  20968478.691    82284813.834  
  21670534.180   113879425.005    21670531.178    88737200.899    21670530.785  
                                
  23841654.153   125288737.903                    97627569.700    23841649.722  
                                
  21856930.390   114858944.490                    89500460.105    21856926.459  
                                
  24111548.680   126707043.350                    98732740.507    24111543.623  
                                
  20991731.239   110312292.100    20991730.703    85957625.157    20991730.060  
  20991730.775    82376059.960  
  22492017.677   120148321.041    22492018.267    93448696.626    22492018.589  
                                
  19358923.266   103375570.374    19358922.802    80403219.324    19358922.963  
                                
  20577419.948   109689227.304    20577420.394    85313845.373    20577420.180  
                                
  19947231.775   106666812.706    19947230.774    82963072.176    19947230.845  
                                
  23945437.689   125834124.780                                                  
  23945439.029    93967046.000  
  23692825.259   124506637.371                                                  
  23692827.761    92975744.879  
  24660028.923   129589326.827                                                  
  24660030.442    96771255.599  
  23536717.079   123686283.561                                                  
  23536718.580    92363139.367  
 21  9  1  9 12 27.0000000  0 17G 1G 7G 8G14G17G19G21G22G30R12R13R14
                                R24E13E15E21E27
  20226707.279   106292064.281    20226707.082    82824984.073    20226706.975  
  20226706.314    79373940.182  
  21969236.931   115449118.702    21969233.983    89960339.042    21969233.733  
                                
  23977532.831   126002784.835    23977533.009    98183986.093    23977532.187  
  23977531.759    94092984.389  
  20968143.003   110188335.717    20968140.573    85861029.340    20968140.287  
  20968144.504    82283502.423  
  21670216.933   113877757.995    21670213.949    88735901.930    21670213.574  
                                
  23841075.161   125285695.326                    97625198.863    23841070.730  
                                
  21857309.249   114860935.428                    89502011.488    21857305.300  
                                
  24111127.954   126704832.293                    98731017.606    24111122.879  
                                
  20991967.950   110313536.028    20991967.414    85958594.446    20991966.789  
  20991967.486    82376988.856  
  22492721.413   120152080.313    22492722.021    93451620.504    22492722.324  
                                
  19359124.954   103376647.371    19359124.489    80404056.989    19359124.650  
                                
  20576866.240   109686275.711    20576866.687    85311549.692    20576866.473  
                                
  19946834.153   106664686.481    19946833.152    82961418.445    19946833.242  
                                
  23945081.935   125832255.245                                                  
  23945083.275    93965649.919  
  23693015.314   124507636.070                                                  
  23693017.816    92976490.667  
  24659693.522   129587564.212                                                  
  24659695.041    96769939.363  
  23536838.999   123686924.253                                                  
  23536840.482    92363617.805  
 21  9  1  9 12 28.0000000  0 17G 1G 7G 8G14G17G19G21G22G30R12R13R14
                                R24E13E15E21E27
  20226661.319   106291822.753    20226661.123    82824795.864    20226661.016  
  20226660.372    79373759.811  
  21969822.178   115452194.159    21969819.229    89962735.500    21969818.979  
                                
  23978109.696   126005816.278    23978109.893    98186348.257    23978109.053  
  23978108.642    94095248.112  
  20967808.888   110186579.843    20967806.458    85859661.124    20967806.172  
  20967810.371    82282191.203  
  21669899.776   113876091.269    21669896.792    88734603.179    21669896.399  
                                
  23840496.223   125282652.908                    97622828.147    23840491.773  
                                
  21857688.180   114862926.797                    89503563.204    21857684.266  
                                
  24110707.246   126702621.483                    98729294.896    24110702.189  
                                
  20992204.786   110314780.527    20992204.232    85959564.184    20992203.607  
  20992204.304    82377918.194  
  22493425.220   120155839.889    22493425.810    93454544.614    22493426.114  
                                
  19359326.767   103377725.079    19359326.302    80404895.206    19359326.463  
                                
  20576312.604   109683324.490    20576313.033    85309254.296    20576312.837  
                                
  19946436.657   106662560.895    19946435.656    82959765.214    19946435.727  
                                
  23944726.234   125830386.058                                                  
  23944727.592    93964254.097  
  23693205.422   124508635.159                                                  
  23693207.924    92977236.735  
  24659358.138   129585801.739                                                  
  24659359.639    96768623.226  
  23536960.973   123687565.207                                                  
  23536962.456    92364096.441  
 21  9  1  9 12 29.0000000  0 17G 1G 7G 8G14G17G19G21G22G30R12R13R14
                                R24E13E15E21E27
  20226615.468   106291581.750    20226615.253    82824608.069    20226615.164  
  20226614.503    79373579.845  
  21970407.442   115455269.764    21970404.511    89965132.081    21970404.243  
                                
  23978686.508   126008847.487    23978686.705    98188710.242    23978685.865  
  23978685.436    94097511.695  
  20967474.755   110184824.024    20967472.325    85858292.954    20967472.039  
  20967476.256    82280880.046  
  21669582.637   113874424.629    21669579.653    88733304.498    21669579.242  
                                
  23839917.266   125279610.445                    97620457.383    23839912.835  
                                
  21858067.199   114864918.425                    89505115.120    21858063.250  
                                
  24110286.538   126700410.705                    98727572.223    24110281.463  
                                
  20992441.694   110316025.446    20992441.122    85960534.253    20992440.514  
  20992441.211    82378847.846  
  22494129.045   120159599.561    22494129.635    93457468.803    22494129.957  
                                
  19359528.687   103378803.344    19359528.240    80405733.854    19359528.401  
                                
  20575758.986   109680373.454    20575759.451    85306959.046    20575759.236  
                                
  19946039.250   106660435.733    19946038.249    82958112.310    19946038.320  
                                
  23944370.569   125828517.022                                                  
  23944371.927    93962858.393  
  23693395.585   124509634.435                                                  
  23693398.086    92977982.957  
  24659022.737   129584039.206                                                  
  24659024.255    96767307.056  
  23537082.947   123688206.246                                                  
  23537084.448    92364575.139  
 21  9  1  9 12 30.0000000  0 17G 1G 7G 8G14G17G19G21G22G30R12R13R14
                                R24E13E15E21E27
  20226569.776   106291341.559    20226569.544    82824420.906    20226569.455  
  20226568.794    79373400.482  
  21970992.795   115458345.837    21970989.865    89967529.026    21970989.597  
                                
  23979263.374   126011878.817    23979263.553    98191072.317    23979262.731  
  23979262.284    94099775.345  
  20967140.712   110183068.567    20967138.264    85856925.065    20967138.014  
  20967142.213    82279569.149  
  21669265.551   113872758.355    21669262.549    88732006.103    21669262.174  
                                
  23839338.346   125276568.194                    97618086.800    23839333.896  
                                
  21858446.273   114866910.569                    89506667.438    21858442.342  
                                
  24109865.901   126698200.296                    98725849.838    24109860.844  
                                
  20992678.708   110317271.058    20992678.154    85961504.858    20992677.529  
  20992678.226    82379778.015  
  22494832.942   120163359.638    22494833.532    93460393.305    22494833.853  
                                
  19359730.750   103379882.402    19359730.321    80406573.124    19359730.482  
                                
  20575205.475   109677422.927    20575205.940    85304664.191    20575205.726  
                                
  19945641.968   106658311.297    19945640.967    82956459.969    19945641.038  
                                
  23944014.993   125826648.442                                                  
  23944016.351    93961463.029  
  23693585.836   124510634.199                                                  
  23693588.338    92978729.525  
  24658687.389   129582276.914                                                  
  24658688.890    96765991.061  
  23537205.010   123688847.658                                                  
  23537206.493    92365054.120  
 21  9  1  9 12 31.0000000  0 17G 1G 7G 8G14G17G19G21G22G30R12R13R14
                                R24E13E15E21E27
  20226524.193   106291102.055    20226523.978    82824234.279    20226523.871  
  20226523.210    79373221.634  
  21971578.220   115461422.210    21971575.290    89969926.205    21971575.022  
                                
  23979840.186   126014910.081    23979840.383    98193434.344    23979839.543  
  23979839.132    94102038.948  
  20966806.704   110181313.300    20966804.256    85855557.322    20966803.970  
  20966808.169    82278258.404  
  21668948.501   113871092.287    21668945.517    88730707.868    21668945.141  
                                
  23838759.443   125273526.081                    97615716.322    23838755.012  
                                
  21858825.454   114868903.110                    89508220.067    21858821.504  
                                
  24109445.318   126695990.075                    98724127.593    24109440.243  
                                
  20992915.866   110318517.233    20992915.294    85962475.908    20992914.687  
  20992915.384    82380708.596  
  22495536.892   120167119.989    22495537.482    93463318.020    22495537.786  
                                
  19359932.955   103380962.150    19359932.509    80407412.925    19359932.670  
                                
  20574652.054   109674472.778    20574652.501    85302369.626    20574652.304  
                                
  19945244.793   106656187.452    19945243.792    82954808.089    19945243.864  
                                
  23943659.453   125824780.161                                                  
  23943660.829    93960067.886  
  23693776.123   124511634.285                                                  
  23693778.625    92979476.349  
  24658352.041   129580514.708                                                  
  24658353.559    96764675.118  
  23537327.109   123689489.299                                                  
  23537328.592    92365533.265  
 21  9  1  9 12 32.0000000  0 17G 1G 7G 8G14G17G19G21G22G30R12R13R14
                                R24E13E15E21E27
  20226478.752   106290863.341    20226478.555    82824048.270    20226478.448  
  20226477.787    79373043.373  
  21972163.716   115464498.991    21972160.768    89972323.701    21972160.518  
                                
  23980417.034   126017941.378    23980417.213    98195796.396    23980416.391  
  23980415.962    94104302.581  
  20966472.768   110179558.391    20966470.320    85854189.861    20966470.052  
  20966474.251    82276947.907  
  21668631.522   113869426.562    21668628.538    88729409.900    21668628.163  
                                
  23838180.594   125270484.152                    97613345.998    23838176.127  
                                
  21859204.706   114870896.143                    89509773.077    21859200.775  
                                
  24109024.770   126693780.175                    98722405.597    24109019.713  
                                
  20993153.113   110319764.051    20993152.559    85963447.456    20993151.916  
  20993152.613    82381639.677  
  22496240.896   120170880.696    22496241.486    93466243.007    22496241.807  
                                
  19360135.304   103382042.666    19360134.858    80408253.324    19360135.018  
                                
  20574098.704   109671523.090    20574099.151    85300075.426    20574098.954  
                                
  19944847.761   106654064.338    19944846.760    82953156.779    19944846.850  
                                
  23943304.020   125822912.290                                                  
  23943305.378    93958673.048  
  23693966.536   124512634.832                                                  
  23693969.037    92980223.511  
  24658016.728   129578752.698                                                  
  24658018.247    96763359.343  
  23537449.280   123690131.265                                                  
  23537450.763    92366012.658  
 21  9  1  9 12 33.0000000  0 17G 1G 7G 8G14G17G19G21G22G30R12R13R14
                                R24E13E15E21E27
  20226433.472   106290625.360    20226433.275    82823862.826    20226433.168  
  20226432.524    79372865.658  
  21972749.284   115467576.127    21972746.336    89974721.467    21972746.086  
                                
  23980993.864   126020972.663    23980994.061    98198158.436    23980993.221  
  23980992.792    94106566.200  
  20966138.849   110177803.715    20966136.401    85852822.582    20966136.133  
  20966140.332    82275637.607  
  21668314.615   113867761.118    21668311.613    88728112.157    21668311.220  
                                
  23837601.763   125267442.429                    97610975.824    23837597.331  
                                
  21859584.065   114872889.625                    89511326.440    21859580.116  
                                
  24108604.294   126691570.523                    98720683.782    24108599.237  
                                
  20993390.485   110321011.509    20993389.949    85964419.499    20993389.306  
  20993390.003    82382571.209  
  22496944.971   120174641.700    22496945.561    93469168.231    22496945.882  
                                
  19360337.778   103383123.907    19360337.349    80409094.287    19360337.510  
                                
  20573545.425   109668573.801    20573545.890    85297781.530    20573545.658  
                                
  19944450.854   106651941.863    19944449.854    82951505.967    19944449.925  
                                
  23942948.659   125821044.775                                                  
  23942949.999    93957278.475  
  23694157.002   124513635.761                                                  
  23694159.521    92980970.955  
  24657681.470   129576990.823                                                  
  24657682.989    96762043.654  
  23537571.486   123690773.513                                                  
  23537572.969    92366492.258  
 21  9  1  9 12 34.0000000  0 17G 1G 7G 8G14G17G19G21G22G30R12R13R14
                                R24E13E15E21E27
  20226388.334   106290388.125    20226388.120    82823677.967    20226388.013  
  20226387.369    79372688.502  
  21973334.906   115470653.659    21973331.957    89977119.539    21973331.707  
                                
  23981570.676   126024003.934    23981570.890    98200520.470    23981570.051  
  23981569.622    94108829.818  
  20965805.002   110176049.328    20965802.554    85851455.528    20965802.286  
  20965806.485    82274327.514  
  21667997.726   113866095.989    21667994.760    88726814.651    21667994.349  
                                
  23837022.967   125264400.847                    97608605.760    23837018.536  
                                
  21859963.496   114874883.554                    89512880.151    21859959.565  
                                
  24108183.872   126689361.183                    98718962.204    24108178.815  
                                
  20993627.982   110322259.576    20993627.446    85965392.019    20993626.821  
  20993627.500    82383503.201  
  22497649.100   120178403.004    22497649.672    93472093.687    22497649.993  
                                
  19360540.413   103384205.873    19360539.966    80409935.816    19360540.127  
                                
  20572992.218   109665624.907    20572992.665    85295487.951    20572992.451  
                                
  19944054.055   106649820.010    19944053.054    82949855.635    19944053.143  
                                
  23942593.351   125819177.641                                                  
  23942594.692    93955884.182  
  23694347.557   124514637.097                                                  
  23694350.058    92981718.709  
  24657346.247   129575229.135                                                  
  24657347.766    96760728.100  
  23537693.764   123691416.055                                                  
  23537695.229    92366972.078  
 21  9  1  9 12 35.0000000  0 17G 1G 7G 8G14G17G19G21G22G30R12R13R14
                                R24E13E15E21E27
  20226343.358   106290151.778    20226343.161    82823493.801    20226343.054  
  20226342.393    79372512.007  
  21973920.635   115473731.681    21973917.686    89979517.996    21973917.436  
                                
  23982147.542   126027035.360    23982147.720    98202882.625    23982146.881  
  23982146.470    94111093.556  
  20965471.227   110174295.376    20965468.779    85850088.812    20965468.529  
  20965472.728    82273017.735  
  21667680.962   113864431.294    21667677.960    88725517.484    21667677.584  
                                
  23836444.243   125261359.573                    97606235.934    23836439.794  
                                
  21860343.034   114876878.081                    89514434.330    21860339.085  
                                
  24107763.539   126687152.203                    98717240.910    24107758.464  
                                
  20993865.623   110323508.381    20993865.086    85966365.114    20993864.443  
  20993865.140    82384435.765  
  22498353.318   120182164.754    22498353.890    93475019.488    22498354.212  
                                
  19360743.191   103385288.706    19360742.744    80410778.020    19360742.905  
                                
  20572439.100   109662676.538    20572439.565    85293194.775    20572439.369  
                                
  19943657.398   106647698.906    19943656.398    82948205.887    19943656.487  
                                
  23942238.133   125817310.998                                                  
  23942239.491    93954490.262  
  23694538.201   124515638.977                                                  
  23694540.703    92982466.859  
  24657011.060   129573467.718                                                  
  24657012.561    96759412.760  
  23537816.113   123692059.028                                                  
  23537817.596    92367452.216  
 21  9  1  9 12 36.0000000  0 17G 1G 7G 8G14G17G19G21G22G30R12R13R14
                                R24E13E15E21E27
  20226298.543   106289916.239    20226298.328    82823310.267    20226298.239  
  20226297.578    79372336.124  
  21974506.453   115476810.158    21974503.522    89981916.805    21974503.254  
                                
  23982724.425   126030066.886    23982724.604    98205244.857    23982723.764  
  23982723.353    94113357.354  
  20965137.541   110172541.753    20965135.075    85848722.352    20965134.807  
  20965139.024    82271708.220  
  21667364.233   113862766.969    21667361.267    88724220.607    21667360.874  
                                
  23835865.555   125258318.572                    97603866.320    23835861.105  
                                
  21860722.679   114878873.148                    89515988.930    21860718.748  
                                
  24107343.242   126684943.597                    98715519.918    24107338.185  
                                
  20994103.424   110324757.916    20994102.870    85967338.775    20994102.244  
  20994102.923    82385368.848  
  22499057.590   120185926.937    22499058.198    93477945.630    22499058.519  
                                
  19360946.129   103386372.366    19360945.682    80411620.861    19360945.843  
                                
  20571886.090   109659728.663    20571886.555    85290901.986    20571886.340  
                                
  19943260.885   106645578.528    19943259.866    82946556.709    19943259.955  
                                
  23941883.004   125815444.806                                                  
  23941884.344    93953096.677  
  23694728.935   124516641.320                                                  
  23694731.437    92983215.369  
  24656675.908   129571706.535                                                  
  24656677.427    96758097.591  
  23537938.534   123692702.361                                                  
  23537940.017    92367932.636  
 21  9  1  9 12 37.0000000  0 17G 1G 7G 8G14G17G19G21G22G30R12R13R14
                                R24E13E15E21E27
  20226253.852   106289681.427    20226253.638    82823127.299    20226253.548  
  20226252.887    79372160.775  
  21975092.324   115479888.938    21975089.376    89984315.851    21975089.126  
                                
  23983301.291   126033098.382    23983301.505    98207607.069    23983300.665  
  23983300.237    94115621.136  
  20964803.890   110170788.387    20964801.424    85847356.098    20964801.156  
  20964805.356    82270398.889  
  21667047.594   113861102.931    21667044.610    88722923.952    21667044.235  
                                
  23835286.902   125255277.685                    97601496.796    23835282.453  
                                
  21861102.414   114880868.625                    89517543.852    21861098.465  
                                
  24106923.016   126682735.222                    98713799.106    24106917.941  
                                
  20994341.296   110326008.035    20994340.760    85968312.889    20994340.134  
  20994340.813    82386302.372  
  22499761.951   120189689.445    22499762.523    93480872.023    22499762.845  
                                
  19361149.193   103387456.714    19361148.746    80412464.246    19361148.907  
                                
  20571333.151   109656781.181    20571333.615    85288609.504    20571333.383  
                                
  19942864.478   106643458.806    19942863.477    82944908.039    19942863.549  
                                
  23941527.947   125813578.951                                                  
  23941529.287    93951703.349  
  23694919.759   124517644.053                                                  
  23694922.260    92983964.161  
  24656340.775   129569945.488                                                  
  24656342.294    96756782.526  
  23538061.008   123693345.971                                                  
  23538062.491    92368413.247  
 21  9  1  9 12 38.0000000  0 17G 1G 7G 8G14G17G19G21G22G30R12R13R14
                                R24E13E15E21E27
  20226209.322   106289447.490    20226209.126    82822945.010    20226209.019  
  20226208.375    79371986.080  
  21975678.285   115482968.236    21975675.337    89986715.307    21975675.087  
                                
  23983878.228   126036130.034    23983878.425    98209969.393    23983877.567  
  23983877.138    94117885.014  
  20964470.294   110169035.436    20964467.845    85845990.164    20964467.577  
  20964471.795    82269089.873  
  21666731.009   113859439.304    21666728.024    88721627.622    21666727.631  
                                
  23834708.285   125252237.109                    97599127.514    23834703.872  
                                
  21861482.256   114882864.716                    89519099.245    21861478.307  
                                
  24106502.844   126680527.249                    98712078.601    24106497.787  
                                
  20994579.329   110327258.888    20994578.793    85969287.582    20994578.150  
  20994578.847    82387236.455  
  22500466.384   120193452.395    22500466.973    93483798.762    22500467.295  
                                
  19361352.417   103388541.936    19361351.970    80413308.307    19361352.131  
                                
  20570780.319   109653834.267    20570780.766    85286317.465    20570780.569  
                                
  19942468.250   106641339.903    19942467.232    82943260.003    19942467.321  
                                
  23941172.979   125811713.611                                                  
  23941174.337    93950310.395  
  23695110.671   124518647.318                                                  
  23695113.173    92984713.349  
  24656005.731   129568184.731                                                  
  24656007.250    96755467.666  
  23538183.554   123693989.997                                                  
  23538185.037    92368894.178  
 21  9  1  9 12 39.0000000  0 17G 1G 7G 8G14G17G19G21G22G30R12R13R14
                                R24E13E15E21E27
  20226164.972   106289214.333    20226164.775    82822763.327    20226164.668  
  20226164.007    79371811.974  
  21976264.353   115486047.946    21976261.405    89989115.078    21976261.155  
                                
  23984455.129   126039161.716    23984455.326    98212331.735    23984454.486  
  23984454.057    94120148.926  
  20964136.804   110167282.831    20964134.356    85844624.493    20964134.070  
  20964138.269    82267781.092  
  21666414.495   113857776.024    21666411.510    88720331.554    21666411.135  
                                
  23834129.722   125249196.745                    97596758.403    23834125.291  
                                
  21861862.169   114884861.274                    89520655.000    21861858.256  
                                
  24106082.743   126678319.619                    98710358.377    24106077.704  
                                
  20994817.488   110328510.412    20994816.951    85970262.794    20994816.308  
  20994817.005    82388171.035  
  22501170.888   120197215.703    22501171.460    93486725.779    22501171.781  
                                
  19361555.784   103389627.936    19361555.356    80414152.969    19361555.516  
                                
  20570227.577   109650887.821    20570228.005    85284025.782    20570227.809  
                                
  19942072.112   106639221.678    19942071.111    82941612.497    19942071.201  
                                
  23940818.100   125809848.666                                                  
  23940819.440    93948917.746  
  23695301.655   124519651.016                                                  
  23695304.157    92985462.871  
  24655670.704   129566424.164                                                  
  24655672.223    96754152.959  
  23538306.189   123694634.364                                                  
  23538307.672    92369375.355  
 21  9  1  9 12 40.0000000  0 17G 1G 7G 8G14G17G19G21G22G30R12R13R14
                                R24E13E15E21E27
  20226120.710   106288981.817    20226120.513    82822582.150    20226120.406  
  20226119.745    79371638.339  
  21976850.440   115489127.908    21976847.509    89991515.046    21976847.241  
                                
  23985032.013   126042193.259    23985032.210    98214693.975    23985031.370  
  23985030.959    94122412.732  
  20963803.297   110165530.355    20963800.866    85843258.928    20963800.580  
  20963804.780    82266472.434  
  21666098.016   113856112.908    21666095.032    88719035.622    21666094.639  
                                
  23833551.159   125246156.416                    97594389.315    23833546.745  
                                
  21862242.189   114886858.190                    89522211.036    21862238.240  
                                
  24105662.678   126676112.136                    98708638.258    24105657.621  
                                
  20995055.753   110329762.439    20995055.181    85971238.401    20995054.574  
  20995055.271    82389105.992  
  22501875.428   120200979.177    22501876.000    93489652.923    22501876.321  
                                
  19361759.259   103390714.538    19361758.848    80414998.104    19361759.009  
                                
  20569674.888   109647941.663    20569675.334    85281734.326    20569675.120  
                                
  19941676.081   106637103.954    19941675.080    82939965.378    19941675.187  
                                
  23940463.257   125807983.974                                                  
  23940464.597    93947525.281  
  23695492.711   124520655.006                                                  
  23695495.213    92986212.608  
  24655335.678   129564663.636                                                  
  24655337.197    96752838.288  
  23538428.824   123695278.898                                                  
  23538430.325    92369856.669  
 21  9  1  9 12 41.0000000  0 17G 1G 7G 8G14G17G19G21G22G30R12R13R14
                                R24E13E15E21E27
  20226076.574   106288749.810    20226076.377    82822401.363    20226076.270  
  20226075.609    79371465.092  
  21977436.561   115492208.010    21977433.613    89993915.122    21977433.363  
                                
  23985608.861   126045224.568    23985609.057    98217056.026    23985608.200  
  23985607.789    94124676.378  
  20963469.825   110163777.949    20963467.395    85841893.419    20963467.109  
  20963471.308    82265163.817  
  21665781.556   113854449.879    21665778.554    88717739.753    21665778.179  
                                
  23832972.596   125243116.060                    97592020.212    23832968.182  
                                
  21862622.228   114888855.319                    89523767.241    21862618.297  
                                
  24105242.631   126673904.686                    98706918.167    24105237.556  
                                
  20995294.072   110331014.867    20995293.518    85972214.321    20995292.911  
  20995293.590    82390041.247  
  22502579.968   120204742.753    22502580.557    93492580.152    22502580.879  
                                
  19361962.841   103391801.657    19361962.430    80415843.641    19361962.591  
                                
  20569122.217   109644995.675    20569122.663    85279443.002    20569122.449  
                                
  19941280.139   106634986.624    19941279.138    82938318.566    19941279.210  
                                
  23940108.449   125806119.437                                                  
  23940109.790    93946132.934  
  23695683.802   124521659.183                                                  
  23695686.304    92986962.476  
  24655000.652   129562903.055                                                  
  24655002.171    96751523.564  
  23538551.495   123695923.511                                                  
  23538552.978    92370338.032  
 21  9  1  9 12 42.0000000  0 17G 1G 7G 8G14G17G19G21G22G30R12R13R14
                                R24E13E15E21E27
  20226032.562   106288518.549    20226032.348    82822221.160    20226032.258  
  20226031.597    79371292.392  
  21978022.773   115495288.486    21978019.824    89996315.494    21978019.574  
                                
  23986185.691   126048255.891    23986185.905    98219418.087    23986185.065  
  23986184.636    94126940.013  
  20963136.425   110162025.822    20963133.977    85840528.125    20963133.691  
  20963137.926    82263855.400  
  21665465.149   113852787.136    21665462.165    88716444.111    21665461.772  
                                
  23832394.068   125240075.860                    97589651.234    23832389.637  
                                
  21863002.356   114890852.916                    89525323.812    21862998.406  
                                
  24104822.601   126671697.491                    98705198.281    24104817.545  
                                
  20995532.516   110332267.891    20995531.963    85973190.704    20995531.337  
  20995532.016    82390976.949  
  22503284.579   120208506.645    22503285.169    93495507.623    22503285.508  
                                
  19362166.565   103392889.473    19362166.137    80416689.718    19362166.297  
                                
  20568569.635   109642050.095    20568570.082    85277151.995    20568569.867  
                                
  19940884.304   106632869.967    19940883.304    82936672.277    19940883.393  
                                
  23939753.714   125804255.252                                                  
  23939755.054    93944740.846  
  23695874.965   124522663.741                                                  
  23695877.485    92987712.638  
  24654665.661   129561142.615                                                  
  24654667.180    96750208.950  
  23538674.219   123696568.391                                                  
  23538675.702    92370819.600  
 21  9  1  9 12 43.0000000  0 17G 1G 7G 8G14G17G19G21G22G30R12R13R14
                                R24E13E15E21E27
  20225988.712   106288288.139    20225988.515    82822041.620    20225988.426  
  20225987.764    79371120.337  
  21978609.055   115498369.434    21978606.107    89998716.233    21978605.857  
                                
  23986762.556   126051287.320    23986762.771    98221780.235    23986761.931  
  23986761.502    94129203.740  
  20962803.060   110160274.074    20962800.630    85839163.124    20962800.344  
  20962804.561    82262547.285  
  21665148.832   113851124.806    21665145.830    88715148.789    21665145.454  
                                
  23831815.594   125237035.945                    97587282.462    23831811.181  
                                
  21863382.608   114892851.067                    89526880.813    21863378.659  
                                
  24104402.644   126669490.686                    98703478.700    24104397.587  
                                
  20995771.104   110333521.667    20995770.550    85974167.672    20995769.924  
  20995770.621    82391913.212  
  22503989.280   120212270.949    22503989.851    93498435.411    22503990.173  
                                
  19362370.433   103393978.162    19362370.022    80417536.476    19362370.165  
                                
  20568017.161   109639105.063    20568017.607    85274861.415    20568017.393  
                                
  19940488.631   106630754.100    19940487.612    82935026.601    19940487.719  
                                
  23939399.067   125802391.549                                                  
  23939400.407    93943349.120  
  23696066.235   124523668.831                                                  
  23696068.737    92988463.185  
  24654330.706   129559382.445                                                  
  24654332.225    96748894.537  
  23538797.015   123697213.683                                                  
  23538798.498    92371301.476  
 21  9  1  9 12 44.0000000  0 17G 1G 7G 8G14G17G19G21G22G30R12R13R14
                                R24E13E15E21E27
  20225944.986   106288058.343    20225944.772    82821862.558    20225944.682  
  20225944.021    79370948.734  
  21979195.374   115501450.619    21979192.443    90001117.161    21979192.175  
                                
  23987339.404   126054318.591    23987339.583    98224142.271    23987338.743  
  23987338.332    94131467.358  
  20962469.749   110158522.469    20962467.319    85837798.238    20962467.033  
  20962471.250    82261239.264  
  21664832.514   113849462.623    21664829.512    88713853.582    21664829.137  
                                
  23831237.121   125233996.073                    97584913.731    23831232.707  
                                
  21863762.879   114894849.538                    89528438.065    21863758.948  
                                
  24103982.722   126667284.007                    98701759.217    24103977.665  
                                
  20996009.780   110334775.915    20996009.226    85975145.008    20996008.619  
  20996009.298    82392849.821  
  22504693.998   120216035.465    22504694.588    93501363.365    22504694.927  
                                
  19362574.444   103395067.437    19362573.997    80418383.694    19362574.158  
                                
  20567464.740   109636160.301    20567465.169    85272571.042    20567464.972  
                                
  19940093.064   106628638.766    19940092.046    82933381.340    19940092.135  
                                
  23939044.438   125800528.077                                                  
  23939045.779    93941957.569  
  23696257.523   124524674.170                                                  
  23696260.043    92989213.930  
  24653995.769   129557622.292                                                  
  24653997.288    96747580.135  
  23538919.829   123697859.129                                                  
  23538921.312    92371783.465  
 21  9  1  9 12 45.0000000  0 17G 1G 7G 8G14G17G19G21G22G30R12R13R14
                                R24E13E15E21E27
  20225901.386   106287829.153    20225901.153    82821683.969    20225901.082  
  20225900.421    79370777.586  
  21979781.763   115504532.034    21979778.833    90003518.266    21979778.547  
                                
  23987916.198   126057349.718    23987916.377    98226504.188    23987915.537  
  23987915.126    94133730.879  
  20962136.456   110156770.994    20962134.026    85836433.449    20962133.740  
  20962137.939    82259931.350  
  21664516.233   113847800.584    21664513.231    88712558.488    21664512.855  
                                
  23830658.647   125230956.208                    97582545.004    23830654.233  
                                
  21864143.257   114896848.328                    89529995.564    21864139.308  
                                
  24103562.817   126665077.457                    98700039.832    24103557.778  
                                
  20996248.546   110336030.644    20996248.010    85976122.716    20996247.367  
  20996248.064    82393786.788  
  22505398.752   120219800.148    22505399.342    93504291.449    22505399.682  
                                
  19362778.526   103396157.301    19362778.097    80419231.362    19362778.258  
                                
  20566912.337   109633215.789    20566912.783    85270280.867    20566912.587  
                                
  19939697.587   106626523.923    19939696.551    82931736.468    19939696.658  
                                
  23938689.881   125798664.829                                                  
  23938691.221    93940566.186  
  23696448.900   124525679.773                                                  
  23696451.402    92989964.863  
  24653660.832   129555862.151                                                  
  24653662.351    96746265.742  
  23539042.696   123698504.734                                                  
  23539044.179    92372265.568  
 21  9  1  9 12 46.0000000  0 17G 1G 7G 8G14G17G19G21G22G30R12R13R14
                                R24E13E15E21E27
  20225857.946   106287600.927    20225857.749    82821506.130    20225857.642  
  20225856.981    79370607.157  
  21980368.243   115507614.050    21980365.312    90005919.834    21980365.026  
                                
  23988493.064   126060381.100    23988493.243    98228866.304    23988492.403  
  23988491.974    94135994.565  
  20961803.270   110155020.032    20961800.822    85835069.066    20961800.536  
  20961804.736    82258623.814  
  21664200.058   113846139.081    21664197.056    88711263.809    21664196.681  
                                
  23830080.280   125227916.738                    97580176.587    23830075.831  
                                
  21864523.742   114898847.800                    89531553.589    21864519.793  
                                
  24103143.020   126662871.424                    98698320.852    24103137.981  
                                
  20996487.491   110337286.221    20996486.955    85977101.088    20996486.311  
  20996486.990    82394724.390  
  22506103.614   120223565.379    22506104.221    93507219.956    22506104.543  
                                
  19362982.805   103397248.135    19362982.394    80420079.788    19362982.537  
                                
  20566360.077   109630271.912    20566360.523    85267991.179    20566360.309  
                                
  19939302.253   106624409.959    19939301.252    82930092.271    19939301.323  
                                
  23938335.431   125796802.179                                                  
  23938336.772    93939175.242  
  23696640.385   124526685.998                                                  
  23696642.869    92990716.271  
  24653325.931   129554102.398                                                  
  24653327.486    96744951.642  
  23539165.653   123699150.844                                                  
  23539167.136    92372748.055  
 21  9  1  9 12 47.0000000  0 17G 1G 7G 8G14G17G19G21G22G30R12R13R14
                                R24E13E15E21E27
  20225814.649   106287373.451    20225814.453    82821328.876    20225814.363  
  20225813.684    79370437.287  
  21980954.793   115510696.424    21980951.863    90008321.691    21980951.595  
                                
  23989069.894   126063412.461    23989070.073    98231228.406    23989069.233  
  23989068.822    94138258.246  
  20961470.138   110153269.358    20961467.690    85833704.899    20961467.404  
  20961471.603    82257316.481  
  21663883.937   113844477.855    21663880.935    88709969.347    21663880.560  
                                
  23829501.913   125224877.460                    97577808.315    23829497.482  
                                
  21864904.299   114900847.709                    89533111.964    21864900.367  
                                
  24102723.277   126660665.631                    98696602.050    24102718.220  
                                
  20996726.525   110338542.402    20996725.989    85978079.929    20996725.345  
  20996726.042    82395662.449  
  22506808.529   120227330.921    22506809.136    93510148.706    22506809.458  
                                
  19363187.226   103398339.681    19363186.815    80420928.764    19363186.976  
                                
  20565807.888   109627328.454    20565808.353    85265701.823    20565808.120  
                                
  19938907.044   106622296.583    19938906.025    82928448.534    19938906.114  
                                
  23937981.053   125794939.893                                                  
  23937982.393    93937784.571  
  23696831.923   124527692.632                                                  
  23696834.442    92991467.974  
  24652991.101   129552342.794                                                  
  24652992.638    96743637.648  
  23539288.645   123699797.238                                                  
  23539290.129    92373230.752  
 21  9  1  9 12 48.0000000  0 17G 1G 7G 8G14G17G19G21G22G30R12R13R14
                                R24E13E15E21E27
  20225771.514   106287146.692    20225771.299    82821152.178    20225771.210  
  20225770.549    79370267.960  
  21981541.415   115513779.164    21981538.485    90010723.824    21981538.199  
                                
  23989646.742   126066443.808    23989646.920    98233590.502    23989646.063  
  23989645.670    94140521.930  
  20961137.042   110151518.953    20961134.594    85832340.948    20961134.308  
  20961138.525    82256009.357  
  21663567.888   113842816.936    21663564.886    88708675.125    21663564.511  
                                
  23828923.582   125221838.313                    97575440.149    23828919.169  
                                
  21865284.962   114902848.075                    89534670.692    21865281.031  
                                
  24102303.587   126658460.123                    98694883.472    24102298.548  
                                
  20996965.684   110339799.188    20996965.148    85979059.245    20996964.504  
  20996965.183    82396600.969  
  22507513.515   120231096.782    22507514.123    93513077.706    22507514.445  
                                
  19363391.773   103399431.964    19363391.362    80421778.318    19363391.541  
                                
  20565255.807   109624385.428    20565256.236    85263412.801    20565256.021  
                                
  19938511.942   106620183.876    19938510.941    82926805.317    19938511.030  
                                
  23937626.728   125793077.965                                                  
  23937628.068    93936394.175  
  23697023.568   124528699.652                                                  
  23697026.088    92992219.969  
  24652656.290   129550583.334                                                  
  24652657.826    96742323.772  
  23539411.709   123700443.932                                                  
  23539413.193    92373713.675  
 21  9  1  9 12 49.0000000  0 17G 1G 7G 8G14G17G19G21G22G30R12R13R14
                                R24E13E15E21E27
  20225728.503   106286920.727    20225728.306    82820976.102    20225728.217  
  20225727.556    79370099.223  
  21982128.127   115516862.331    21982125.161    90013126.289    21982124.911  
                                
  23990223.590   126069475.234    23990223.768    98235952.652    23990222.928  
  23990222.517    94142785.657  
  20960803.999   110149768.860    20960801.569    85830977.237    20960801.283  
  20960805.482    82254702.469  
  21663251.892   113841156.356    21663248.890    88707381.161    21663248.515  
                                
  23828345.305   125218799.404                    97573072.163    23828340.874  
                                
  21865665.716   114904848.952                    89536229.817    21865661.766  
                                
  24101883.969   126656254.932                    98693165.139    24101878.894  
                                
  20997204.950   110341056.655    20997204.414    85980039.087    20997203.806  
  20997204.485    82397539.983  
  22508218.574   120234863.010    22508219.181    93516006.985    22508219.503  
                                
  19363596.480   103400525.046    19363596.052    80422628.493    19363596.230  
                                
  20564703.761   109621442.869    20564704.226    85261124.139    20564704.011  
                                
  19938117.000   106618071.894    19938115.982    82925162.658    19938116.071  
                                
  23937272.510   125791216.453                                                  
  23937273.851    93935004.087  
  23697215.285   124529707.116                                                  
  23697217.769    92992972.296  
  24652321.513   129548824.085                                                  
  24652323.032    96741010.045  
  23539534.827   123701090.949                                                  
  23539536.310    92374196.835  
 21  9  1  9 12 50.0000000  0 17G 1G 7G 8G14G17G19G21G22G30R12R13R14
                                R24E13E15E21E27
  20225685.671   106286695.602    20225685.474    82820800.680    20225685.367  
  20225684.706    79369931.103  
  21982714.910   115519945.934    21982711.962    90015529.095    21982711.694  
                                
  23990800.473   126072506.719    23990800.652    98238314.850    23990799.794  
  23990799.401    94145049.426  
  20960471.045   110148019.131    20960468.615    85829613.813    20960468.329  
  20960472.529    82253395.855  
  21662935.950   113839496.147    21662932.966    88706087.495    21662932.573  
                                
  23827767.046   125215760.736                    97570704.370    23827762.650  
                                
  21866046.558   114906850.340                    89537789.344    21866042.609  
                                
  24101464.387   126654050.079                    98691447.076    24101459.330  
                                
  20997444.377   110342314.806    20997443.841    85981019.466    20997443.215  
  20997443.894    82398479.513  
  22508923.703   120238629.623    22508924.293    93518936.564    22508924.632  
                                
  19363801.349   103401618.916    19363800.920    80423479.278    19363801.081  
                                
  20564151.841   109618500.792    20564152.305    85258835.860    20564152.073  
                                
  19937722.184   106615960.614    19937721.166    82923520.556    19937721.255  
                                
  23936918.364   125789355.394                                                  
  23936919.704    93933614.333  
  23697407.073   124530715.072                                                  
  23697409.593    92993724.991  
  24651986.791   129547065.065                                                  
  24651988.310    96739696.491  
  23539658.034   123701738.338                                                  
  23539659.499    92374680.277  
 21  9  1  9 12 51.0000000  0 17G 1G 7G 8G14G17G19G21G22G30R12R13R14
                                R24E13E15E21E27
  20225642.946   106286471.123    20225642.749    82820625.768    20225642.660  
  20225641.999    79369763.477  
  21983301.747   115523029.808    21983298.798    90017932.113    21983298.548  
                                
  23991377.321   126075538.124    23991377.500    98240676.982    23991376.660  
  23991376.231    94147313.138  
  20960138.110   110146269.589    20960135.680    85828250.534    20960135.394  
  20960139.593    82252089.377  
  21662620.079   113837836.145    21662617.077    88704793.988    21662616.666  
                                
  23827188.840   125212722.144                    97568336.631    23827184.426  
                                
  21866427.490   114908852.115                    89539349.171    21866423.541  
                                
  24101044.840   126651845.398                    98689729.150    24101039.783  
                                
  20997683.911   110343573.488    20997683.375    85982000.257    20997682.732  
  20997683.411    82399419.435  
  22509628.850   120242396.453    22509629.458    93521866.321    22509629.797  
                                
  19364006.289   103402713.411    19364005.895    80424330.549    19364006.038  
                                
  20563599.992   109615559.034    20563600.438    85256547.825    20563600.206  
                                
  19937327.458   106613849.860    19937326.439    82921878.858    19937326.546  
                                
  23936564.272   125787494.613                                                  
  23936565.612    93932224.785  
  23697598.933   124531723.331                                                  
  23697601.470    92994477.903  
  24651652.068   129545306.110                                                  
  24651653.587    96738382.986  
  23539781.277   123702385.933                                                  
  23539782.742    92375163.868  
 21  9  1  9 12 52.0000000  0 17G 1G 7G 8G14G17G19G21G22G30R12R13R14
                                R24E13E15E21E27
  20225600.382   106286247.418    20225600.167    82820451.450    20225600.078  
  20225599.417    79369596.427  
  21983888.672   115526114.098    21983885.724    90020335.454    21983885.474  
                                
  23991954.204   126078569.580    23991954.383    98243039.155    23991953.525  
  23991953.114    94149576.883  
  20959805.246   110144520.361    20959802.798    85826887.500    20959802.512  
  20959806.729    82250783.142  
  21662304.262   113836176.497    21662301.260    88703500.759    21662300.849  
                                
  23826610.670   125209683.766                    97565969.055    23826606.238  
                                
  21866808.511   114910854.380                    89540909.378    21866804.562  
                                
  24100625.364   126649641.073                    98688011.499    24100620.308  
                                
  20997923.553   110344832.844    20997923.017    85982981.574    20997922.391  
  20997923.070    82400359.857  
