% program   : rnx2rtkp ver.2.4.3 b31
% inp file  : ngs/21_08_31_07_17_55_txlm.obs
% inp file  : ngs/21_08_31_07_17_55_txlm_P1.obs
% inp file  : ngs/21_08_31_07_17_55_brdc.nav
% obs start : 2021/08/31 07:00:00.0 GPST (week2173 198000.0s)
% obs end   : 2021/08/31 07:59:59.0 GPST (week2173 201599.0s)
% ref pos   :  -518561.2310  -5538708.2970   3109513.5360
%
% (x/y/z-ecef=WGS84,Q=1:fix,2:float,3:sbas,4:dgps,5:single,6:ppp,ns=# of satellites)
%  GPST              x-ecef(m)      y-ecef(m)      z-ecef(m)   Q  ns   sdx(m)   sdy(m)   sdz(m)  sdxy(m)  sdyz(m)  sdzx(m) age(s)  ratio
2173 199049.000   -487016.2557  -5540251.3343   3111842.5816   2   9   0.4332   1.2805   0.5113   0.3837  -0.6534  -0.1891 -30.00    1.1
2173 199050.000   -487016.2189  -5540251.5173   3111842.6196   2   9   0.3083   0.9102   0.3639   0.2728  -0.4647  -0.1347 -29.00    1.2
2173 199051.000   -487016.2132  -5540251.6596   3111842.6717   2   9   0.2524   0.7452   0.2979   0.2233  -0.3804  -0.1103 -28.00    1.1
2173 199052.000   -487016.2111  -5540251.6402   3111842.6575   2   9   0.2190   0.6466   0.2585   0.1937  -0.3301  -0.0957 -27.00    1.1
2173 199053.000   -487016.2054  -5540251.6598   3111842.6811   2   9   0.1961   0.5791   0.2315   0.1735  -0.2956  -0.0857 -26.00    1.1
2173 199054.000   -487016.2150  -5540251.7195   3111842.6818   2   9   0.1792   0.5292   0.2115   0.1585  -0.2702  -0.0783 -25.00    1.0
2173 199055.000   -487016.2147  -5540251.7454   3111842.6930   2   9   0.1660   0.4904   0.1960   0.1468  -0.2503  -0.0726 -24.00    1.0
2173 199056.000   -487016.2159  -5540251.7345   3111842.6919   2   9   0.1554   0.4590   0.1834   0.1374  -0.2343  -0.0679 -23.00    1.0
2173 199057.000   -487016.2092  -5540251.7422   3111842.6797   2   9   0.1465   0.4329   0.1730   0.1296  -0.2210  -0.0640 -22.00    1.0
2173 199058.000   -487016.1826  -5540251.7035   3111842.6600   2   9   0.1390   0.4108   0.1642   0.1230  -0.2097  -0.0608 -21.00    1.0
2173 199059.000   -487016.1776  -5540251.7059   3111842.6542   2   9   0.1326   0.3917   0.1566   0.1172  -0.2000  -0.0579 -20.00    1.1
2173 199060.000   -487016.1683  -5540251.7177   3111842.6707   2   9   0.1269   0.3750   0.1499   0.1122  -0.1915  -0.0555 -19.00    1.1
2173 199061.000   -487016.1564  -5540251.7103   3111842.6731   2   9   0.1220   0.3603   0.1440   0.1078  -0.1839  -0.0533 -18.00    1.1
2173 199062.000   -487016.1548  -5540251.7058   3111842.6661   2   9   0.1175   0.3470   0.1388   0.1038  -0.1772  -0.0513 -17.00    1.1
2173 199063.000   -487016.1568  -5540251.7317   3111842.6713   2   9   0.1135   0.3351   0.1340   0.1002  -0.1711  -0.0496 -16.00    1.1
2173 199064.000   -487016.1623  -5540251.7711   3111842.6906   2   9   0.1099   0.3243   0.1297   0.0970  -0.1656  -0.0480 -15.00    1.2
2173 199065.000   -487016.1655  -5540251.8232   3111842.7067   2   9   0.1066   0.3144   0.1258   0.0940  -0.1605  -0.0465 -14.00    1.2
2173 199066.000   -487016.1644  -5540251.8328   3111842.7020   2   9   0.1035   0.3053   0.1222   0.0913  -0.1559  -0.0452 -13.00    1.2
2173 199067.000   -487016.1616  -5540251.8463   3111842.7067   2   9   0.1007   0.2970   0.1189   0.0887  -0.1516  -0.0439 -12.00    1.2
2173 199068.000   -487016.1536  -5540251.8643   3111842.7121   2   9   0.0981   0.2892   0.1158   0.0864  -0.1477  -0.0428 -11.00    1.3
2173 199069.000   -487016.1500  -5540251.8710   3111842.7121   2   9   0.0957   0.2819   0.1130   0.0842  -0.1440  -0.0417 -10.00    1.3
2173 199070.000   -487016.1514  -5540251.8945   3111842.7164   2   9   0.0935   0.2752   0.1103   0.0822  -0.1405  -0.0407  -9.00    1.2
2173 199071.000   -487016.1564  -5540251.9111   3111842.7197   2   9   0.0914   0.2688   0.1078   0.0803  -0.1373  -0.0398  -8.00    1.2
2173 199072.000   -487016.1619  -5540251.9514   3111842.7289   2   9   0.0894   0.2628   0.1054   0.0785  -0.1342  -0.0389  -7.00    1.1
2173 199073.000   -487016.1630  -5540251.9728   3111842.7326   2   9   0.0876   0.2572   0.1032   0.0768  -0.1313  -0.0381  -6.00    1.1
2173 199074.000   -487016.1647  -5540251.9876   3111842.7332   2   9   0.0859   0.2519   0.1011   0.0752  -0.1286  -0.0372  -5.00    1.0
2173 199075.000   -487016.1624  -5540251.9911   3111842.7317   2   9   0.0842   0.2468   0.0992   0.0737  -0.1260  -0.0365  -4.00    1.0
2173 199076.000   -487016.1638  -5540252.0263   3111842.7450   2   9   0.0827   0.2421   0.0973   0.0722  -0.1235  -0.0358  -3.00    1.1
2173 199077.000   -487016.1645  -5540252.0254   3111842.7463   2   9   0.0812   0.2375   0.0955   0.0709  -0.1212  -0.0351  -2.00    1.2
2173 199078.000   -487016.1662  -5540252.0305   3111842.7450   2   9   0.0798   0.2332   0.0938   0.0696  -0.1190  -0.0345  -1.00    1.3
2173 199079.000   -487016.1677  -5540252.0295   3111842.7493   2   9   0.0785   0.2291   0.0923   0.0684  -0.1169  -0.0339   0.00    1.4
2173 199080.000   -487016.1526  -5540251.9161   3111842.8069   2   9   0.4317   1.2789   0.5107   0.3816  -0.6527  -0.1883   0.00    1.9
2173 199081.000   -487016.2098  -5540251.7739   3111842.7470   2   9   0.4317   1.2789   0.5108   0.3815  -0.6527  -0.1883   0.00    2.1
2173 199082.000   -487016.2412  -5540252.1100   3111842.8456   2   9   0.4316   1.2789   0.5108   0.3815  -0.6527  -0.1882   0.00    2.1
2173 199083.000   -487016.2552  -5540251.7642   3111842.7244   2   9   0.4316   1.2789   0.5108   0.3814  -0.6527  -0.1882   0.00    1.9
2173 199084.000   -487016.4650  -5540252.0079   3111842.6884   2   9   0.4316   1.2790   0.5108   0.3814  -0.6527  -0.1882   0.00    2.0
2173 199085.000   -487016.4176  -5540251.7747   3111842.6274   2   9   0.4315   1.2790   0.5108   0.3813  -0.6528  -0.1882   0.00    2.0
2173 199086.000   -487016.4621  -5540251.0430   3111842.5341   2   9   0.4315   1.2790   0.5108   0.3813  -0.6528  -0.1882   0.00    1.9
2173 199087.000   -487016.5716  -5540251.3434   3111842.5866   2   9   0.4315   1.2790   0.5108   0.3812  -0.6528  -0.1882   0.00    2.0
2173 199088.000   -487016.5884  -5540251.1714   3111842.5879   2   9   0.4314   1.2790   0.5108   0.3812  -0.6528  -0.1881   0.00    2.0
2173 199089.000   -487016.5566  -5540251.3219   3111842.6855   2   9   0.4314   1.2791   0.5108   0.3811  -0.6528  -0.1881   0.00    2.0
2173 199090.000   -487016.5245  -5540251.3917   3111842.6577   2   9   0.4314   1.2791   0.5108   0.3811  -0.6528  -0.1881   0.00    2.1
2173 199091.000   -487016.6704  -5540251.0888   3111842.5017   2   9   0.4313   1.2791   0.5108   0.3810  -0.6528  -0.1881   0.00    1.9
2173 199092.000   -487016.6876  -5540251.7793   3111842.5781   2   9   0.4313   1.2791   0.5108   0.3810  -0.6529  -0.1881   0.00    2.0
2173 199093.000   -487016.6761  -5540251.6197   3111842.7257   2   9   0.4313   1.2791   0.5109   0.3809  -0.6529  -0.1880   0.00    2.4
2173 199094.000   -487016.7453  -5540251.0523   3111842.3639   2   9   0.4312   1.2792   0.5109   0.3809  -0.6529  -0.1880   0.00    2.2
2173 199095.000   -487016.6626  -5540251.0876   3111842.3782   2   9   0.4312   1.2792   0.5109   0.3808  -0.6529  -0.1880   0.00    2.0
2173 199096.000   -487016.6657  -5540251.4155   3111842.6021   2   9   0.4312   1.2792   0.5109   0.3808  -0.6529  -0.1880   0.00    2.3
2173 199097.000   -487016.7168  -5540251.7038   3111842.5352   2   9   0.4311   1.2792   0.5109   0.3807  -0.6529  -0.1880   0.00    2.5
2173 199098.000   -487016.6166  -5540251.5798   3111842.6320   2   9   0.4311   1.2792   0.5109   0.3807  -0.6529  -0.1880   0.00    2.4
2173 199099.000   -487016.6663  -5540250.9152   3111842.6322   2   9   0.4311   1.2793   0.5109   0.3806  -0.6530  -0.1879   0.00    2.3
2173 199100.000   -487016.6708  -5540250.5038   3111842.4744   2   9   0.4310   1.2793   0.5109   0.3806  -0.6530  -0.1879   0.00    2.3
2173 199101.000   -487016.6351  -5540250.3423   3111842.5360   2   9   0.4310   1.2793   0.5109   0.3805  -0.6530  -0.1879   0.00    2.3
2173 199102.000   -487016.6768  -5540250.6053   3111842.5094   2   9   0.4310   1.2793   0.5109   0.3805  -0.6530  -0.1879   0.00    2.6
2173 199103.000   -487016.6583  -5540250.5176   3111842.5827   2   9   0.4309   1.2793   0.5109   0.3805  -0.6530  -0.1879   0.00    2.6
2173 199104.000   -487016.5768  -5540250.6258   3111842.6925   2   9   0.4309   1.2794   0.5109   0.3804  -0.6530  -0.1878   0.00    2.3
2173 199105.000   -487016.5848  -5540250.1705   3111842.4754   2   9   0.4309   1.2794   0.5110   0.3804  -0.6530  -0.1878   0.00    2.3
2173 199106.000   -487016.7123  -5540249.8605   3111842.3579   2   9   0.4309   1.2794   0.5110   0.3803  -0.6531  -0.1878   0.00    2.2
2173 199107.000   -487016.8799  -5540250.4934   3111842.5958   2   9   0.4308   1.2794   0.5110   0.3803  -0.6531  -0.1878   0.00    2.6
2173 199108.000   -487016.8501  -5540250.2051   3111842.5857   2   9   0.4308   1.2794   0.5110   0.3802  -0.6531  -0.1878   0.00    2.5
2173 199109.000   -487016.7834  -5540250.5518   3111842.6111   2   9   0.4308   1.2794   0.5110   0.3802  -0.6531  -0.1878   0.00    2.4
2173 199110.000   -487016.7504  -5540249.9721   3111842.3910   2   9   0.4307   1.2795   0.5110   0.3801  -0.6531  -0.1877   0.00    2.6
2173 199111.000   -487016.7088  -5540250.2424   3111842.5186   2   9   0.4307   1.2795   0.5110   0.3801  -0.6531  -0.1877   0.00    2.8
2173 199112.000   -487016.7450  -5540250.4237   3111842.7096   2   9   0.4307   1.2795   0.5110   0.3800  -0.6531  -0.1877   0.00    2.3
2173 199113.000   -487016.6110  -5540249.7258   3111842.4656   2   9   0.4306   1.2795   0.5110   0.3800  -0.6532  -0.1877   0.00    2.2
2173 199114.000   -487016.7648  -5540249.7950   3111842.3582   2   9   0.4306   1.2795   0.5110   0.3799  -0.6532  -0.1877   0.00    2.1
2173 199115.000   -487016.7511  -5540250.2818   3111842.3633   2   9   0.4306   1.2795   0.5110   0.3799  -0.6532  -0.1876   0.00    2.5
2173 199116.000   -487016.6453  -5540249.9999   3111842.3394   2   9   0.4305   1.2796   0.5110   0.3798  -0.6532  -0.1876   0.00    2.7
2173 199117.000   -487016.7430  -5540250.0775   3111842.4812   2   9   0.4305   1.2796   0.5111   0.3798  -0.6532  -0.1876   0.00    2.4
2173 199118.000   -487016.7364  -5540250.2377   3111842.2243   2   9   0.4305   1.2796   0.5111   0.3797  -0.6532  -0.1876   0.00    2.5
2173 199119.000   -487016.8581  -5540250.0429   3111842.2476   2   9   0.4304   1.2796   0.5111   0.3797  -0.6532  -0.1876   0.00    2.4
2173 199120.000   -487016.8282  -5540249.5145   3111842.1536   2   9   0.4304   1.2796   0.5111   0.3796  -0.6532  -0.1876   0.00    2.5
2173 199121.000   -487016.7878  -5540250.0249   3111842.2532   2   9   0.4304   1.2796   0.5111   0.3796  -0.6533  -0.1875   0.00    2.6
2173 199122.000   -487016.7537  -5540249.8468   3111842.3720   2   9   0.4303   1.2797   0.5111   0.3795  -0.6533  -0.1875   0.00    2.4
2173 199123.000   -487016.7019  -5540249.4947   3111842.2741   2   9   0.4303   1.2797   0.5111   0.3795  -0.6533  -0.1875   0.00    2.3
2173 199124.000   -487016.7539  -5540249.9375   3111842.3528   2   9   0.4303   1.2797   0.5111   0.3794  -0.6533  -0.1875   0.00    2.5
2173 199125.000   -487016.8243  -5540249.8275   3111842.2090   2   9   0.4302   1.2797   0.5111   0.3794  -0.6533  -0.1875   0.00    2.6
2173 199126.000   -487016.6973  -5540249.4214   3111842.1627   2   9   0.4302   1.2797   0.5111   0.3793  -0.6533  -0.1874   0.00    2.5
2173 199127.000   -487016.9161  -5540250.2326   3111842.5005   2   9   0.4302   1.2797   0.5111   0.3793  -0.6533  -0.1874   0.00    2.9
2173 199128.000   -487016.9719  -5540249.5996   3111842.2893   2   9   0.4302   1.2798   0.5111   0.3792  -0.6533  -0.1874   0.00    2.9
2173 199129.000   -487017.1233  -5540250.0317   3111842.2992   2   9   0.4301   1.2798   0.5112   0.3792  -0.6534  -0.1874   0.00    2.5
2173 199130.000   -487017.3025  -5540252.1267   3111843.0792   1   9   0.0043   0.0129   0.0052   0.0038  -0.0066  -0.0019   0.00    3.1
2173 199131.000   -487017.1142  -5540250.1134   3111842.1512   2   9   0.4301   1.2798   0.5112   0.3791  -0.6534  -0.1873   0.00    2.5
2173 199132.000   -487017.1940  -5540249.9215   3111842.2074   2   9   0.4300   1.2798   0.5112   0.3790  -0.6534  -0.1873   0.00    2.7
2173 199133.000   -487017.3051  -5540252.1260   3111843.0781   1   9   0.0043   0.0129   0.0052   0.0038  -0.0066  -0.0019   0.00    3.1
2173 199134.000   -487017.3031  -5540252.1291   3111843.0798   1   9   0.0043   0.0129   0.0052   0.0038  -0.0066  -0.0019   0.00    3.1
2173 199135.000   -487017.4556  -5540250.9771   3111842.3024   2   9   0.4299   1.2799   0.5112   0.3789  -0.6534  -0.1873   0.00    2.9
2173 199136.000   -487017.6248  -5540251.4470   3111842.3269   2   9   0.4299   1.2799   0.5112   0.3788  -0.6534  -0.1872   0.00    2.4
2173 199137.000   -487017.5518  -5540250.9955   3111842.2770   2   9   0.4299   1.2799   0.5112   0.3788  -0.6535  -0.1872   0.00    2.7
2173 199138.000   -487017.5794  -5540251.0452   3111842.4373   2   9   0.4298   1.2799   0.5112   0.3787  -0.6535  -0.1872   0.00    2.8
2173 199139.000   -487017.6330  -5540251.0901   3111842.2786   2   9   0.4298   1.2799   0.5112   0.3787  -0.6535  -0.1872   0.00    2.5
2173 199140.000   -487017.6446  -5540251.2973   3111842.2396   2   9   0.4298   1.2799   0.5112   0.3786  -0.6535  -0.1872   0.00    2.7
2173 199141.000   -487017.6586  -5540251.4162   3111842.2906   2   9   0.4297   1.2799   0.5113   0.3786  -0.6535  -0.1872   0.00    2.8
2173 199142.000   -487017.8143  -5540251.8179   3111842.3696   2   9   0.4297   1.2799   0.5113   0.3785  -0.6535  -0.1871   0.00    2.2
2173 199143.000   -487017.7698  -5540251.7352   3111842.3750   2   9   0.4297   1.2800   0.5113   0.3785  -0.6535  -0.1871   0.00    2.9
2173 199144.000   -487017.8110  -5540251.9891   3111842.3659   2   9   0.4296   1.2800   0.5113   0.3784  -0.6535  -0.1871   0.00    2.3
2173 199145.000   -487017.8330  -5540252.2659   3111842.5142   2   9   0.4296   1.2800   0.5113   0.3784  -0.6535  -0.1871   0.00    2.6
2173 199146.000   -487017.8004  -5540252.2420   3111842.5010   2   9   0.4296   1.2800   0.5113   0.3783  -0.6536  -0.1871   0.00    2.6
2173 199147.000   -487017.7606  -5540252.0474   3111842.3483   2   9   0.4295   1.2800   0.5113   0.3783  -0.6536  -0.1870   0.00    2.5
2173 199148.000   -487017.8063  -5540252.2152   3111842.3231   2   9   0.4295   1.2800   0.5113   0.3782  -0.6536  -0.1870   0.00    2.3
2173 199149.000   -487017.7577  -5540252.2073   3111842.2918   2   9   0.4295   1.2800   0.5113   0.3782  -0.6536  -0.1870   0.00    2.3
2173 199150.000   -487017.7990  -5540252.3526   3111842.2364   2   9   0.4295   1.2800   0.5113   0.3781  -0.6536  -0.1870   0.00    2.2
2173 199151.000   -487017.7406  -5540252.4316   3111842.2504   2   9   0.4294   1.2801   0.5113   0.3781  -0.6536  -0.1870   0.00    2.6
2173 199152.000   -487017.6820  -5540251.8170   3111842.1778   2   9   0.4294   1.2801   0.5114   0.3780  -0.6536  -0.1869   0.00    2.4
2173 199153.000   -487017.6770  -5540251.6194   3111842.1685   2   9   0.4294   1.2801   0.5114   0.3779  -0.6536  -0.1869   0.00    2.5
2173 199154.000   -487017.6781  -5540251.7667   3111842.1350   2   9   0.4293   1.2801   0.5114   0.3779  -0.6537  -0.1869   0.00    2.5
2173 199155.000   -487017.7376  -5540251.7137   3111842.0860   2   9   0.4293   1.2801   0.5114   0.3778  -0.6537  -0.1869   0.00    2.5
2173 199156.000   -487017.7346  -5540252.1050   3111842.2659   2   9   0.4293   1.2801   0.5114   0.3778  -0.6537  -0.1869   0.00    2.5
2173 199157.000   -487017.7520  -5540251.5522   3111841.9297   2   8   0.4318   1.2996   0.5502   0.3913  -0.6876  -0.2107   0.00    2.2
2173 199158.000   -487017.6530  -5540251.8186   3111842.0408   2   8   0.4317   1.2996   0.5502   0.3913  -0.6877  -0.2106   0.00    2.4
2173 199159.000   -487017.5250  -5540251.2213   3111841.8788   2   8   0.4317   1.2997   0.5502   0.3912  -0.6877  -0.2106   0.00    2.1
2173 199160.000   -487017.5430  -5540251.0685   3111841.7816   2   8   0.4317   1.2997   0.5502   0.3912  -0.6877  -0.2106   0.00    2.2
2173 199161.000   -487017.3916  -5540250.6660   3111841.5713   2   8   0.4316   1.2997   0.5502   0.3911  -0.6877  -0.2106   0.00    1.9
2173 199162.000   -487017.5802  -5540251.6706   3111841.9463   2   8   0.4316   1.2997   0.5502   0.3911  -0.6877  -0.2105   0.00    2.2
2173 199163.000   -487017.4690  -5540251.6557   3111842.0847   2   8   0.4316   1.2998   0.5502   0.3910  -0.6877  -0.2105   0.00    2.2
2173 199164.000   -487017.2633  -5540251.2603   3111841.9427   2   8   0.4315   1.2998   0.5502   0.3910  -0.6878  -0.2105   0.00    2.0
2173 199165.000   -487017.1734  -5540250.9004   3111841.8870   2   8   0.4315   1.2998   0.5502   0.3909  -0.6878  -0.2104   0.00    1.9
2173 199166.000   -487017.1209  -5540250.7702   3111841.8880   2   8   0.4315   1.2998   0.5502   0.3909  -0.6878  -0.2104   0.00    1.8
2173 199167.000   -487017.2402  -5540251.0565   3111842.0502   2   8   0.4314   1.2998   0.5502   0.3908  -0.6878  -0.2104   0.00    1.8
2173 199168.000   -487017.1191  -5540250.3963   3111841.8811   2   8   0.4314   1.2999   0.5502   0.3908  -0.6878  -0.2104   0.00    1.6
2173 199169.000   -487017.0041  -5540249.5957   3111841.6675   2   8   0.4314   1.2999   0.5502   0.3907  -0.6878  -0.2103   0.00    1.5
2173 199170.000   -487016.9140  -5540249.7696   3111841.8226   2   8   0.4313   1.2999   0.5502   0.3907  -0.6878  -0.2103   0.00    1.4
2173 199171.000   -487016.8061  -5540249.4372   3111841.9095   2   8   0.4313   1.2999   0.5502   0.3907  -0.6879  -0.2103   0.00    1.3
2173 199172.000   -487016.7712  -5540249.0893   3111841.8467   2   8   0.4313   1.2999   0.5502   0.3906  -0.6879  -0.2103   0.00    1.2
2173 199173.000   -487016.8097  -5540249.1812   3111841.8922   2   8   0.4312   1.3000   0.5502   0.3906  -0.6879  -0.2102   0.00    1.1
2173 199174.000   -487016.5708  -5540249.5969   3111842.0885   2   8   0.4312   1.3000   0.5502   0.3905  -0.6879  -0.2102   0.00    1.4
2173 199175.000   -487016.4300  -5540248.7742   3111841.8347   2   8   0.4312   1.3000   0.5502   0.3905  -0.6879  -0.2102   0.00    1.0
2173 199176.000   -487016.4687  -5540248.4113   3111841.9270   2   8   0.4311   1.3000   0.5502   0.3904  -0.6879  -0.2102   0.00    1.0
2173 199177.000   -487016.4220  -5540248.3134   3111841.9884   2   8   0.4311   1.3000   0.5502   0.3904  -0.6879  -0.2101   0.00    1.1
2173 199178.000   -487016.5109  -5540248.5394   3111842.0294   2   8   0.4311   1.3001   0.5502   0.3903  -0.6880  -0.2101   0.00    1.1
2173 199179.000   -487016.4594  -5540248.3432   3111842.0680   2   8   0.4310   1.3001   0.5502   0.3903  -0.6880  -0.2101   0.00    1.1
2173 199180.000   -487016.3378  -5540247.9080   3111842.0816   2   8   0.4310   1.3001   0.5502   0.3902  -0.6880  -0.2100   0.00    1.3
2173 199181.000   -487016.1159  -5540248.3653   3111842.3451   2   8   0.4310   1.3001   0.5502   0.3902  -0.6880  -0.2100   0.00    1.3
2173 199182.000   -487016.0503  -5540247.6324   3111841.9792   2   8   0.4309   1.3001   0.5502   0.3901  -0.6880  -0.2100   0.00    1.5
2173 199183.000   -487016.0466  -5540247.7002   3111841.9530   2   8   0.4309   1.3002   0.5502   0.3901  -0.6880  -0.2100   0.00    1.5
2173 199184.000   -487016.1152  -5540247.5407   3111841.9803   2   8   0.4309   1.3002   0.5502   0.3900  -0.6880  -0.2099   0.00    1.4
2173 199185.000   -487016.2073  -5540247.8973   3111842.1649   2   8   0.4308   1.3002   0.5502   0.3900  -0.6881  -0.2099   0.00    1.3
2173 199186.000   -487016.1077  -5540247.6836   3111842.0929   2   8   0.4308   1.3002   0.5502   0.3899  -0.6881  -0.2099   0.00    1.5
2173 199187.000   -487016.0141  -5540247.7242   3111842.0239   2   8   0.4308   1.3002   0.5501   0.3899  -0.6881  -0.2099   0.00    1.5
2173 199188.000   -487016.0272  -5540247.9176   3111842.0886   2   8   0.4307   1.3002   0.5501   0.3898  -0.6881  -0.2098   0.00    1.5
2173 199189.000   -487015.9760  -5540247.6533   3111841.8961   2   8   0.4307   1.3003   0.5501   0.3898  -0.6881  -0.2098   0.00    1.5
2173 199190.000   -487015.9638  -5540247.8416   3111842.1158   2   8   0.4307   1.3003   0.5501   0.3897  -0.6881  -0.2098   0.00    1.6
2173 199191.000   -487016.0225  -5540247.4572   3111842.0739   2   8   0.4307   1.3003   0.5501   0.3897  -0.6881  -0.2097   0.00    1.8
2173 199192.000   -487016.0798  -5540247.4406   3111842.0551   2   8   0.4306   1.3003   0.5501   0.3896  -0.6882  -0.2097   0.00    1.3
2173 199193.000   -487016.0511  -5540247.4616   3111842.0247   2   8   0.4306   1.3003   0.5501   0.3896  -0.6882  -0.2097   0.00    1.4
2173 199194.000   -487016.0697  -5540247.8285   3111842.1705   2   8   0.4306   1.3003   0.5501   0.3895  -0.6882  -0.2097   0.00    1.5
2173 199195.000   -487016.2050  -5540248.3120   3111842.0998   2   8   0.4305   1.3004   0.5501   0.3894  -0.6882  -0.2096   0.00    1.4
2173 199196.000   -487016.3120  -5540248.5000   3111842.1293   2   8   0.4305   1.3004   0.5501   0.3894  -0.6882  -0.2096   0.00    1.1
2173 199197.000   -487016.2235  -5540248.5158   3111842.0467   2   8   0.4305   1.3004   0.5501   0.3893  -0.6882  -0.2096   0.00    1.5
2173 199198.000   -487016.1145  -5540248.6373   3111841.9888   2   8   0.4304   1.3004   0.5501   0.3893  -0.6882  -0.2095   0.00    1.2
2173 199199.000   -487016.1718  -5540247.8486   3111841.8915   2   8   0.4304   1.3004   0.5501   0.3892  -0.6882  -0.2095   0.00    1.6
2173 199200.000   -487016.2868  -5540248.5479   3111841.9633   2   8   0.4304   1.3004   0.5501   0.3892  -0.6883  -0.2095   0.00    1.2
2173 199201.000   -487016.3022  -5540248.2031   3111841.9072   2   8   0.4303   1.3005   0.5501   0.3891  -0.6883  -0.2095   0.00    1.7
2173 199202.000   -487016.4123  -5540249.0207   3111842.1541   2   8   0.4303   1.3005   0.5501   0.3891  -0.6883  -0.2094   0.00    1.1
2173 199203.000   -487016.6479  -5540249.0445   3111842.2004   2   8   0.4303   1.3005   0.5501   0.3890  -0.6883  -0.2094   0.00    1.1
2173 199204.000   -487016.5823  -5540248.5119   3111841.9914   2   8   0.4302   1.3005   0.5501   0.3890  -0.6883  -0.2094   0.00    1.1
2173 199205.000   -487016.4262  -5540248.9465   3111842.0215   2   8   0.4302   1.3005   0.5501   0.3889  -0.6883  -0.2094   0.00    1.2
2173 199206.000   -487016.4233  -5540248.7929   3111842.0215   2   8   0.4302   1.3005   0.5501   0.3889  -0.6883  -0.2093   0.00    1.2
2173 199207.000   -487016.6355  -5540248.8488   3111842.0250   2   8   0.4301   1.3005   0.5501   0.3888  -0.6883  -0.2093   0.00    1.0
2173 199208.000   -487016.6269  -5540248.7673   3111841.8868   2   8   0.4301   1.3006   0.5501   0.3888  -0.6884  -0.2093   0.00    1.0
2173 199209.000   -487016.6822  -5540248.9920   3111842.0465   2   8   0.4301   1.3006   0.5501   0.3887  -0.6884  -0.2092   0.00    1.0
2173 199210.000   -487016.7866  -5540249.1025   3111842.0479   2   8   0.4300   1.3006   0.5501   0.3887  -0.6884  -0.2092   0.00    1.1
2173 199211.000   -487016.7588  -5540249.3173   3111842.0011   2   8   0.4300   1.3006   0.5501   0.3886  -0.6884  -0.2092   0.00    1.2
2173 199212.000   -487016.9530  -5540249.8768   3111842.2569   2   8   0.4300   1.3006   0.5501   0.3886  -0.6884  -0.2092   0.00    1.9
2173 199213.000   -487016.8713  -5540249.5674   3111842.1433   2   8   0.4299   1.3006   0.5501   0.3885  -0.6884  -0.2091   0.00    1.4
2173 199214.000   -487016.9192  -5540249.7445   3111842.3097   2   8   0.4299   1.3006   0.5501   0.3885  -0.6884  -0.2091   0.00    1.2
2173 199215.000   -487016.8683  -5540248.9604   3111841.9097   2   8   0.4299   1.3006   0.5501   0.3884  -0.6884  -0.2091   0.00    1.4
2173 199216.000   -487016.8056  -5540248.5847   3111841.7555   2   8   0.4298   1.3007   0.5501   0.3884  -0.6884  -0.2090   0.00    1.1
2173 199217.000   -487016.9256  -5540248.9491   3111841.8409   2   8   0.4298   1.3007   0.5501   0.3883  -0.6885  -0.2090   0.00    1.3
2173 199218.000   -487017.0391  -5540248.9415   3111842.0010   2   8   0.4298   1.3007   0.5500   0.3883  -0.6885  -0.2090   0.00    1.0
2173 199219.000   -487016.9838  -5540249.2622   3111842.2611   2   8   0.4297   1.3007   0.5500   0.3882  -0.6885  -0.2090   0.00    1.3
2173 199220.000   -487017.0291  -5540249.0333   3111842.1302   2   8   0.4297   1.3007   0.5500   0.3882  -0.6885  -0.2089   0.00    1.5
2173 199221.000   -487017.1146  -5540249.2608   3111842.1791   2   8   0.4297   1.3007   0.5500   0.3881  -0.6885  -0.2089   0.00    1.4
2173 199222.000   -487017.2240  -5540249.6120   3111842.2750   2   8   0.4297   1.3007   0.5500   0.3881  -0.6885  -0.2089   0.00    1.8
2173 199223.000   -487017.2652  -5540249.6721   3111842.1149   2   8   0.4296   1.3007   0.5500   0.3880  -0.6885  -0.2088   0.00    2.2
2173 199224.000   -487017.2678  -5540250.0243   3111842.2524   2   8   0.4296   1.3008   0.5500   0.3880  -0.6885  -0.2088   0.00    1.6
2173 199225.000   -487017.3065  -5540249.7235   3111842.1750   2   8   0.4296   1.3008   0.5500   0.3879  -0.6885  -0.2088   0.00    1.5
2173 199226.000   -487017.2534  -5540249.9603   3111842.2181   2   8   0.4295   1.3008   0.5500   0.3878  -0.6886  -0.2088   0.00    1.8
2173 199227.000   -487017.3418  -5540250.1731   3111842.3311   2   8   0.4295   1.3008   0.5500   0.3878  -0.6886  -0.2087   0.00    2.2
2173 199228.000   -487017.3004  -5540249.8780   3111842.2488   2   8   0.4295   1.3008   0.5500   0.3877  -0.6886  -0.2087   0.00    2.0
2173 199229.000   -487017.3999  -5540250.2399   3111842.3412   2   8   0.4294   1.3008   0.5500   0.3877  -0.6886  -0.2087   0.00    1.9
2173 199230.000   -487017.3178  -5540250.0451   3111842.2265   2   8   0.4294   1.3008   0.5500   0.3876  -0.6886  -0.2086   0.00    2.4
2173 199231.000   -487017.3951  -5540250.6006   3111842.5727   2   8   0.4294   1.3008   0.5500   0.3876  -0.6886  -0.2086   0.00    2.7
2173 199232.000   -487017.4739  -5540250.5000   3111842.3546   2   8   0.4293   1.3008   0.5500   0.3875  -0.6886  -0.2086   0.00    2.8
2173 199233.000   -487017.3290  -5540250.4253   3111842.2525   2   8   0.4293   1.3008   0.5500   0.3875  -0.6886  -0.2086   0.00    2.5
2173 199234.000   -487017.1767  -5540250.1505   3111842.3220   2   8   0.4293   1.3009   0.5500   0.3874  -0.6886  -0.2085   0.00    2.5
2173 199235.000   -487017.1155  -5540249.9939   3111842.1580   2   8   0.4292   1.3009   0.5500   0.3874  -0.6886  -0.2085   0.00    2.9
2173 199236.000   -487017.3048  -5540252.1331   3111843.0736   1   8   0.0043   0.0131   0.0055   0.0039  -0.0069  -0.0021   0.00    3.4
2173 199237.000   -487017.3077  -5540252.1365   3111843.0739   1   8   0.0043   0.0131   0.0055   0.0039  -0.0069  -0.0021   0.00    3.1
2173 199238.000   -487017.2139  -5540250.4220   3111842.2261   2   8   0.4291   1.3009   0.5500   0.3872  -0.6887  -0.2084   0.00    2.2
2173 199239.000   -487017.2757  -5540250.6026   3111842.3619   2   8   0.4291   1.3009   0.5500   0.3872  -0.6887  -0.2084   0.00    2.9
2173 199240.000   -487017.3161  -5540250.2451   3111842.2127   2   8   0.4291   1.3009   0.5500   0.3871  -0.6887  -0.2084   0.00    2.5
2173 199241.000   -487017.4825  -5540250.5732   3111842.2968   2   8   0.4290   1.3009   0.5500   0.3871  -0.6887  -0.2083   0.00    2.9
2173 199242.000   -487017.3797  -5540250.1638   3111842.1419   2   8   0.4290   1.3009   0.5500   0.3870  -0.6887  -0.2083   0.00    2.5
2173 199243.000   -487017.3138  -5540250.6575   3111842.3615   2   8   0.4290   1.3009   0.5500   0.3869  -0.6887  -0.2083   0.00    2.4
2173 199244.000   -487017.3218  -5540249.9982   3111842.1476   2   8   0.4289   1.3009   0.5500   0.3869  -0.6887  -0.2082   0.00    2.7
2173 199245.000   -487017.4111  -5540250.0610   3111841.9854   2   8   0.4289   1.3009   0.5500   0.3868  -0.6887  -0.2082   0.00    2.3
2173 199246.000   -487017.4587  -5540250.0193   3111841.9528   2   8   0.4289   1.3009   0.5500   0.3868  -0.6887  -0.2082   0.00    2.8
2173 199247.000   -487017.6490  -5540250.4586   3111842.3163   2   8   0.4288   1.3010   0.5500   0.3867  -0.6887  -0.2082   0.00    2.8
2173 199248.000   -487017.5151  -5540250.5810   3111842.4134   2   8   0.4288   1.3010   0.5499   0.3867  -0.6888  -0.2081   0.00    2.6
2173 199249.000   -487017.4700  -5540250.6690   3111842.3266   2   8   0.4288   1.3010   0.5499   0.3866  -0.6888  -0.2081   0.00    2.5
2173 199250.000   -487017.4755  -5540250.2453   3111842.1930   2   8   0.4288   1.3010   0.5499   0.3866  -0.6888  -0.2081   0.00    2.0
2173 199251.000   -487017.6752  -5540250.6301   3111842.3104   2   8   0.4287   1.3010   0.5499   0.3865  -0.6888  -0.2080   0.00    2.5
2173 199252.000   -487017.6723  -5540250.7632   3111842.4663   2   8   0.4287   1.3010   0.5499   0.3865  -0.6888  -0.2080   0.00    2.7
2173 199253.000   -487017.5237  -5540250.4847   3111842.5152   2   8   0.4287   1.3010   0.5499   0.3864  -0.6888  -0.2080   0.00    2.3
2173 199254.000   -487017.3029  -5540252.1372   3111843.0731   1   8   0.0043   0.0131   0.0055   0.0039  -0.0069  -0.0021   0.00    3.5
2173 199255.000   -487017.3034  -5540252.1274   3111843.0716   1   8   0.0043   0.0131   0.0055   0.0039  -0.0069  -0.0021   0.00    3.3
2173 199256.000   -487017.3018  -5540252.1241   3111843.0712   1   8   0.0043   0.0131   0.0055   0.0039  -0.0069  -0.0021   0.00    3.2
2173 199257.000   -487017.3037  -5540252.1289   3111843.0731   1   8   0.0043   0.0131   0.0055   0.0039  -0.0069  -0.0021   0.00    3.7
2173 199258.000   -487017.3039  -5540252.1259   3111843.0732   1   8   0.0043   0.0131   0.0055   0.0039  -0.0069  -0.0021   0.00    3.4
2173 199259.000   -487017.5676  -5540250.6730   3111842.6742   2   8   0.4285   1.3010   0.5499   0.3861  -0.6888  -0.2078   0.00    2.9
2173 199260.000   -487017.3054  -5540252.1282   3111843.0725   1   8   0.0043   0.0131   0.0055   0.0039  -0.0069  -0.0021   0.00    3.5
2173 199261.000   -487017.3037  -5540252.1306   3111843.0749   1   8   0.0043   0.0131   0.0055   0.0039  -0.0069  -0.0021   0.00    3.4
2173 199262.000   -487017.6089  -5540251.2518   3111842.7417   2   8   0.4284   1.3010   0.5499   0.3859  -0.6889  -0.2077   0.00    2.7
2173 199263.000   -487017.3049  -5540252.1292   3111843.0711   1   8   0.0043   0.0131   0.0055   0.0039  -0.0069  -0.0021   0.00    3.3
2173 199264.000   -487017.3052  -5540252.1317   3111843.0720   1   8   0.0043   0.0131   0.0055   0.0039  -0.0069  -0.0021   0.00    3.9
2173 199265.000   -487017.3042  -5540252.1255   3111843.0710   1   8   0.0043   0.0131   0.0055   0.0039  -0.0069  -0.0021   0.00    3.3
2173 199266.000   -487017.6098  -5540250.1123   3111842.5847   2   8   0.4282   1.3011   0.5499   0.3857  -0.6889  -0.2076   0.00    2.9
2173 199267.000   -487017.7690  -5540250.1435   3111842.5299   2   8   0.4282   1.3011   0.5499   0.3857  -0.6889  -0.2076   0.00    2.7
2173 199268.000   -487017.3022  -5540252.1216   3111843.0690   1   8   0.0043   0.0131   0.0055   0.0039  -0.0069  -0.0021   0.00    3.4
2173 199269.000   -487017.3020  -5540252.1250   3111843.0757   1   8   0.0043   0.0131   0.0055   0.0039  -0.0069  -0.0021   0.00    3.5
2173 199270.000   -487017.8037  -5540251.1800   3111842.8338   2   8   0.4281   1.3011   0.5499   0.3855  -0.6889  -0.2075   0.00    2.7
2173 199271.000   -487017.3028  -5540252.1297   3111843.0722   1   8   0.0043   0.0131   0.0055   0.0039  -0.0069  -0.0021   0.00    3.6
2173 199272.000   -487017.3016  -5540252.1301   3111843.0726   1   8   0.0043   0.0131   0.0055   0.0039  -0.0069  -0.0021   0.00    3.7
2173 199273.000   -487017.3028  -5540252.1250   3111843.0712   1   8   0.0043   0.0131   0.0055   0.0039  -0.0069  -0.0021   0.00    3.4
2173 199274.000   -487017.6782  -5540250.6886   3111842.8734   2   8   0.4280   1.3011   0.5499   0.3853  -0.6889  -0.2074   0.00    2.9
2173 199275.000   -487017.7354  -5540250.5893   3111842.6811   2   8   0.4280   1.3011   0.5499   0.3852  -0.6890  -0.2073   0.00    2.3
2173 199276.000   -487017.6957  -5540250.1183   3111842.5940   2   8   0.4279   1.3011   0.5499   0.3852  -0.6890  -0.2073   0.00    2.3
2173 199277.000   -487017.6620  -5540249.8733   3111842.6044   2   8   0.4279   1.3011   0.5498   0.3851  -0.6890  -0.2073   0.00    2.4
2173 199278.000   -487017.6476  -5540249.9563   3111842.5200   2   8   0.4279   1.3011   0.5498   0.3850  -0.6890  -0.2072   0.00    2.9
2173 199279.000   -487017.8071  -5540250.4807   3111842.8516   2   8   0.4278   1.3011   0.5498   0.3850  -0.6890  -0.2072   0.00    2.9
2173 199280.000   -487017.9098  -5540250.4384   3111842.5937   2   8   0.4278   1.3011   0.5498   0.3849  -0.6890  -0.2072   0.00    2.7
2173 199281.000   -487017.8308  -5540250.6185   3111842.9026   2   8   0.4278   1.3011   0.5498   0.3849  -0.6890  -0.2071   0.00    2.4
2173 199282.000   -487017.7959  -5540250.2791   3111842.8277   2   8   0.4277   1.3011   0.5498   0.3848  -0.6890  -0.2071   0.00    2.7
2173 199283.000   -487017.7463  -5540250.1384   3111842.7524   2   8   0.4277   1.3011   0.5498   0.3848  -0.6890  -0.2071   0.00    2.9
2173 199284.000   -487017.8522  -5540250.5883   3111842.7254   2   8   0.4277   1.3011   0.5498   0.3847  -0.6890  -0.2071   0.00    2.1
2173 199285.000   -487017.8276  -5540250.1036   3111842.6273   2   8   0.4276   1.3011   0.5498   0.3847  -0.6890  -0.2070   0.00    3.0
2173 199286.000   -487017.9007  -5540250.2920   3111842.7329   2   8   0.4276   1.3011   0.5498   0.3846  -0.6890  -0.2070   0.00    2.7
2173 199287.000   -487017.3035  -5540252.1260   3111843.0637   1   7   0.0044   0.0132   0.0058   0.0038  -0.0071  -0.0018   0.00    3.1
2173 199288.000   -487017.3034  -5540252.1224   3111843.0659   1   7   0.0044   0.0132   0.0058   0.0038  -0.0071  -0.0018   0.00    4.1
2173 199289.000   -487017.3036  -5540252.1216   3111843.0628   1   7   0.0044   0.0132   0.0058   0.0038  -0.0071  -0.0018   0.00    4.0
2173 199290.000   -487017.3050  -5540252.1279   3111843.0641   1   7   0.0044   0.0132   0.0058   0.0038  -0.0071  -0.0018   0.00    3.2
2173 199291.000   -487018.0089  -5540249.3882   3111842.2481   2   7   0.4312   1.3080   0.5746   0.3741  -0.7051  -0.1823   0.00    2.6
2173 199292.000   -487017.3041  -5540252.1252   3111843.0649   1   7   0.0044   0.0132   0.0058   0.0038  -0.0071  -0.0018   0.00    3.3
2173 199293.000   -487017.3032  -5540252.1160   3111843.0651   1   7   0.0044   0.0132   0.0058   0.0038  -0.0071  -0.0018   0.00    3.7
2173 199294.000   -487017.3022  -5540252.1115   3111843.0627   1   7   0.0044   0.0132   0.0058   0.0038  -0.0071  -0.0018   0.00    3.4
2173 199295.000   -487018.1305  -5540249.4539   3111841.8615   2   7   0.4310   1.3079   0.5743   0.3740  -0.7050  -0.1825   0.00    3.0
2173 199296.000   -487018.2341  -5540249.6278   3111841.9945   2   7   0.4310   1.3079   0.5743   0.3739  -0.7050  -0.1825   0.00    2.9
2173 199297.000   -487018.2863  -5540249.8036   3111842.2015   2   7   0.4309   1.3079   0.5742   0.3739  -0.7049  -0.1825   0.00    2.9
2173 199298.000   -487017.3022  -5540252.1141   3111843.0660   1   7   0.0044   0.0132   0.0058   0.0038  -0.0071  -0.0018   0.00    3.2
2173 199299.000   -487017.3018  -5540252.1108   3111843.0630   1   7   0.0044   0.0132   0.0058   0.0038  -0.0071  -0.0018   0.00    3.3
2173 199300.000   -487017.3043  -5540252.1123   3111843.0644   1   7   0.0044   0.0132   0.0058   0.0038  -0.0071  -0.0018   0.00    3.2
2173 199301.000   -487017.3035  -5540252.1146   3111843.0649   1   7   0.0044   0.0132   0.0058   0.0038  -0.0071  -0.0018   0.00    3.2
2173 199302.000   -487017.3053  -5540252.1191   3111843.0656   1   7   0.0044   0.0132   0.0058   0.0038  -0.0071  -0.0018   0.00    3.2
2173 199303.000   -487017.3031  -5540252.1114   3111843.0637   1   7   0.0044   0.0132   0.0058   0.0038  -0.0071  -0.0018   0.00    3.5
2173 199304.000   -487017.9384  -5540248.9736   3111842.2323   2   7   0.4307   1.3078   0.5741   0.3736  -0.7048  -0.1824   0.00    2.9
2173 199305.000   -487017.3037  -5540252.1108   3111843.0620   1   7   0.0044   0.0132   0.0058   0.0038  -0.0071  -0.0018   0.00    3.1
2173 199306.000   -487017.3026  -5540252.1108   3111843.0645   1   7   0.0044   0.0132   0.0058   0.0038  -0.0071  -0.0018   0.00    3.0
2173 199307.000   -487017.9618  -5540249.5619   3111842.1847   2   7   0.4306   1.3077   0.5740   0.3734  -0.7048  -0.1823   0.00    2.9
2173 199308.000   -487017.3039  -5540252.1207   3111843.0660   1   7   0.0044   0.0132   0.0058   0.0038  -0.0071  -0.0018   0.00    3.2
2173 199309.000   -487017.3021  -5540252.1108   3111843.0629   1   7   0.0044   0.0132   0.0058   0.0038  -0.0071  -0.0018   0.00    3.3
2173 199310.000   -487017.3041  -5540252.1156   3111843.0650   1   7   0.0044   0.0132   0.0058   0.0037  -0.0071  -0.0018   0.00    3.3
2173 199311.000   -487017.3031  -5540252.1155   3111843.0660   1   7   0.0044   0.0132   0.0058   0.0037  -0.0071  -0.0018   0.00    3.2
2173 199312.000   -487017.7787  -5540249.4515   3111842.0970   2   7   0.4305   1.3076   0.5740   0.3731  -0.7047  -0.1821   0.00    2.7
2173 199313.000   -487017.7273  -5540249.2720   3111842.1111   2   7   0.4304   1.3076   0.5740   0.3731  -0.7047  -0.1820   0.00    2.6
2173 199314.000   -487017.3026  -5540252.1101   3111843.0611   1   7   0.0044   0.0132   0.0058   0.0037  -0.0071  -0.0018   0.00    3.5
2173 199315.000   -487017.3024  -5540252.1151   3111843.0641   1   7   0.0044   0.0132   0.0058   0.0037  -0.0071  -0.0018   0.00    3.6
2173 199316.000   -487017.3048  -5540252.1093   3111843.0631   1   7   0.0044   0.0132   0.0058   0.0037  -0.0071  -0.0018   0.00    3.5
2173 199317.000   -487017.3036  -5540252.1150   3111843.0654   1   7   0.0044   0.0132   0.0058   0.0037  -0.0071  -0.0018   0.00    3.4
2173 199318.000   -487017.3039  -5540252.1131   3111843.0650   1   7   0.0044   0.0132   0.0058   0.0037  -0.0071  -0.0018   0.00    3.8
2173 199319.000   -487017.3036  -5540252.1126   3111843.0630   1   7   0.0044   0.0132   0.0058   0.0037  -0.0071  -0.0018   0.00    3.1
2173 199320.000   -487017.3031  -5540252.1123   3111843.0642   1   7   0.0044   0.0132   0.0058   0.0037  -0.0071  -0.0018   0.00    3.1
2173 199321.000   -487017.3034  -5540252.1083   3111843.0628   1   7   0.0044   0.0132   0.0058   0.0037  -0.0071  -0.0018   0.00    3.2
2173 199322.000   -487017.3048  -5540252.1144   3111843.0653   1   7   0.0044   0.0132   0.0058   0.0037  -0.0071  -0.0018   0.00    3.1
2173 199323.000   -487017.3021  -5540250.2714   3111842.3661   2   7   0.4302   1.3075   0.5739   0.3725  -0.7046  -0.1816   0.00    2.9
2173 199324.000   -487017.3022  -5540252.1088   3111843.0617   1   7   0.0044   0.0132   0.0058   0.0037  -0.0071  -0.0018   0.00    3.4
2173 199325.000   -487017.3041  -5540252.1116   3111843.0635   1   7   0.0044   0.0132   0.0058   0.0037  -0.0071  -0.0018   0.00    3.0
2173 199326.000   -487017.3031  -5540252.1094   3111843.0635   1   7   0.0044   0.0132   0.0058   0.0037  -0.0071  -0.0018   0.00    3.5
2173 199327.000   -487017.3059  -5540252.1150   3111843.0643   1   7   0.0044   0.0132   0.0058   0.0037  -0.0071  -0.0018   0.00    3.1
2173 199328.000   -487017.3055  -5540252.1118   3111843.0633   1   7   0.0044   0.0132   0.0058   0.0037  -0.0071  -0.0018   0.00    3.0
2173 199329.000   -487017.1786  -5540249.7873   3111842.3764   2   7   0.4300   1.3074   0.5738   0.3721  -0.7046  -0.1813   0.00    2.5
2173 199330.000   -487017.1942  -5540249.8937   3111842.3440   2   7   0.4300   1.3074   0.5738   0.3721  -0.7046  -0.1813   0.00    2.8
2173 199331.000   -487017.0589  -5540250.3756   3111842.4809   2   7   0.4299   1.3073   0.5738   0.3720  -0.7046  -0.1812   0.00    2.9
2173 199332.000   -487017.3028  -5540252.1059   3111843.0643   1   7   0.0044   0.0132   0.0058   0.0037  -0.0071  -0.0018   0.00    4.0
2173 199333.000   -487017.3042  -5540252.1061   3111843.0636   1   7   0.0044   0.0132   0.0058   0.0037  -0.0071  -0.0018   0.00    3.3
2173 199334.000   -487017.1093  -5540250.4383   3111842.3883   2   7   0.4299   1.3073   0.5738   0.3719  -0.7045  -0.1811   0.00    2.7
2173 199335.000   -487017.3059  -5540252.1178   3111843.0643   1   7   0.0044   0.0132   0.0058   0.0037  -0.0071  -0.0018   0.00    3.1
2173 199336.000   -487017.3059  -5540252.1079   3111843.0639   1   7   0.0044   0.0132   0.0058   0.0037  -0.0071  -0.0018   0.00    3.2
2173 199337.000   -487017.3045  -5540252.1063   3111843.0625   1   7   0.0044   0.0132   0.0058   0.0037  -0.0071  -0.0018   0.00    3.3
2173 199338.000   -487017.0089  -5540250.4548   3111842.3667   2   7   0.4297   1.3072   0.5738   0.3716  -0.7045  -0.1809   0.00    2.9
2173 199339.000   -487017.0277  -5540250.7205   3111842.5738   2   7   0.4297   1.3072   0.5738   0.3716  -0.7045  -0.1808   0.00    2.5
2173 199340.000   -487017.0063  -5540250.5347   3111842.5209   2   7   0.4297   1.3072   0.5738   0.3715  -0.7045  -0.1808   0.00    3.0
2173 199341.000   -487016.9285  -5540250.2219   3111842.4557   2   7   0.4297   1.3072   0.5737   0.3714  -0.7044  -0.1807   0.00    2.9
2173 199342.000   -487017.3044  -5540252.1088   3111843.0647   1   7   0.0044   0.0132   0.0058   0.0037  -0.0071  -0.0018   0.00    3.3
2173 199343.000   -487017.3035  -5540252.1054   3111843.0630   1   7   0.0044   0.0132   0.0058   0.0037  -0.0071  -0.0018   0.00    3.7
2173 199344.000   -487017.3031  -5540252.1061   3111843.0643   1   7   0.0044   0.0132   0.0058   0.0037  -0.0071  -0.0018   0.00    3.7
2173 199345.000   -487016.8722  -5540250.7382   3111843.0899   2   8   0.4258   1.3008   0.5496   0.3812  -0.6892  -0.2052   0.00    2.9
2173 199346.000   -487017.3036  -5540252.1141   3111843.0680   1   8   0.0043   0.0131   0.0055   0.0038  -0.0069  -0.0021   0.00    3.3
2173 199347.000   -487017.3035  -5540252.1012   3111843.0645   1   8   0.0043   0.0131   0.0055   0.0038  -0.0069  -0.0021   0.00    3.2
2173 199348.000   -487016.9910  -5540250.8494   3111843.0833   2   8   0.4291   1.3069   0.5727   0.3715  -0.7039  -0.1820   0.00    2.9
2173 199349.000   -487017.3018  -5540252.1023   3111843.0660   1   8   0.0043   0.0131   0.0055   0.0038  -0.0069  -0.0021   0.00    3.8
2173 199350.000   -487017.3005  -5540252.1037   3111843.0658   1   8   0.0043   0.0131   0.0055   0.0038  -0.0069  -0.0021   0.00    3.9
2173 199351.000   -487017.3021  -5540252.1076   3111843.0691   1   8   0.0043   0.0131   0.0055   0.0038  -0.0069  -0.0021   0.00    3.3
2173 199352.000   -487017.3025  -5540252.1080   3111843.0697   1   8   0.0043   0.0131   0.0055   0.0038  -0.0069  -0.0021   0.00    3.4
2173 199353.000   -487017.3024  -5540252.1082   3111843.0670   1   8   0.0043   0.0131   0.0055   0.0038  -0.0069  -0.0021   0.00    3.7
2173 199354.000   -487017.3024  -5540252.1103   3111843.0707   1   8   0.0043   0.0131   0.0055   0.0038  -0.0069  -0.0021   0.00    3.4
2173 199355.000   -487017.3020  -5540252.1131   3111843.0709   1   8   0.0043   0.0131   0.0055   0.0038  -0.0069  -0.0021   0.00    3.7
2173 199356.000   -487017.3016  -5540252.1102   3111843.0713   1   8   0.0043   0.0131   0.0055   0.0038  -0.0069  -0.0021   0.00    4.4
2173 199357.000   -487017.3034  -5540252.1080   3111843.0700   1   8   0.0043   0.0131   0.0055   0.0038  -0.0069  -0.0021   0.00    3.8
2173 199358.000   -487017.3034  -5540252.1114   3111843.0716   1   8   0.0043   0.0131   0.0055   0.0038  -0.0069  -0.0021   0.00    4.1
2173 199359.000   -487017.3028  -5540252.1105   3111843.0700   1   8   0.0043   0.0131   0.0055   0.0038  -0.0069  -0.0021   0.00    4.1
2173 199360.000   -487017.3022  -5540252.1160   3111843.0721   1   8   0.0043   0.0131   0.0055   0.0038  -0.0069  -0.0021   0.00    3.4
2173 199361.000   -487017.3030  -5540252.1105   3111843.0709   1   8   0.0043   0.0131   0.0055   0.0038  -0.0069  -0.0021   0.00    4.2
2173 199362.000   -487017.3015  -5540252.1094   3111843.0694   1   8   0.0043   0.0131   0.0055   0.0038  -0.0069  -0.0021   0.00    4.3
2173 199363.000   -487017.3020  -5540252.1146   3111843.0731   1   8   0.0043   0.0131   0.0055   0.0038  -0.0069  -0.0021   0.00    4.9
2173 199364.000   -487017.3021  -5540252.1164   3111843.0735   1   8   0.0043   0.0131   0.0055   0.0038  -0.0069  -0.0021   0.00    3.7
2173 199365.000   -487017.3005  -5540252.1102   3111843.0701   1   8   0.0043   0.0131   0.0055   0.0038  -0.0069  -0.0021   0.00    4.1
2173 199366.000   -487017.3003  -5540252.1045   3111843.0699   1   8   0.0043   0.0131   0.0055   0.0038  -0.0069  -0.0021   0.00    4.8
2173 199367.000   -487017.2998  -5540252.1135   3111843.0741   1   8   0.0043   0.0131   0.0055   0.0038  -0.0069  -0.0021   0.00    5.6
2173 199368.000   -487017.3010  -5540252.1090   3111843.0726   1   8   0.0043   0.0131   0.0055   0.0038  -0.0069  -0.0021   0.00    6.9
2173 199369.000   -487017.3001  -5540252.1098   3111843.0728   1   8   0.0043   0.0131   0.0055   0.0038  -0.0069  -0.0021   0.00    4.8
2173 199370.000   -487017.2998  -5540252.1011   3111843.0707   1   8   0.0043   0.0131   0.0055   0.0038  -0.0069  -0.0021   0.00    6.1
2173 199371.000   -487017.3014  -5540252.1068   3111843.0719   1   8   0.0043   0.0131   0.0055   0.0038  -0.0069  -0.0021   0.00    4.8
2173 199372.000   -487017.3006  -5540252.1066   3111843.0709   1   8   0.0043   0.0131   0.0055   0.0038  -0.0069  -0.0021   0.00    5.4
2173 199373.000   -487017.2985  -5540252.1113   3111843.0726   1   8   0.0043   0.0131   0.0055   0.0038  -0.0069  -0.0021   0.00    6.2
2173 199374.000   -487017.3001  -5540252.1093   3111843.0741   1   8   0.0043   0.0131   0.0055   0.0038  -0.0069  -0.0021   0.00    8.7
2173 199375.000   -487017.3002  -5540252.1065   3111843.0737   1   8   0.0043   0.0131   0.0055   0.0038  -0.0069  -0.0021   0.00    7.7
2173 199376.000   -487017.2978  -5540252.1044   3111843.0716   1   8   0.0043   0.0131   0.0055   0.0038  -0.0069  -0.0021   0.00    6.7
2173 199377.000   -487017.2991  -5540252.1049   3111843.0707   1   8   0.0043   0.0131   0.0055   0.0038  -0.0069  -0.0021   0.00    7.1
2173 199378.000   -487017.2986  -5540252.1099   3111843.0743   1   8   0.0043   0.0131   0.0055   0.0038  -0.0069  -0.0021   0.00    5.7
2173 199379.000   -487017.2992  -5540252.1032   3111843.0719   1   8   0.0043   0.0131   0.0055   0.0038  -0.0069  -0.0021   0.00    7.2
2173 199380.000   -487017.2975  -5540252.1070   3111843.0738   1   8   0.0043   0.0131   0.0055   0.0038  -0.0069  -0.0021   0.00    8.0
2173 199381.000   -487017.2949  -5540252.0976   3111843.0698   1   8   0.0043   0.0131   0.0055   0.0038  -0.0069  -0.0021   0.00    7.6
2173 199382.000   -487017.2979  -5540252.1037   3111843.0730   1   8   0.0043   0.0131   0.0055   0.0038  -0.0069  -0.0021   0.00    6.5
2173 199383.000   -487017.2969  -5540252.1039   3111843.0730   1   8   0.0043   0.0131   0.0055   0.0038  -0.0069  -0.0021   0.00    8.3
2173 199384.000   -487017.2961  -5540252.1016   3111843.0726   1   8   0.0043   0.0131   0.0055   0.0038  -0.0069  -0.0021   0.00    8.1
2173 199385.000   -487017.2965  -5540252.1009   3111843.0721   1   8   0.0043   0.0131   0.0055   0.0038  -0.0069  -0.0021   0.00    7.3
2173 199386.000   -487017.2984  -5540252.1031   3111843.0730   1   8   0.0043   0.0131   0.0055   0.0038  -0.0069  -0.0021   0.00    8.8
2173 199387.000   -487017.2969  -5540252.0993   3111843.0729   1   8   0.0043   0.0131   0.0055   0.0038  -0.0069  -0.0021   0.00    6.5
2173 199388.000   -487017.2981  -5540252.0992   3111843.0729   1   8   0.0043   0.0131   0.0055   0.0038  -0.0069  -0.0021   0.00    6.4
2173 199389.000   -487017.2967  -5540252.0991   3111843.0750   1   8   0.0043   0.0131   0.0055   0.0038  -0.0069  -0.0021   0.00    7.3
2173 199390.000   -487017.2973  -5540252.0910   3111843.0722   1   8   0.0043   0.0131   0.0055   0.0038  -0.0069  -0.0021   0.00    7.6
2173 199391.000   -487017.2990  -5540252.1006   3111843.0730   1   8   0.0043   0.0131   0.0055   0.0038  -0.0069  -0.0021   0.00    6.7
2173 199392.000   -487017.2958  -5540252.0992   3111843.0753   1   8   0.0043   0.0131   0.0055   0.0038  -0.0069  -0.0021   0.00    6.5
2173 199393.000   -487017.2969  -5540252.0989   3111843.0727   1   8   0.0043   0.0131   0.0055   0.0038  -0.0069  -0.0021   0.00    7.8
2173 199394.000   -487017.2965  -5540252.0947   3111843.0724   1   8   0.0043   0.0131   0.0055   0.0038  -0.0069  -0.0021   0.00    8.4
2173 199395.000   -487017.2965  -5540252.1038   3111843.0774   1   8   0.0043   0.0131   0.0055   0.0038  -0.0069  -0.0021   0.00    6.6
2173 199396.000   -487017.2958  -5540252.0988   3111843.0754   1   8   0.0043   0.0131   0.0055   0.0038  -0.0069  -0.0021   0.00    6.5
2173 199397.000   -487017.2967  -5540252.0980   3111843.0728   1   8   0.0043   0.0131   0.0055   0.0038  -0.0069  -0.0021   0.00    7.3
2173 199398.000   -487017.2967  -5540252.0971   3111843.0731   1   8   0.0043   0.0131   0.0055   0.0038  -0.0069  -0.0021   0.00    7.4
2173 199399.000   -487017.2975  -5540252.1030   3111843.0748   1   8   0.0043   0.0131   0.0055   0.0038  -0.0069  -0.0021   0.00    7.2
2173 199400.000   -487017.2970  -5540252.0940   3111843.0715   1   8   0.0043   0.0131   0.0055   0.0038  -0.0069  -0.0021   0.00    6.7
2173 199401.000   -487017.2970  -5540252.0971   3111843.0712   1   8   0.0043   0.0131   0.0055   0.0038  -0.0069  -0.0021   0.00    7.5
2173 199402.000   -487017.2964  -5540252.0984   3111843.0727   1   8   0.0043   0.0131   0.0055   0.0038  -0.0069  -0.0021   0.00    6.4
2173 199403.000   -487017.2964  -5540252.0932   3111843.0731   1   8   0.0043   0.0131   0.0055   0.0038  -0.0069  -0.0021   0.00    7.1
2173 199404.000   -487017.2953  -5540252.0935   3111843.0710   1   8   0.0043   0.0131   0.0055   0.0038  -0.0069  -0.0021   0.00    7.1
2173 199405.000   -487017.2971  -5540252.0976   3111843.0743   1   8   0.0043   0.0131   0.0055   0.0038  -0.0069  -0.0021   0.00    7.4
2173 199406.000   -487017.2956  -5540252.0955   3111843.0725   1   8   0.0043   0.0131   0.0055   0.0038  -0.0069  -0.0021   0.00    8.0
2173 199407.000   -487017.2974  -5540252.1014   3111843.0746   1   8   0.0043   0.0131   0.0055   0.0038  -0.0069  -0.0021   0.00    7.2
2173 199408.000   -487017.2957  -5540252.0982   3111843.0741   1   8   0.0043   0.0131   0.0055   0.0038  -0.0069  -0.0021   0.00    7.4
2173 199409.000   -487017.2945  -5540252.0940   3111843.0739   1   8   0.0043   0.0131   0.0055   0.0038  -0.0069  -0.0021   0.00    6.7
2173 199410.000   -487017.2952  -5540252.0919   3111843.0724   1   8   0.0043   0.0131   0.0055   0.0038  -0.0069  -0.0021   0.00    6.7
2173 199411.000   -487017.2946  -5540252.0981   3111843.0728   1   8   0.0043   0.0131   0.0055   0.0038  -0.0069  -0.0021   0.00    7.2
2173 199412.000   -487017.2958  -5540252.0928   3111843.0717   1   8   0.0043   0.0131   0.0055   0.0038  -0.0069  -0.0021   0.00    6.6
2173 199413.000   -487017.2948  -5540252.0889   3111843.0688   1   8   0.0043   0.0131   0.0055   0.0038  -0.0069  -0.0020   0.00    7.6
2173 199414.000   -487017.2955  -5540252.0947   3111843.0740   1   8   0.0043   0.0131   0.0055   0.0038  -0.0069  -0.0020   0.00    6.2
2173 199415.000   -487017.2945  -5540252.0881   3111843.0696   1   8   0.0043   0.0131   0.0055   0.0038  -0.0069  -0.0020   0.00    6.9
2173 199416.000   -487017.2935  -5540252.0918   3111843.0717   1   8   0.0043   0.0131   0.0055   0.0038  -0.0069  -0.0020   0.00    5.9
2173 199417.000   -487017.2943  -5540252.0902   3111843.0706   1   8   0.0043   0.0131   0.0055   0.0038  -0.0069  -0.0020   0.00    6.0
2173 199418.000   -487017.2958  -5540252.0878   3111843.0715   1   8   0.0043   0.0131   0.0055   0.0038  -0.0069  -0.0020   0.00    6.0
2173 199419.000   -487017.2965  -5540252.0962   3111843.0726   1   8   0.0043   0.0131   0.0055   0.0038  -0.0069  -0.0020   0.00    5.4
2173 199420.000   -487017.2951  -5540252.0880   3111843.0695   1   8   0.0043   0.0131   0.0055   0.0038  -0.0069  -0.0020   0.00    6.0
2173 199421.000   -487017.2956  -5540252.0951   3111843.0726   1   8   0.0043   0.0131   0.0055   0.0038  -0.0069  -0.0020   0.00    5.2
2173 199422.000   -487017.2949  -5540252.0896   3111843.0710   1   8   0.0043   0.0131   0.0055   0.0038  -0.0069  -0.0020   0.00    5.6
2173 199423.000   -487017.2949  -5540252.0877   3111843.0708   1   8   0.0043   0.0131   0.0055   0.0038  -0.0069  -0.0020   0.00    4.9
2173 199424.000   -487017.2937  -5540252.0918   3111843.0704   1   8   0.0043   0.0131   0.0055   0.0038  -0.0069  -0.0020   0.00    5.3
2173 199425.000   -487017.2953  -5540252.0842   3111843.0680   1   8   0.0043   0.0131   0.0055   0.0038  -0.0069  -0.0020   0.00    4.8
2173 199426.000   -487017.2965  -5540252.0877   3111843.0709   1   8   0.0043   0.0131   0.0055   0.0038  -0.0069  -0.0020   0.00    4.7
2173 199427.000   -487017.2965  -5540252.0894   3111843.0712   1   8   0.0043   0.0131   0.0055   0.0038  -0.0069  -0.0020   0.00    4.9
2173 199428.000   -487017.2976  -5540252.0907   3111843.0688   1   8   0.0043   0.0131   0.0055   0.0038  -0.0069  -0.0020   0.00    4.7
2173 199429.000   -487017.2953  -5540252.0880   3111843.0695   1   8   0.0043   0.0131   0.0055   0.0038  -0.0069  -0.0020   0.00    4.6
2173 199430.000   -487017.2980  -5540252.0875   3111843.0701   1   8   0.0043   0.0131   0.0055   0.0038  -0.0069  -0.0020   0.00    5.1
2173 199431.000   -487017.2975  -5540252.0907   3111843.0717   1   8   0.0043   0.0131   0.0055   0.0038  -0.0069  -0.0020   0.00    4.3
2173 199432.000   -487017.2957  -5540252.0870   3111843.0716   1   8   0.0043   0.0131   0.0055   0.0038  -0.0069  -0.0020   0.00    4.5
2173 199433.000   -487017.2973  -5540252.0897   3111843.0712   1   8   0.0043   0.0131   0.0055   0.0038  -0.0069  -0.0020   0.00    4.9
2173 199434.000   -487017.2959  -5540252.0846   3111843.0693   1   8   0.0043   0.0131   0.0055   0.0038  -0.0069  -0.0020   0.00    5.1
2173 199435.000   -487017.2965  -5540252.0906   3111843.0726   1   8   0.0043   0.0131   0.0055   0.0038  -0.0069  -0.0020   0.00    6.2
2173 199436.000   -487017.2950  -5540252.0875   3111843.0727   1   8   0.0043   0.0131   0.0055   0.0038  -0.0069  -0.0020   0.00    5.6
2173 199437.000   -487017.2953  -5540252.0882   3111843.0723   1   8   0.0043   0.0131   0.0055   0.0038  -0.0069  -0.0020   0.00    5.0
2173 199438.000   -487017.2939  -5540252.0882   3111843.0703   1   8   0.0043   0.0131   0.0055   0.0038  -0.0069  -0.0020   0.00    5.3
2173 199439.000   -487017.2953  -5540252.0881   3111843.0710   1   8   0.0043   0.0131   0.0055   0.0038  -0.0069  -0.0020   0.00    4.3
2173 199440.000   -487017.2944  -5540252.0843   3111843.0689   1   8   0.0043   0.0131   0.0055   0.0038  -0.0069  -0.0020   0.00    4.3
2173 199441.000   -487017.2945  -5540252.0788   3111843.0671   1   8   0.0043   0.0131   0.0055   0.0038  -0.0069  -0.0020   0.00    4.7
2173 199442.000   -487017.2939  -5540252.0882   3111843.0710   1   8   0.0043   0.0131   0.0055   0.0038  -0.0069  -0.0020   0.00    5.0
2173 199443.000   -487017.2945  -5540252.0864   3111843.0696   1   8   0.0043   0.0131   0.0055   0.0038  -0.0069  -0.0020   0.00    4.6
2173 199444.000   -487017.2949  -5540252.0828   3111843.0688   1   8   0.0043   0.0131   0.0055   0.0038  -0.0069  -0.0020   0.00    4.6
2173 199445.000   -487017.2948  -5540252.0850   3111843.0705   1   8   0.0043   0.0131   0.0055   0.0038  -0.0069  -0.0020   0.00    4.7
2173 199446.000   -487017.2961  -5540252.0879   3111843.0709   1   8   0.0043   0.0131   0.0055   0.0038  -0.0069  -0.0020   0.00    5.2
2173 199447.000   -487017.2946  -5540252.0900   3111843.0725   1   8   0.0043   0.0131   0.0055   0.0038  -0.0069  -0.0020   0.00    5.1
2173 199448.000   -487017.2954  -5540252.0838   3111843.0692   1   8   0.0043   0.0131   0.0055   0.0038  -0.0069  -0.0020   0.00    5.1
2173 199449.000   -487017.2955  -5540252.0891   3111843.0705   1   8   0.0043   0.0131   0.0055   0.0038  -0.0069  -0.0020   0.00    4.6
2173 199450.000   -487017.2953  -5540252.0890   3111843.0697   1   8   0.0043   0.0131   0.0055   0.0038  -0.0069  -0.0020   0.00    5.1
2173 199451.000   -487017.2943  -5540252.0872   3111843.0699   1   8   0.0043   0.0131   0.0055   0.0038  -0.0069  -0.0020   0.00    5.6
2173 199452.000   -487017.2955  -5540252.0943   3111843.0724   1   8   0.0043   0.0131   0.0055   0.0038  -0.0069  -0.0020   0.00    6.6
2173 199453.000   -487017.2952  -5540252.0907   3111843.0714   1   8   0.0043   0.0131   0.0055   0.0038  -0.0069  -0.0020   0.00    5.0
2173 199454.000   -487017.2966  -5540252.0975   3111843.0738   1   8   0.0043   0.0131   0.0055   0.0038  -0.0069  -0.0020   0.00    5.8
2173 199455.000   -487017.2964  -5540252.0986   3111843.0738   1   8   0.0043   0.0131   0.0055   0.0038  -0.0069  -0.0020   0.00    6.5
2173 199456.000   -487017.2950  -5540252.0934   3111843.0725   1   8   0.0043   0.0131   0.0055   0.0038  -0.0069  -0.0020   0.00    4.6
2173 199457.000   -487017.2965  -5540252.0933   3111843.0728   1   8   0.0043   0.0131   0.0055   0.0038  -0.0069  -0.0020   0.00    5.5
2173 199458.000   -487017.2960  -5540252.0964   3111843.0734   1   8   0.0043   0.0131   0.0055   0.0038  -0.0069  -0.0020   0.00    4.8
2173 199459.000   -487017.2961  -5540252.0985   3111843.0737   1   8   0.0043   0.0131   0.0055   0.0038  -0.0069  -0.0020   0.00    4.8
2173 199460.000   -487017.2964  -5540252.0965   3111843.0725   1   8   0.0043   0.0131   0.0055   0.0038  -0.0069  -0.0020   0.00    4.1
2173 199461.000   -487017.2956  -5540252.0900   3111843.0701   1   8   0.0043   0.0131   0.0055   0.0038  -0.0069  -0.0020   0.00    4.9
2173 199462.000   -487017.2957  -5540252.0941   3111843.0729   1   8   0.0043   0.0131   0.0055   0.0038  -0.0069  -0.0020   0.00    4.3
2173 199463.000   -487017.2967  -5540252.0960   3111843.0723   1   8   0.0043   0.0131   0.0055   0.0038  -0.0069  -0.0020   0.00    5.1
2173 199464.000   -487017.2997  -5540252.1048   3111843.0740   1   8   0.0043   0.0131   0.0055   0.0038  -0.0069  -0.0020   0.00    4.9
2173 199465.000   -487017.2951  -5540252.0926   3111843.0706   1   8   0.0043   0.0131   0.0055   0.0038  -0.0069  -0.0020   0.00    4.2
2173 199466.000   -487017.2982  -5540252.0954   3111843.0708   1   8   0.0043   0.0131   0.0055   0.0038  -0.0069  -0.0020   0.00    4.5
2173 199467.000   -487017.2976  -5540252.0999   3111843.0724   1   8   0.0043   0.0131   0.0055   0.0038  -0.0069  -0.0020   0.00    4.6
2173 199468.000   -487017.2975  -5540252.0977   3111843.0723   1   8   0.0043   0.0131   0.0055   0.0038  -0.0069  -0.0020   0.00    4.6
2173 199469.000   -487017.2990  -5540252.1015   3111843.0752   1   8   0.0043   0.0131   0.0055   0.0038  -0.0069  -0.0020   0.00    5.1
2173 199470.000   -487017.2973  -5540252.1016   3111843.0737   1   8   0.0043   0.0131   0.0055   0.0038  -0.0069  -0.0020   0.00    4.3
2173 199471.000   -487017.2955  -5540252.1026   3111843.0740   1   8   0.0043   0.0131   0.0055   0.0038  -0.0069  -0.0020   0.00    5.1
2173 199472.000   -487017.2968  -5540252.1002   3111843.0746   1   8   0.0043   0.0131   0.0055   0.0038  -0.0069  -0.0020   0.00    6.2
2173 199473.000   -487017.2978  -5540252.0971   3111843.0708   1   8   0.0043   0.0131   0.0055   0.0038  -0.0069  -0.0020   0.00    4.6
2173 199474.000   -487017.2976  -5540252.1003   3111843.0726   1   8   0.0043   0.0131   0.0055   0.0038  -0.0069  -0.0020   0.00    5.3
2173 199475.000   -487017.2965  -5540252.1048   3111843.0760   1   8   0.0043   0.0131   0.0055   0.0038  -0.0069  -0.0020   0.00    4.9
2173 199476.000   -487017.2976  -5540252.1003   3111843.0730   1   8   0.0043   0.0131   0.0055   0.0038  -0.0069  -0.0020   0.00    5.2
2173 199477.000   -487017.2976  -5540252.1043   3111843.0745   1   8   0.0043   0.0131   0.0055   0.0038  -0.0069  -0.0020   0.00    4.5
2173 199478.000   -487017.2970  -5540252.1033   3111843.0742   1   8   0.0043   0.0131   0.0055   0.0038  -0.0069  -0.0020   0.00    5.0
2173 199479.000   -487017.2988  -5540252.1061   3111843.0749   1   8   0.0043   0.0131   0.0055   0.0038  -0.0069  -0.0020   0.00    5.7
2173 199480.000   -487017.2978  -5540252.1047   3111843.0746   1   8   0.0043   0.0131   0.0055   0.0038  -0.0069  -0.0020   0.00    5.5
2173 199481.000   -487017.2980  -5540252.0946   3111843.0714   1   8   0.0043   0.0131   0.0055   0.0038  -0.0069  -0.0020   0.00    5.3
