% program   : rnx2rtkp ver.2.4.3 b31
% inp file  : ngs/21_08_31_18_48_33_moip.obs
% inp file  : ngs/21_08_31_18_48_33_moip_P1.obs
% inp file  : ngs/21_08_31_18_48_33_brdc.nav
% obs start : 2021/08/31 18:00:00.0 GPST (week2173 237600.0s)
% obs end   : 2021/08/31 18:59:59.0 GPST (week2173 241199.0s)
% ref pos   :  -376676.4550  -4952804.8290   3988076.2890
%
% (x/y/z-ecef=WGS84,Q=1:fix,2:float,3:sbas,4:dgps,5:single,6:ppp,ns=# of satellites)
%  GPST              x-ecef(m)      y-ecef(m)      z-ecef(m)   Q  ns   sdx(m)   sdy(m)   sdz(m)  sdxy(m)  sdyz(m)  sdzx(m) age(s)  ratio
2173 240488.000   -379062.5247  -4940495.2521   4002990.2757   2   7   0.4193   1.0476   0.7716  -0.1855  -0.6684  -0.2500 -30.00    1.1
2173 240489.000   -379062.5233  -4940495.1235   4002990.1485   2   7   0.2983   0.7454   0.5486  -0.1326  -0.4756  -0.1771 -29.00    1.1
2173 240490.000   -379062.4995  -4940495.0231   4002990.0764   2   7   0.2442   0.6103   0.4491  -0.1088  -0.3894  -0.1449 -28.00    1.1
2173 240491.000   -379062.4926  -4940494.9154   4002990.0611   2   7   0.2119   0.5295   0.3896  -0.0945  -0.3377  -0.1257 -27.00    1.1
2173 240492.000   -379062.5028  -4940494.9328   4002990.0704   2   7   0.1898   0.4742   0.3488  -0.0848  -0.3024  -0.1125 -26.00    1.1
2173 240493.000   -379062.4961  -4940494.9727   4002990.1117   2   7   0.1734   0.4333   0.3187  -0.0775  -0.2763  -0.1028 -25.00    1.1
2173 240494.000   -379062.5060  -4940494.9931   4002990.1129   2   7   0.1607   0.4014   0.2953  -0.0719  -0.2559  -0.0953 -24.00    1.1
2173 240495.000   -379062.5143  -4940494.9805   4002990.0909   2   7   0.1504   0.3757   0.2763  -0.0674  -0.2395  -0.0891 -23.00    1.1
2173 240496.000   -379062.5060  -4940494.9882   4002990.0959   2   7   0.1418   0.3544   0.2606  -0.0636  -0.2259  -0.0840 -22.00    1.1
2173 240497.000   -379062.5050  -4940494.9542   4002990.0826   2   7   0.1346   0.3363   0.2473  -0.0605  -0.2143  -0.0797 -21.00    1.1
2173 240498.000   -379062.5069  -4940494.9642   4002990.0933   2   7   0.1284   0.3207   0.2358  -0.0577  -0.2043  -0.0760 -20.00    1.1
2173 240499.000   -379062.5090  -4940494.9712   4002990.0874   2   7   0.1229   0.3071   0.2257  -0.0554  -0.1956  -0.0727 -19.00    1.0
2173 240500.000   -379062.5243  -4940494.9394   4002990.0746   2   7   0.1181   0.2950   0.2168  -0.0533  -0.1879  -0.0698 -18.00    1.0
2173 240501.000   -379062.5323  -4940494.9259   4002990.0823   2   7   0.1138   0.2843   0.2088  -0.0514  -0.1811  -0.0672 -17.00    1.0
2173 240502.000   -379062.5453  -4940494.9040   4002990.0952   2   7   0.1099   0.2746   0.2017  -0.0497  -0.1749  -0.0648 -16.00    1.0
2173 240503.000   -379062.5443  -4940494.9068   4002990.1025   2   7   0.1064   0.2658   0.1952  -0.0482  -0.1693  -0.0627 -15.00    1.0
2173 240504.000   -379062.5550  -4940494.8839   4002990.1017   2   7   0.1032   0.2578   0.1893  -0.0468  -0.1642  -0.0608 -14.00    1.0
2173 240505.000   -379062.5558  -4940494.8859   4002990.1130   2   7   0.1002   0.2505   0.1838  -0.0455  -0.1595  -0.0590 -13.00    1.0
2173 240506.000   -379062.5507  -4940494.8887   4002990.1123   2   7   0.0975   0.2437   0.1788  -0.0444  -0.1552  -0.0573 -12.00    1.0
2173 240507.000   -379062.5524  -4940494.8697   4002990.1086   2   7   0.0950   0.2374   0.1742  -0.0433  -0.1512  -0.0558 -11.00    1.0
2173 240508.000   -379062.5539  -4940494.8548   4002990.0995   2   7   0.0927   0.2316   0.1699  -0.0423  -0.1475  -0.0543 -10.00    1.0
2173 240509.000   -379062.5576  -4940494.8319   4002990.0981   2   7   0.0905   0.2262   0.1658  -0.0414  -0.1440  -0.0530  -9.00    1.0
2173 240510.000   -379062.5646  -4940494.8212   4002990.1133   2   7   0.0885   0.2212   0.1621  -0.0405  -0.1408  -0.0518  -8.00    1.0
2173 240511.000   -379062.5663  -4940494.8019   4002990.1178   2   7   0.0866   0.2164   0.1586  -0.0397  -0.1377  -0.0506  -7.00    1.1
2173 240512.000   -379062.5652  -4940494.7842   4002990.1125   2   7   0.0848   0.2120   0.1553  -0.0389  -0.1349  -0.0495  -6.00    1.1
2173 240513.000   -379062.5680  -4940494.7831   4002990.1264   2   7   0.0831   0.2078   0.1521  -0.0381  -0.1322  -0.0485  -5.00    1.1
2173 240514.000   -379062.5704  -4940494.7790   4002990.1283   2   7   0.0816   0.2038   0.1492  -0.0375  -0.1297  -0.0475  -4.00    1.0
2173 240515.000   -379062.5720  -4940494.7679   4002990.1365   2   7   0.0801   0.2001   0.1465  -0.0368  -0.1273  -0.0466  -3.00    1.0
2173 240516.000   -379062.5759  -4940494.7662   4002990.1466   2   7   0.0787   0.1965   0.1438  -0.0361  -0.1251  -0.0457  -2.00    1.1
2173 240517.000   -379062.5732  -4940494.7648   4002990.1547   2   7   0.0773   0.1932   0.1414  -0.0356  -0.1230  -0.0449  -1.00    1.1
2173 240518.000   -379062.5775  -4940494.7672   4002990.1650   2   7   0.0760   0.1900   0.1390  -0.0350  -0.1210  -0.0441   0.00    1.2
2173 240519.000   -379062.6099  -4940494.8938   4002990.6121   2   7   0.4190   1.0462   0.7665  -0.1903  -0.6634  -0.2474   0.00    2.0
2173 240520.000   -379062.6575  -4940494.6213   4002990.5434   2   7   0.4190   1.0462   0.7664  -0.1904  -0.6633  -0.2474   0.00    2.0
2173 240521.000   -379062.6113  -4940494.4468   4002990.2184   2   7   0.4190   1.0462   0.7663  -0.1906  -0.6631  -0.2473   0.00    2.2
2173 240522.000   -379062.5505  -4940493.9659   4002990.2191   2   7   0.4190   1.0462   0.7662  -0.1907  -0.6630  -0.2472   0.00    2.0
2173 240523.000   -379062.6247  -4940493.9998   4002990.4525   2   7   0.4190   1.0462   0.7661  -0.1909  -0.6629  -0.2472   0.00    2.2
2173 240524.000   -379062.4746  -4940494.5367   4002990.4361   2   7   0.4190   1.0462   0.7660  -0.1911  -0.6627  -0.2471   0.00    2.6
2173 240525.000   -379062.5687  -4940494.5285   4002990.8438   2   7   0.4191   1.0462   0.7658  -0.1912  -0.6626  -0.2471   0.00    2.6
2173 240526.000   -379062.5188  -4940494.4301   4002990.5362   2   7   0.4191   1.0462   0.7657  -0.1914  -0.6625  -0.2470   0.00    2.3
2173 240527.000   -379062.6634  -4940494.3232   4002990.5999   2   7   0.4191   1.0463   0.7656  -0.1916  -0.6624  -0.2469   0.00    2.3
2173 240528.000   -379062.7524  -4940494.3446   4002990.5487   2   7   0.4191   1.0463   0.7655  -0.1917  -0.6622  -0.2469   0.00    2.3
2173 240529.000   -379062.6763  -4940494.0476   4002990.6855   2   7   0.4191   1.0463   0.7654  -0.1919  -0.6621  -0.2468   0.00    2.2
2173 240530.000   -379062.6265  -4940494.0763   4002990.4779   2   7   0.4191   1.0463   0.7652  -0.1920  -0.6620  -0.2468   0.00    2.0
2173 240531.000   -379062.7187  -4940494.1748   4002990.7657   2   7   0.4191   1.0463   0.7651  -0.1922  -0.6618  -0.2467   0.00    2.3
2173 240532.000   -379062.5758  -4940494.5051   4002990.7839   2   7   0.4191   1.0463   0.7650  -0.1924  -0.6617  -0.2466   0.00    2.6
2173 240533.000   -379062.7113  -4940494.6248   4002990.8471   2   7   0.4192   1.0463   0.7649  -0.1925  -0.6616  -0.2466   0.00    2.5
2173 240534.000   -379062.5513  -4940494.8157   4002990.7761   2   7   0.4192   1.0463   0.7648  -0.1927  -0.6615  -0.2465   0.00    2.9
2173 240535.000   -379062.4517  -4940495.1609   4002990.8352   2   7   0.4192   1.0463   0.7647  -0.1928  -0.6613  -0.2464   0.00    2.4
2173 240536.000   -379062.4395  -4940494.7816   4002990.7290   2   7   0.4192   1.0463   0.7645  -0.1930  -0.6612  -0.2464   0.00    2.0
2173 240537.000   -379062.3794  -4940494.7642   4002990.8576   2   7   0.4192   1.0463   0.7644  -0.1932  -0.6611  -0.2463   0.00    2.3
2173 240538.000   -379062.5311  -4940495.0896   4002990.9245   2   7   0.4192   1.0463   0.7643  -0.1933  -0.6609  -0.2463   0.00    2.4
2173 240539.000   -379062.5213  -4940495.0529   4002991.0437   2   7   0.4192   1.0463   0.7642  -0.1935  -0.6608  -0.2462   0.00    2.6
2173 240540.000   -379062.6342  -4940494.8106   4002990.9076   2   7   0.4192   1.0463   0.7641  -0.1936  -0.6607  -0.2461   0.00    2.4
2173 240541.000   -379062.3938  -4940495.0358   4002991.2905   2   7   0.4193   1.0463   0.7640  -0.1938  -0.6605  -0.2461   0.00    2.0
2173 240542.000   -379062.5327  -4940494.9216   4002991.3147   2   7   0.4193   1.0463   0.7638  -0.1940  -0.6604  -0.2460   0.00    2.2
2173 240543.000   -379062.4414  -4940494.6856   4002990.9204   2   7   0.4193   1.0463   0.7637  -0.1941  -0.6603  -0.2460   0.00    1.9
2173 240544.000   -379062.5408  -4940495.1937   4002991.1982   2   7   0.4193   1.0463   0.7636  -0.1943  -0.6602  -0.2459   0.00    2.6
2173 240545.000   -379062.4547  -4940495.1453   4002991.2755   2   7   0.4193   1.0463   0.7635  -0.1944  -0.6600  -0.2458   0.00    2.7
2173 240546.000   -379062.4124  -4940494.8584   4002990.9329   2   7   0.4193   1.0463   0.7634  -0.1946  -0.6599  -0.2458   0.00    2.0
2173 240547.000   -379062.4831  -4940494.8755   4002990.8053   2   7   0.4193   1.0463   0.7633  -0.1947  -0.6598  -0.2457   0.00    2.3
2173 240548.000   -379062.6204  -4940495.4165   4002991.2938   2   7   0.4193   1.0463   0.7631  -0.1949  -0.6596  -0.2457   0.00    2.2
2173 240549.000   -379062.6635  -4940495.3190   4002991.3131   2   7   0.4193   1.0463   0.7630  -0.1951  -0.6595  -0.2456   0.00    2.8
2173 240550.000   -379062.5799  -4940495.2243   4002991.3583   2   7   0.4194   1.0463   0.7629  -0.1952  -0.6594  -0.2455   0.00    2.5
2173 240551.000   -379062.7185  -4940495.3169   4002991.1507   2   7   0.4194   1.0463   0.7628  -0.1954  -0.6593  -0.2455   0.00    2.5
2173 240552.000   -379062.6059  -4940495.0777   4002991.0773   2   7   0.4194   1.0463   0.7627  -0.1955  -0.6591  -0.2454   0.00    2.3
2173 240553.000   -379062.6489  -4940494.9603   4002991.0740   2   7   0.4194   1.0463   0.7626  -0.1957  -0.6590  -0.2454   0.00    2.3
2173 240554.000   -379062.4962  -4940494.9076   4002991.1251   2   7   0.4194   1.0463   0.7625  -0.1958  -0.6589  -0.2453   0.00    2.2
2173 240555.000   -379062.6381  -4940495.0991   4002990.9880   2   7   0.4194   1.0463   0.7623  -0.1960  -0.6587  -0.2452   0.00    2.4
2173 240556.000   -379062.5190  -4940495.2341   4002991.0382   2   7   0.4194   1.0463   0.7622  -0.1962  -0.6586  -0.2452   0.00    2.1
2173 240557.000   -379062.5856  -4940495.4559   4002991.2722   2   7   0.4194   1.0463   0.7621  -0.1963  -0.6585  -0.2451   0.00    2.5
2173 240558.000   -379062.6594  -4940495.4696   4002991.3847   2   7   0.4195   1.0464   0.7620  -0.1965  -0.6584  -0.2451   0.00    2.7
2173 240559.000   -379062.6133  -4940495.5116   4002991.3044   2   7   0.4195   1.0464   0.7619  -0.1966  -0.6582  -0.2450   0.00    2.2
2173 240560.000   -379062.7186  -4940495.1784   4002991.0499   2   7   0.4195   1.0464   0.7618  -0.1968  -0.6581  -0.2450   0.00    2.0
2173 240561.000   -379062.7133  -4940495.1734   4002991.1279   2   7   0.4195   1.0464   0.7616  -0.1969  -0.6580  -0.2449   0.00    2.3
2173 240562.000   -379062.7590  -4940495.0288   4002990.8964   2   7   0.4195   1.0464   0.7615  -0.1971  -0.6578  -0.2448   0.00    2.0
2173 240563.000   -379062.8858  -4940495.1388   4002990.7485   2   7   0.4195   1.0464   0.7614  -0.1972  -0.6577  -0.2448   0.00    2.1
2173 240564.000   -379062.8512  -4940495.3570   4002991.1324   2   7   0.4195   1.0464   0.7613  -0.1974  -0.6576  -0.2447   0.00    2.1
2173 240565.000   -379062.7878  -4940495.3033   4002991.0320   2   7   0.4195   1.0464   0.7612  -0.1976  -0.6575  -0.2447   0.00    2.1
2173 240566.000   -379062.7476  -4940495.4267   4002990.9579   2   7   0.4196   1.0464   0.7611  -0.1977  -0.6573  -0.2446   0.00    1.9
2173 240567.000   -379062.7945  -4940495.3391   4002991.1583   2   7   0.4196   1.0464   0.7610  -0.1979  -0.6572  -0.2445   0.00    2.0
2173 240568.000   -379062.7211  -4940495.1668   4002990.9126   2   7   0.4196   1.0464   0.7608  -0.1980  -0.6571  -0.2445   0.00    2.0
2173 240569.000   -379062.7435  -4940495.1245   4002990.9794   2   7   0.4196   1.0464   0.7607  -0.1982  -0.6570  -0.2444   0.00    1.9
2173 240570.000   -379062.6045  -4940494.7436   4002990.7313   2   7   0.4196   1.0464   0.7606  -0.1983  -0.6568  -0.2444   0.00    1.8
2173 240571.000   -379062.7725  -4940495.1615   4002990.9157   2   7   0.4196   1.0464   0.7605  -0.1985  -0.6567  -0.2443   0.00    1.7
2173 240572.000   -379062.7354  -4940495.1710   4002990.9370   2   7   0.4196   1.0464   0.7604  -0.1986  -0.6566  -0.2442   0.00    1.8
2173 240573.000   -379062.7903  -4940495.1897   4002991.0714   2   7   0.4196   1.0464   0.7603  -0.1988  -0.6564  -0.2442   0.00    1.8
2173 240574.000   -379062.6192  -4940495.1860   4002991.2239   2   7   0.4197   1.0464   0.7602  -0.1989  -0.6563  -0.2441   0.00    1.7
2173 240575.000   -379062.8237  -4940495.2872   4002991.1374   2   7   0.4197   1.0464   0.7600  -0.1991  -0.6562  -0.2441   0.00    1.7
2173 240576.000   -379062.8688  -4940495.1712   4002991.3787   2   7   0.4197   1.0464   0.7599  -0.1992  -0.6561  -0.2440   0.00    1.8
2173 240577.000   -379062.9747  -4940495.3079   4002991.5909   2   7   0.4197   1.0464   0.7598  -0.1994  -0.6559  -0.2440   0.00    1.9
2173 240578.000   -379063.0325  -4940495.0093   4002991.4971   2   7   0.4197   1.0464   0.7597  -0.1995  -0.6558  -0.2439   0.00    1.8
2173 240579.000   -379062.9003  -4940495.2841   4002991.5190   2   7   0.4197   1.0464   0.7596  -0.1997  -0.6557  -0.2438   0.00    1.7
2173 240580.000   -379062.9405  -4940495.4404   4002991.4427   2   7   0.4197   1.0464   0.7595  -0.1998  -0.6555  -0.2438   0.00    1.6
2173 240581.000   -379063.0122  -4940495.1583   4002991.2345   2   7   0.4198   1.0464   0.7594  -0.2000  -0.6554  -0.2437   0.00    1.5
2173 240582.000   -379062.9759  -4940495.1862   4002991.3751   2   7   0.4198   1.0464   0.7593  -0.2001  -0.6553  -0.2437   0.00    1.8
2173 240583.000   -379062.9271  -4940495.4580   4002991.5035   2   7   0.4198   1.0464   0.7591  -0.2003  -0.6552  -0.2436   0.00    1.8
2173 240584.000   -379063.0940  -4940495.2146   4002991.4639   2   7   0.4198   1.0464   0.7590  -0.2004  -0.6550  -0.2435   0.00    1.7
2173 240585.000   -379063.0701  -4940495.2735   4002991.6991   2   7   0.4198   1.0465   0.7589  -0.2006  -0.6549  -0.2435   0.00    2.0
2173 240586.000   -379063.1058  -4940495.4726   4002991.7314   2   7   0.4198   1.0465   0.7588  -0.2007  -0.6548  -0.2434   0.00    2.1
2173 240587.000   -379063.2108  -4940495.6893   4002991.5903   2   7   0.4198   1.0465   0.7587  -0.2009  -0.6547  -0.2434   0.00    1.7
2173 240588.000   -379063.1928  -4940495.2359   4002991.6418   2   7   0.4198   1.0465   0.7586  -0.2010  -0.6545  -0.2433   0.00    2.1
2173 240589.000   -379063.1138  -4940495.2582   4002991.8123   2   7   0.4199   1.0465   0.7585  -0.2012  -0.6544  -0.2433   0.00    2.2
2173 240590.000   -379063.1254  -4940495.5753   4002992.0636   2   7   0.4199   1.0465   0.7584  -0.2013  -0.6543  -0.2432   0.00    2.1
2173 240591.000   -379063.1319  -4940494.9741   4002991.9094   2   7   0.4199   1.0465   0.7582  -0.2015  -0.6541  -0.2431   0.00    2.3
2173 240592.000   -379063.0833  -4940495.0552   4002991.9329   2   7   0.4199   1.0465   0.7581  -0.2016  -0.6540  -0.2431   0.00    2.1
2173 240593.000   -379063.0991  -4940494.9483   4002992.0762   2   7   0.4199   1.0465   0.7580  -0.2018  -0.6539  -0.2430   0.00    2.0
2173 240594.000   -379063.0767  -4940494.8728   4002992.1788   2   7   0.4199   1.0465   0.7579  -0.2019  -0.6538  -0.2430   0.00    2.0
2173 240595.000   -379063.1768  -4940495.0317   4002992.2118   2   7   0.4199   1.0465   0.7578  -0.2021  -0.6536  -0.2429   0.00    1.7
2173 240596.000   -379063.2377  -4940494.8679   4002992.1028   2   7   0.4199   1.0465   0.7577  -0.2022  -0.6535  -0.2429   0.00    2.0
2173 240597.000   -379063.1311  -4940495.1033   4002992.3945   2   7   0.4200   1.0465   0.7576  -0.2024  -0.6534  -0.2428   0.00    1.9
2173 240598.000   -379063.2317  -4940495.2961   4002992.3538   2   7   0.4200   1.0465   0.7575  -0.2025  -0.6533  -0.2427   0.00    1.6
2173 240599.000   -379063.2452  -4940495.3659   4002992.3196   2   7   0.4200   1.0465   0.7574  -0.2027  -0.6531  -0.2427   0.00    1.7
2173 240600.000   -379063.0529  -4940495.3209   4002992.1243   2   7   0.4200   1.0465   0.7572  -0.2028  -0.6530  -0.2426   0.00    1.3
2173 240601.000   -379063.0294  -4940495.6481   4002992.2787   2   7   0.4200   1.0465   0.7571  -0.2030  -0.6529  -0.2426   0.00    1.3
2173 240602.000   -379062.9887  -4940495.4059   4002992.4752   2   7   0.4200   1.0465   0.7570  -0.2031  -0.6528  -0.2425   0.00    1.3
2173 240603.000   -379063.0228  -4940495.3243   4002992.3023   2   7   0.4200   1.0465   0.7569  -0.2033  -0.6526  -0.2425   0.00    1.0
2173 240604.000   -379063.0734  -4940495.2520   4002992.3583   2   7   0.4200   1.0465   0.7568  -0.2034  -0.6525  -0.2424   0.00    1.2
2173 240605.000   -379062.9511  -4940495.2000   4002992.4044   2   7   0.4201   1.0465   0.7567  -0.2036  -0.6524  -0.2423   0.00    1.3
2173 240606.000   -379063.0097  -4940494.9823   4002992.4603   2   7   0.4201   1.0465   0.7566  -0.2037  -0.6522  -0.2423   0.00    1.1
2173 240607.000   -379062.9395  -4940495.0336   4002992.4823   2   7   0.4201   1.0465   0.7565  -0.2039  -0.6521  -0.2422   0.00    1.2
2173 240608.000   -379063.0712  -4940495.1380   4002992.5953   2   7   0.4201   1.0466   0.7564  -0.2040  -0.6520  -0.2422   0.00    1.1
2173 240609.000   -379062.9010  -4940495.1823   4002992.5291   2   7   0.4201   1.0466   0.7563  -0.2041  -0.6519  -0.2421   0.00    1.2
2173 240610.000   -379062.9108  -4940495.2720   4002992.6755   2   7   0.4201   1.0466   0.7561  -0.2043  -0.6517  -0.2421   0.00    1.0
2173 240611.000   -379063.0590  -4940494.9619   4002992.8145   2   7   0.4201   1.0466   0.7560  -0.2044  -0.6516  -0.2420   0.00    1.0
2173 240612.000   -379063.0381  -4940495.2107   4002992.7382   2   7   0.4202   1.0466   0.7559  -0.2046  -0.6515  -0.2419   0.00    1.0
2173 240613.000   -379063.0737  -4940494.6998   4002992.5518   2   7   0.4202   1.0466   0.7558  -0.2047  -0.6514  -0.2419   0.00    1.1
2173 240614.000   -379062.9469  -4940494.9100   4002992.5525   2   7   0.4202   1.0466   0.7557  -0.2049  -0.6512  -0.2418   0.00    1.1
2173 240615.000   -379062.9566  -4940494.8819   4002992.4656   2   7   0.4202   1.0466   0.7556  -0.2050  -0.6511  -0.2418   0.00    1.3
2173 240616.000   -379062.7744  -4940495.0265   4002992.4176   2   7   0.4202   1.0466   0.7555  -0.2052  -0.6510  -0.2417   0.00    1.2
2173 240617.000   -379062.7860  -4940494.7334   4002992.4407   2   7   0.4202   1.0466   0.7554  -0.2053  -0.6509  -0.2417   0.00    1.0
2173 240618.000   -379062.7792  -4940494.6558   4002992.4851   2   7   0.4202   1.0466   0.7553  -0.2055  -0.6507  -0.2416   0.00    1.2
2173 240619.000   -379062.7831  -4940494.9832   4002992.5167   2   7   0.4202   1.0466   0.7552  -0.2056  -0.6506  -0.2416   0.00    1.1
2173 240620.000   -379062.9177  -4940494.9540   4002992.7744   2   7   0.4203   1.0466   0.7551  -0.2057  -0.6505  -0.2415   0.00    1.2
2173 240621.000   -379062.8508  -4940494.8477   4002992.5193   2   7   0.4203   1.0466   0.7549  -0.2059  -0.6504  -0.2414   0.00    1.1
2173 240622.000   -379062.7639  -4940494.6685   4002992.5038   2   7   0.4203   1.0466   0.7548  -0.2060  -0.6502  -0.2414   0.00    1.0
2173 240623.000   -379062.7788  -4940495.2164   4002992.7236   2   7   0.4203   1.0466   0.7547  -0.2062  -0.6501  -0.2413   0.00    1.2
2173 240624.000   -379062.8722  -4940495.5259   4002992.7687   2   7   0.4203   1.0466   0.7546  -0.2063  -0.6500  -0.2413   0.00    1.5
2173 240625.000   -379062.6923  -4940495.2811   4002992.3526   2   7   0.4203   1.0466   0.7545  -0.2065  -0.6499  -0.2412   0.00    1.3
2173 240626.000   -379062.7701  -4940494.9671   4002992.5274   2   7   0.4203   1.0466   0.7544  -0.2066  -0.6497  -0.2412   0.00    1.2
2173 240627.000   -379062.5849  -4940494.9505   4002992.4708   2   7   0.4204   1.0466   0.7543  -0.2067  -0.6496  -0.2411   0.00    1.2
2173 240628.000   -379062.6604  -4940495.0368   4002992.3739   2   7   0.4204   1.0466   0.7542  -0.2069  -0.6495  -0.2410   0.00    1.2
2173 240629.000   -379062.5154  -4940495.1665   4002991.9894   2   7   0.4204   1.0466   0.7541  -0.2070  -0.6494  -0.2410   0.00    1.3
2173 240630.000   -379062.4632  -4940495.7100   4002992.3208   2   7   0.4204   1.0467   0.7540  -0.2072  -0.6492  -0.2409   0.00    1.3
2173 240631.000   -379062.5075  -4940495.3657   4002991.9746   2   7   0.4204   1.0467   0.7539  -0.2073  -0.6491  -0.2409   0.00    1.3
2173 240632.000   -379062.5985  -4940494.7949   4002991.9015   2   7   0.4204   1.0467   0.7538  -0.2075  -0.6490  -0.2408   0.00    1.2
2173 240633.000   -379062.5807  -4940495.3508   4002992.2492   2   7   0.4204   1.0467   0.7536  -0.2076  -0.6488  -0.2408   0.00    1.4
2173 240634.000   -379062.6454  -4940495.1660   4002992.2698   2   7   0.4204   1.0467   0.7535  -0.2077  -0.6487  -0.2407   0.00    1.5
2173 240635.000   -379062.6025  -4940495.3629   4002991.9973   2   7   0.4205   1.0467   0.7534  -0.2079  -0.6486  -0.2407   0.00    1.4
2173 240636.000   -379062.5772  -4940495.3474   4002991.8916   2   7   0.4205   1.0467   0.7533  -0.2080  -0.6485  -0.2406   0.00    1.4
2173 240637.000   -379062.6323  -4940495.1191   4002991.6387   2   7   0.4205   1.0467   0.7532  -0.2082  -0.6483  -0.2406   0.00    1.5
2173 240638.000   -379062.4180  -4940495.3558   4002991.8835   2   7   0.4205   1.0467   0.7531  -0.2083  -0.6482  -0.2405   0.00    1.3
2173 240639.000   -379062.6003  -4940495.2926   4002991.9119   2   7   0.4205   1.0467   0.7530  -0.2084  -0.6481  -0.2404   0.00    1.6
2173 240640.000   -379062.5446  -4940495.2167   4002991.5825   2   7   0.4205   1.0467   0.7529  -0.2086  -0.6480  -0.2404   0.00    1.4
2173 240641.000   -379062.4952  -4940494.8945   4002991.6392   2   7   0.4205   1.0467   0.7528  -0.2087  -0.6478  -0.2403   0.00    1.5
2173 240642.000   -379062.5309  -4940495.1462   4002991.8466   2   7   0.4206   1.0467   0.7527  -0.2089  -0.6477  -0.2403   0.00    1.6
2173 240643.000   -379062.5476  -4940494.6116   4002991.3140   2   7   0.4206   1.0467   0.7526  -0.2090  -0.6476  -0.2402   0.00    1.5
2173 240644.000   -379062.5203  -4940494.7057   4002991.2469   2   7   0.4206   1.0467   0.7525  -0.2092  -0.6475  -0.2402   0.00    1.4
2173 240645.000   -379062.4630  -4940494.8460   4002991.4825   2   7   0.4206   1.0467   0.7524  -0.2093  -0.6473  -0.2401   0.00    1.5
2173 240646.000   -379062.5114  -4940495.4517   4002991.8455   2   7   0.4206   1.0467   0.7523  -0.2094  -0.6472  -0.2401   0.00    1.6
2173 240647.000   -379062.5287  -4940495.0090   4002991.5612   2   7   0.4206   1.0467   0.7521  -0.2096  -0.6471  -0.2400   0.00    1.5
2173 240648.000   -379062.5685  -4940495.0299   4002991.6430   2   7   0.4206   1.0467   0.7520  -0.2097  -0.6470  -0.2399   0.00    1.4
2173 240649.000   -379062.5351  -4940495.2561   4002991.5380   2   7   0.4207   1.0467   0.7519  -0.2099  -0.6468  -0.2399   0.00    1.4
2173 240650.000   -379062.5754  -4940495.2010   4002991.6733   2   7   0.4207   1.0467   0.7518  -0.2100  -0.6467  -0.2398   0.00    1.4
2173 240651.000   -379062.4898  -4940494.9660   4002991.4066   2   7   0.4207   1.0468   0.7517  -0.2101  -0.6466  -0.2398   0.00    1.4
2173 240652.000   -379062.6398  -4940494.7013   4002991.4913   2   7   0.4207   1.0468   0.7516  -0.2103  -0.6465  -0.2397   0.00    1.5
2173 240653.000   -379062.5623  -4940494.8248   4002991.4432   2   7   0.4207   1.0468   0.7515  -0.2104  -0.6463  -0.2397   0.00    1.5
2173 240654.000   -379062.6684  -4940494.5902   4002991.2922   2   7   0.4207   1.0468   0.7514  -0.2105  -0.6462  -0.2396   0.00    1.3
2173 240655.000   -379062.6663  -4940494.8651   4002991.1121   2   7   0.4207   1.0468   0.7513  -0.2107  -0.6461  -0.2396   0.00    1.5
2173 240656.000   -379062.8780  -4940495.0062   4002991.6169   2   7   0.4207   1.0468   0.7512  -0.2108  -0.6460  -0.2395   0.00    1.6
2173 240657.000   -379062.9806  -4940495.0636   4002991.6052   2   7   0.4208   1.0468   0.7511  -0.2110  -0.6459  -0.2395   0.00    1.4
2173 240658.000   -379062.9715  -4940494.6326   4002991.4176   2   7   0.4208   1.0468   0.7510  -0.2111  -0.6457  -0.2394   0.00    1.4
2173 240659.000   -379062.8479  -4940494.7184   4002991.1734   2   7   0.4208   1.0468   0.7509  -0.2112  -0.6456  -0.2394   0.00    1.4
2173 240660.000   -379062.9111  -4940494.6422   4002991.0981   2   7   0.4208   1.0468   0.7508  -0.2114  -0.6455  -0.2393   0.00    1.3
2173 240661.000   -379062.9835  -4940494.4591   4002991.0786   2   7   0.4208   1.0468   0.7507  -0.2115  -0.6454  -0.2392   0.00    1.3
2173 240662.000   -379063.0831  -4940494.5912   4002991.1725   2   7   0.4208   1.0468   0.7506  -0.2116  -0.6452  -0.2392   0.00    1.2
2173 240663.000   -379063.1015  -4940494.4096   4002991.2605   2   7   0.4208   1.0468   0.7505  -0.2118  -0.6451  -0.2391   0.00    1.1
2173 240664.000   -379063.0308  -4940494.6730   4002991.3491   2   7   0.4209   1.0468   0.7504  -0.2119  -0.6450  -0.2391   0.00    1.2
2173 240665.000   -379063.2415  -4940494.5735   4002991.5619   2   7   0.4209   1.0468   0.7502  -0.2121  -0.6449  -0.2390   0.00    1.1
2173 240666.000   -379063.2234  -4940494.4598   4002991.6128   2   7   0.4209   1.0468   0.7501  -0.2122  -0.6447  -0.2390   0.00    1.1
2173 240667.000   -379063.1205  -4940494.6502   4002991.3144   2   7   0.4209   1.0468   0.7500  -0.2123  -0.6446  -0.2389   0.00    1.2
2173 240668.000   -379063.1201  -4940494.9829   4002991.3943   2   7   0.4209   1.0468   0.7499  -0.2125  -0.6445  -0.2389   0.00    1.3
2173 240669.000   -379063.1323  -4940494.7499   4002991.3866   2   7   0.4209   1.0468   0.7498  -0.2126  -0.6444  -0.2388   0.00    1.3
2173 240670.000   -379063.2166  -4940495.1598   4002991.7459   2   7   0.4209   1.0469   0.7497  -0.2127  -0.6442  -0.2388   0.00    1.3
2173 240671.000   -379063.1380  -4940495.0455   4002991.8037   2   7   0.4210   1.0469   0.7496  -0.2129  -0.6441  -0.2387   0.00    1.1
2173 240672.000   -379063.0818  -4940495.4858   4002991.5044   2   7   0.4210   1.0469   0.7495  -0.2130  -0.6440  -0.2387   0.00    1.0
2173 240673.000   -379063.1595  -4940494.9949   4002991.7236   2   7   0.4210   1.0469   0.7494  -0.2131  -0.6439  -0.2386   0.00    1.0
2173 240674.000   -379063.1832  -4940495.3559   4002991.8109   2   7   0.4210   1.0469   0.7493  -0.2133  -0.6437  -0.2385   0.00    1.0
2173 240675.000   -379063.0492  -4940495.1477   4002991.6468   2   7   0.4210   1.0469   0.7492  -0.2134  -0.6436  -0.2385   0.00    1.2
2173 240676.000   -379063.2598  -4940495.1306   4002991.6779   2   7   0.4210   1.0469   0.7491  -0.2136  -0.6435  -0.2384   0.00    1.1
2173 240677.000   -379063.2050  -4940495.0670   4002991.5575   2   7   0.4210   1.0469   0.7490  -0.2137  -0.6434  -0.2384   0.00    1.0
2173 240678.000   -379063.1348  -4940495.3587   4002991.7079   2   7   0.4211   1.0469   0.7489  -0.2138  -0.6432  -0.2383   0.00    1.1
2173 240679.000   -379063.3478  -4940495.3484   4002991.9802   2   7   0.4211   1.0469   0.7488  -0.2140  -0.6431  -0.2383   0.00    1.2
2173 240680.000   -379063.3872  -4940495.2670   4002991.8478   2   7   0.4211   1.0469   0.7487  -0.2141  -0.6430  -0.2382   0.00    1.1
2173 240681.000   -379063.4202  -4940495.2528   4002992.0264   2   7   0.4211   1.0469   0.7486  -0.2142  -0.6429  -0.2382   0.00    1.1
2173 240682.000   -379063.4649  -4940495.0574   4002991.9861   2   7   0.4211   1.0469   0.7485  -0.2144  -0.6428  -0.2381   0.00    1.0
2173 240683.000   -379063.3513  -4940495.2848   4002991.9570   2   7   0.4211   1.0469   0.7484  -0.2145  -0.6426  -0.2381   0.00    1.1
2173 240684.000   -379063.3102  -4940495.2192   4002991.8388   2   7   0.4211   1.0469   0.7483  -0.2146  -0.6425  -0.2380   0.00    1.1
2173 240685.000   -379063.2050  -4940494.9428   4002991.9651   2   7   0.4212   1.0469   0.7482  -0.2148  -0.6424  -0.2380   0.00    1.1
2173 240686.000   -379063.1371  -4940494.8130   4002991.5372   2   7   0.4212   1.0469   0.7481  -0.2149  -0.6423  -0.2379   0.00    1.1
2173 240687.000   -379063.0361  -4940495.1576   4002991.8254   2   7   0.4212   1.0469   0.7480  -0.2150  -0.6421  -0.2379   0.00    1.1
2173 240688.000   -379063.1274  -4940495.2627   4002992.2527   2   7   0.4212   1.0469   0.7479  -0.2152  -0.6420  -0.2378   0.00    1.0
2173 240689.000   -379063.1903  -4940495.3874   4002992.1277   2   7   0.4212   1.0470   0.7478  -0.2153  -0.6419  -0.2378   0.00    1.1
2173 240690.000   -379062.9956  -4940495.0616   4002991.7746   2   7   0.4212   1.0470   0.7477  -0.2154  -0.6418  -0.2377   0.00    1.0
2173 240691.000   -379063.0531  -4940495.3276   4002991.8927   2   7   0.4212   1.0470   0.7476  -0.2156  -0.6416  -0.2377   0.00    1.1
2173 240692.000   -379063.0576  -4940495.8619   4002992.1251   2   7   0.4213   1.0470   0.7475  -0.2157  -0.6415  -0.2376   0.00    1.1
2173 240693.000   -379063.0547  -4940495.8387   4002992.3069   2   7   0.4213   1.0470   0.7474  -0.2158  -0.6414  -0.2375   0.00    1.1
2173 240694.000   -379062.9088  -4940495.3108   4002991.8183   2   7   0.4213   1.0470   0.7473  -0.2160  -0.6413  -0.2375   0.00    1.3
2173 240695.000   -379062.9306  -4940495.6944   4002992.0777   2   7   0.4213   1.0470   0.7472  -0.2161  -0.6411  -0.2374   0.00    1.1
2173 240696.000   -379062.9300  -4940495.5072   4002992.0458   2   7   0.4213   1.0470   0.7470  -0.2162  -0.6410  -0.2374   0.00    1.2
2173 240697.000   -379062.8750  -4940495.9266   4002992.1698   2   7   0.4213   1.0470   0.7469  -0.2164  -0.6409  -0.2373   0.00    1.0
2173 240698.000   -379062.8385  -4940495.8755   4002992.1222   2   7   0.4213   1.0470   0.7468  -0.2165  -0.6408  -0.2373   0.00    1.1
2173 240699.000   -379062.8039  -4940495.7438   4002992.2446   2   7   0.4214   1.0470   0.7467  -0.2166  -0.6407  -0.2372   0.00    1.0
2173 240700.000   -379062.9850  -4940495.9724   4002992.3182   2   7   0.4214   1.0470   0.7466  -0.2167  -0.6405  -0.2372   0.00    1.1
2173 240701.000   -379063.0927  -4940495.6493   4002992.3706   2   7   0.4214   1.0470   0.7465  -0.2169  -0.6404  -0.2371   0.00    1.1
2173 240702.000   -379062.9996  -4940495.3630   4002992.3600   2   7   0.4214   1.0470   0.7464  -0.2170  -0.6403  -0.2371   0.00    1.3
2173 240703.000   -379062.9388  -4940495.3938   4002992.3188   2   7   0.4214   1.0470   0.7463  -0.2171  -0.6402  -0.2370   0.00    1.1
2173 240704.000   -379062.9622  -4940495.7681   4002992.3644   2   7   0.4214   1.0470   0.7462  -0.2173  -0.6400  -0.2370   0.00    1.1
2173 240705.000   -379062.8858  -4940495.7713   4002992.3751   2   7   0.4214   1.0470   0.7461  -0.2174  -0.6399  -0.2369   0.00    1.1
2173 240706.000   -379062.9154  -4940496.0026   4002992.3752   2   7   0.4215   1.0470   0.7460  -0.2175  -0.6398  -0.2369   0.00    1.1
2173 240707.000   -379062.6316  -4940495.6358   4002992.1300   2   7   0.4215   1.0470   0.7459  -0.2177  -0.6397  -0.2368   0.00    1.4
2173 240708.000   -379062.8468  -4940495.9148   4002992.1918   2   7   0.4215   1.0471   0.7458  -0.2178  -0.6395  -0.2368   0.00    1.0
2173 240709.000   -379063.0304  -4940496.0945   4002992.4642   2   7   0.4215   1.0471   0.7457  -0.2179  -0.6394  -0.2367   0.00    1.1
2173 240710.000   -379062.8390  -4940495.4014   4002992.1171   2   7   0.4215   1.0471   0.7456  -0.2181  -0.6393  -0.2367   0.00    1.1
2173 240711.000   -379063.0243  -4940495.7865   4002992.0457   2   7   0.4215   1.0471   0.7455  -0.2182  -0.6392  -0.2366   0.00    1.1
2173 240712.000   -379063.0937  -4940495.9330   4002992.1948   2   7   0.4215   1.0471   0.7454  -0.2183  -0.6391  -0.2366   0.00    1.1
2173 240713.000   -379062.6549  -4940495.9312   4002991.8922   2   7   0.4216   1.0471   0.7453  -0.2184  -0.6389  -0.2365   0.00    1.0
2173 240714.000   -379062.7842  -4940496.2825   4002992.6101   2   7   0.4216   1.0471   0.7452  -0.2186  -0.6388  -0.2365   0.00    1.0
2173 240715.000   -379062.7800  -4940496.2257   4002992.3035   2   7   0.4216   1.0471   0.7451  -0.2187  -0.6387  -0.2364   0.00    1.1
2173 240716.000   -379062.5804  -4940496.2760   4002992.2636   2   7   0.4216   1.0471   0.7450  -0.2188  -0.6386  -0.2364   0.00    1.2
2173 240717.000   -379062.6864  -4940496.2395   4002992.1019   2   7   0.4216   1.0471   0.7449  -0.2190  -0.6384  -0.2363   0.00    1.2
2173 240718.000   -379062.8579  -4940496.2151   4002992.1553   2   7   0.4216   1.0471   0.7448  -0.2191  -0.6383  -0.2363   0.00    1.3
2173 240719.000   -379063.0020  -4940496.0575   4002992.3626   2   7   0.4216   1.0471   0.7447  -0.2192  -0.6382  -0.2362   0.00    1.3
2173 240720.000   -379062.7615  -4940496.1672   4002992.2024   2   7   0.4217   1.0471   0.7446  -0.2193  -0.6381  -0.2362   0.00    1.1
2173 240721.000   -379062.7777  -4940496.3622   4002992.0923   2   7   0.4217   1.0471   0.7445  -0.2195  -0.6380  -0.2361   0.00    1.3
2173 240722.000   -379062.9801  -4940496.0608   4002991.9858   2   7   0.4217   1.0471   0.7444  -0.2196  -0.6378  -0.2361   0.00    1.1
2173 240723.000   -379062.8584  -4940495.9466   4002991.8100   2   7   0.4217   1.0471   0.7443  -0.2197  -0.6377  -0.2360   0.00    1.2
2173 240724.000   -379062.9279  -4940496.1875   4002992.2148   2   7   0.4217   1.0471   0.7442  -0.2199  -0.6376  -0.2360   0.00    1.1
2173 240725.000   -379063.0320  -4940496.2261   4002992.3324   2   7   0.4217   1.0471   0.7441  -0.2200  -0.6375  -0.2359   0.00    1.1
2173 240726.000   -379062.7964  -4940496.4193   4002991.8565   2   7   0.4217   1.0472   0.7440  -0.2201  -0.6373  -0.2359   0.00    1.2
2173 240727.000   -379062.8917  -4940496.3383   4002992.0347   2   7   0.4218   1.0472   0.7439  -0.2202  -0.6372  -0.2358   0.00    1.2
2173 240728.000   -379062.9843  -4940496.1607   4002991.7785   2   7   0.4218   1.0472   0.7438  -0.2204  -0.6371  -0.2358   0.00    1.2
2173 240729.000   -379062.9846  -4940496.4405   4002992.2069   2   7   0.4218   1.0472   0.7437  -0.2205  -0.6370  -0.2357   0.00    1.2
2173 240730.000   -379062.9311  -4940495.9196   4002992.0100   2   7   0.4218   1.0472   0.7436  -0.2206  -0.6369  -0.2357   0.00    1.1
2173 240731.000   -379062.9326  -4940495.7267   4002991.9130   2   7   0.4218   1.0472   0.7435  -0.2208  -0.6367  -0.2356   0.00    1.1
2173 240732.000   -379062.8284  -4940495.7609   4002991.8222   2   7   0.4218   1.0472   0.7434  -0.2209  -0.6366  -0.2356   0.00    1.0
2173 240733.000   -379062.7394  -4940495.3256   4002991.5425   2   7   0.4218   1.0472   0.7433  -0.2210  -0.6365  -0.2355   0.00    1.1
2173 240734.000   -379062.7521  -4940495.4391   4002991.6070   2   7   0.4219   1.0472   0.7433  -0.2211  -0.6364  -0.2355   0.00    1.0
2173 240735.000   -379062.5749  -4940495.8399   4002991.6489   2   7   0.4219   1.0472   0.7432  -0.2213  -0.6362  -0.2354   0.00    1.0
2173 240736.000   -379062.5968  -4940496.1437   4002991.8467   2   7   0.4219   1.0472   0.7431  -0.2214  -0.6361  -0.2354   0.00    1.0
2173 240737.000   -379062.4190  -4940496.1149   4002991.8461   2   7   0.4219   1.0472   0.7430  -0.2215  -0.6360  -0.2353   0.00    1.0
2173 240738.000   -379062.4472  -4940495.7739   4002991.7139   2   7   0.4219   1.0472   0.7429  -0.2216  -0.6359  -0.2353   0.00    1.0
2173 240739.000   -379062.5440  -4940495.6454   4002991.7533   2   7   0.4219   1.0472   0.7428  -0.2218  -0.6358  -0.2352   0.00    1.1
2173 240740.000   -379062.5664  -4940495.4217   4002991.6279   2   7   0.4220   1.0472   0.7427  -0.2219  -0.6356  -0.2352   0.00    1.1
2173 240741.000   -379062.6260  -4940495.9139   4002991.6756   2   7   0.4220   1.0472   0.7426  -0.2220  -0.6355  -0.2351   0.00    1.0
2173 240742.000   -379062.6521  -4940495.7366   4002991.7145   2   7   0.4220   1.0472   0.7425  -0.2221  -0.6354  -0.2351   0.00    1.0
2173 240743.000   -379062.6605  -4940495.7215   4002991.6332   2   7   0.4220   1.0472   0.7424  -0.2223  -0.6353  -0.2350   0.00    1.1
2173 240744.000   -379062.5219  -4940495.6750   4002991.4439   2   7   0.4220   1.0473   0.7423  -0.2224  -0.6352  -0.2350   0.00    1.0
2173 240745.000   -379062.6062  -4940495.8047   4002991.7837   2   7   0.4220   1.0473   0.7422  -0.2225  -0.6350  -0.2349   0.00    1.0
2173 240746.000   -379062.5614  -4940495.7017   4002991.6837   2   7   0.4220   1.0473   0.7421  -0.2226  -0.6349  -0.2349   0.00    1.0
2173 240747.000   -379062.5199  -4940495.9221   4002991.9531   2   7   0.4221   1.0473   0.7420  -0.2228  -0.6348  -0.2348   0.00    1.1
2173 240748.000   -379062.5349  -4940495.5227   4002991.5627   2   7   0.4221   1.0473   0.7419  -0.2229  -0.6347  -0.2348   0.00    1.0
2173 240749.000   -379062.6079  -4940495.1287   4002991.5247   2   7   0.4221   1.0473   0.7418  -0.2230  -0.6345  -0.2347   0.00    1.0
2173 240750.000   -379062.5259  -4940494.8752   4002991.5101   2   7   0.4221   1.0473   0.7417  -0.2231  -0.6344  -0.2347   0.00    1.0
2173 240751.000   -379062.6078  -4940495.0598   4002991.6104   2   7   0.4221   1.0473   0.7416  -0.2233  -0.6343  -0.2346   0.00    1.0
2173 240752.000   -379062.5139  -4940495.1875   4002991.6132   2   7   0.4221   1.0473   0.7415  -0.2234  -0.6342  -0.2346   0.00    1.1
2173 240753.000   -379062.5550  -4940495.3363   4002991.9678   2   7   0.4221   1.0473   0.7414  -0.2235  -0.6341  -0.2345   0.00    1.2
2173 240754.000   -379062.6445  -4940495.2450   4002991.8458   2   7   0.4222   1.0473   0.7413  -0.2236  -0.6339  -0.2345   0.00    1.1
2173 240755.000   -379062.8348  -4940494.7452   4002991.9062   2   7   0.4222   1.0473   0.7412  -0.2238  -0.6338  -0.2344   0.00    1.0
2173 240756.000   -379062.7201  -4940494.9737   4002991.8767   2   7   0.4222   1.0473   0.7411  -0.2239  -0.6337  -0.2344   0.00    1.1
2173 240757.000   -379062.7071  -4940495.3450   4002992.0337   2   7   0.4222   1.0473   0.7410  -0.2240  -0.6336  -0.2343   0.00    1.1
2173 240758.000   -379062.9877  -4940495.2561   4002992.0675   2   7   0.4222   1.0473   0.7409  -0.2241  -0.6335  -0.2343   0.00    1.1
2173 240759.000   -379062.9748  -4940495.3706   4002992.1109   2   7   0.4222   1.0473   0.7408  -0.2243  -0.6333  -0.2342   0.00    1.2
2173 240760.000   -379063.1404  -4940495.0457   4002992.1768   2   7   0.4223   1.0473   0.7407  -0.2244  -0.6332  -0.2342   0.00    1.0
2173 240761.000   -379063.0213  -4940494.9948   4002992.0927   2   7   0.4223   1.0473   0.7406  -0.2245  -0.6331  -0.2341   0.00    1.2
2173 240762.000   -379063.0717  -4940495.0175   4002992.1445   2   7   0.4223   1.0474   0.7405  -0.2246  -0.6330  -0.2341   0.00    1.0
2173 240763.000   -379062.8942  -4940495.2123   4002992.2926   2   7   0.4223   1.0474   0.7404  -0.2247  -0.6328  -0.2340   0.00    1.1
2173 240764.000   -379063.0560  -4940495.3293   4002992.4558   2   7   0.4223   1.0474   0.7403  -0.2249  -0.6327  -0.2340   0.00    1.1
2173 240765.000   -379062.9860  -4940494.8824   4002992.0683   2   7   0.4223   1.0474   0.7403  -0.2250  -0.6326  -0.2339   0.00    1.1
2173 240766.000   -379063.0751  -4940495.1190   4002992.2234   2   7   0.4223   1.0474   0.7402  -0.2251  -0.6325  -0.2339   0.00    1.1
2173 240767.000   -379063.0390  -4940495.1433   4002992.3461   2   7   0.4224   1.0474   0.7401  -0.2252  -0.6324  -0.2338   0.00    1.0
2173 240768.000   -379063.0767  -4940495.0114   4002992.3724   2   7   0.4224   1.0474   0.7400  -0.2254  -0.6322  -0.2338   0.00    1.1
2173 240769.000   -379063.0325  -4940495.0982   4002992.4831   2   7   0.4224   1.0474   0.7399  -0.2255  -0.6321  -0.2337   0.00    1.1
2173 240770.000   -379063.0361  -4940495.4433   4002992.4805   2   7   0.4224   1.0474   0.7398  -0.2256  -0.6320  -0.2337   0.00    1.1
2173 240771.000   -379062.9602  -4940495.1282   4002992.2979   2   7   0.4224   1.0474   0.7397  -0.2257  -0.6319  -0.2336   0.00    1.1
2173 240772.000   -379063.1195  -4940495.3197   4002992.4206   2   7   0.4224   1.0474   0.7396  -0.2258  -0.6318  -0.2336   0.00    1.0
2173 240773.000   -379063.0258  -4940495.0708   4002992.2847   2   7   0.4225   1.0474   0.7395  -0.2260  -0.6316  -0.2336   0.00    1.0
2173 240774.000   -379062.9778  -4940495.0563   4002992.0204   2   7   0.4225   1.0474   0.7394  -0.2261  -0.6315  -0.2335   0.00    1.0
2173 240775.000   -379063.0834  -4940494.7344   4002992.0059   2   7   0.4225   1.0474   0.7393  -0.2262  -0.6314  -0.2335   0.00    1.0
2173 240776.000   -379063.1891  -4940494.4632   4002991.8460   2   7   0.4225   1.0474   0.7392  -0.2263  -0.6313  -0.2334   0.00    1.4
2173 240777.000   -379063.1892  -4940494.7997   4002991.9523   2   7   0.4225   1.0474   0.7391  -0.2264  -0.6312  -0.2334   0.00    1.3
2173 240778.000   -379063.2838  -4940495.0913   4002992.5050   2   7   0.4225   1.0474   0.7390  -0.2266  -0.6310  -0.2333   0.00    1.2
2173 240779.000   -379063.0775  -4940495.5813   4002992.3091   2   7   0.4225   1.0475   0.7389  -0.2267  -0.6309  -0.2333   0.00    1.0
2173 240780.000   -379063.2915  -4940495.4149   4002992.4618   2   7   0.4226   1.0475   0.7388  -0.2268  -0.6308  -0.2332   0.00    1.0
2173 240781.000   -379063.3533  -4940495.1261   4002992.2594   2   7   0.4226   1.0475   0.7387  -0.2269  -0.6307  -0.2332   0.00    1.4
2173 240782.000   -379063.2909  -4940495.0109   4002992.2500   2   7   0.4226   1.0475   0.7386  -0.2270  -0.6306  -0.2331   0.00    1.2
2173 240783.000   -379063.2483  -4940494.8630   4002992.0767   2   7   0.4226   1.0475   0.7386  -0.2272  -0.6304  -0.2331   0.00    1.5
2173 240784.000   -379063.2897  -4940495.0265   4002992.4839   2   7   0.4226   1.0475   0.7385  -0.2273  -0.6303  -0.2330   0.00    1.7
2173 240785.000   -379063.3055  -4940494.6189   4002992.0234   2   7   0.4226   1.0475   0.7384  -0.2274  -0.6302  -0.2330   0.00    1.7
2173 240786.000   -379063.1679  -4940494.8534   4002992.2033   2   7   0.4227   1.0475   0.7383  -0.2275  -0.6301  -0.2329   0.00    1.8
2173 240787.000   -379063.1509  -4940495.5346   4002992.3589   2   7   0.4227   1.0475   0.7382  -0.2276  -0.6300  -0.2329   0.00    1.8
2173 240788.000   -379063.1006  -4940495.2819   4002991.8886   2   7   0.4227   1.0475   0.7381  -0.2278  -0.6298  -0.2328   0.00    1.8
2173 240789.000   -379063.0727  -4940495.1693   4002991.6572   2   7   0.4227   1.0475   0.7380  -0.2279  -0.6297  -0.2328   0.00    1.7
2173 240790.000   -379063.0272  -4940495.2744   4002991.8622   2   7   0.4227   1.0475   0.7379  -0.2280  -0.6296  -0.2327   0.00    1.9
2173 240791.000   -379062.9937  -4940495.2941   4002991.7424   2   7   0.4227   1.0475   0.7378  -0.2281  -0.6295  -0.2327   0.00    1.7
2173 240792.000   -379063.0495  -4940495.0912   4002991.5833   2   7   0.4227   1.0475   0.7377  -0.2282  -0.6294  -0.2327   0.00    1.4
2173 240793.000   -379063.1153  -4940494.9839   4002992.0518   2   7   0.4228   1.0475   0.7376  -0.2284  -0.6292  -0.2326   0.00    1.8
2173 240794.000   -379063.3531  -4940495.1360   4002992.1644   2   7   0.4228   1.0475   0.7375  -0.2285  -0.6291  -0.2326   0.00    1.9
2173 240795.000   -379063.1915  -4940494.9372   4002991.8502   2   7   0.4228   1.0475   0.7374  -0.2286  -0.6290  -0.2325   0.00    1.9
2173 240796.000   -379063.1446  -4940494.9377   4002991.5414   2   7   0.4228   1.0475   0.7373  -0.2287  -0.6289  -0.2325   0.00    1.7
2173 240797.000   -379063.1611  -4940494.8967   4002991.5260   2   7   0.4228   1.0476   0.7373  -0.2288  -0.6288  -0.2324   0.00    1.6
2173 240798.000   -379063.0677  -4940495.4000   4002991.8705   2   7   0.4228   1.0476   0.7372  -0.2290  -0.6286  -0.2324   0.00    1.6
2173 240799.000   -379063.1350  -4940495.7213   4002992.1004   2   7   0.4229   1.0476   0.7371  -0.2291  -0.6285  -0.2323   0.00    1.9
2173 240800.000   -379063.1314  -4940495.5437   4002992.0602   2   7   0.4229   1.0476   0.7370  -0.2292  -0.6284  -0.2323   0.00    2.1
2173 240801.000   -379063.0122  -4940495.2912   4002991.8194   2   7   0.4229   1.0476   0.7369  -0.2293  -0.6283  -0.2322   0.00    1.9
2173 240802.000   -379062.8276  -4940495.4232   4002991.8519   2   7   0.4229   1.0476   0.7368  -0.2294  -0.6282  -0.2322   0.00    1.9
2173 240803.000   -379063.0470  -4940495.3267   4002991.9802   2   7   0.4229   1.0476   0.7367  -0.2295  -0.6280  -0.2321   0.00    1.9
2173 240804.000   -379062.9719  -4940495.2223   4002992.1881   2   7   0.4229   1.0476   0.7366  -0.2297  -0.6279  -0.2321   0.00    2.3
2173 240805.000   -379063.0726  -4940495.0295   4002992.0216   2   7   0.4229   1.0476   0.7365  -0.2298  -0.6278  -0.2320   0.00    2.0
2173 240806.000   -379063.1081  -4940495.5605   4002992.3224   2   7   0.4230   1.0476   0.7364  -0.2299  -0.6277  -0.2320   0.00    2.3
2173 240807.000   -379063.0201  -4940495.5455   4002992.1374   2   7   0.4230   1.0476   0.7363  -0.2300  -0.6276  -0.2320   0.00    2.1
2173 240808.000   -379062.9593  -4940495.7048   4002992.1251   2   7   0.4230   1.0476   0.7362  -0.2301  -0.6274  -0.2319   0.00    2.1
2173 240809.000   -379062.9803  -4940495.3587   4002991.8918   2   7   0.4230   1.0476   0.7361  -0.2302  -0.6273  -0.2319   0.00    2.0
2173 240810.000   -379062.9553  -4940495.3278   4002992.0808   2   7   0.4230   1.0476   0.7361  -0.2304  -0.6272  -0.2318   0.00    2.4
2173 240811.000   -379062.7544  -4940495.6010   4002992.1636   2   7   0.4230   1.0476   0.7360  -0.2305  -0.6271  -0.2318   0.00    2.0
2173 240812.000   -379062.8763  -4940495.4907   4002992.3130   2   7   0.4231   1.0476   0.7359  -0.2306  -0.6270  -0.2317   0.00    2.4
2173 240813.000   -379062.9483  -4940495.2983   4002992.1396   2   7   0.4231   1.0476   0.7358  -0.2307  -0.6268  -0.2317   0.00    2.5
2173 240814.000   -379062.8328  -4940495.6435   4002992.4300   2   7   0.4231   1.0476   0.7357  -0.2308  -0.6267  -0.2316   0.00    2.0
2173 240815.000   -379062.9626  -4940495.5363   4002992.4380   2   7   0.4231   1.0477   0.7356  -0.2309  -0.6266  -0.2316   0.00    2.7
2173 240816.000   -379062.8127  -4940495.4365   4002992.2954   2   7   0.4231   1.0477   0.7355  -0.2311  -0.6265  -0.2315   0.00    2.7
2173 240817.000   -379062.8900  -4940495.3466   4002992.3286   2   7   0.4231   1.0477   0.7354  -0.2312  -0.6264  -0.2315   0.00    2.6
2173 240818.000   -379062.8437  -4940494.8160   4002992.1980   2   7   0.4232   1.0477   0.7353  -0.2313  -0.6262  -0.2314   0.00    2.5
2173 240819.000   -379063.3763  -4940495.1428   4002992.1048   1   7   0.0043   0.0106   0.0074  -0.0023  -0.0063  -0.0023   0.00    3.2
2173 240820.000   -379063.3770  -4940495.1438   4002992.1081   1   7   0.0043   0.0106   0.0074  -0.0023  -0.0063  -0.0023   0.00    3.1
2173 240821.000   -379062.7749  -4940495.8128   4002992.2945   2   7   0.4232   1.0477   0.7351  -0.2316  -0.6259  -0.2313   0.00    2.8
2173 240822.000   -379063.0139  -4940495.5766   4002992.3384   2   7   0.4232   1.0477   0.7350  -0.2317  -0.6258  -0.2313   0.00    2.9
2173 240823.000   -379063.3767  -4940495.1388   4002992.1009   1   7   0.0043   0.0106   0.0074  -0.0023  -0.0063  -0.0023   0.00    3.3
2173 240824.000   -379063.0670  -4940495.5806   4002992.1586   2   7   0.4232   1.0477   0.7348  -0.2320  -0.6255  -0.2312   0.00    2.7
2173 240825.000   -379062.9461  -4940495.5783   4002992.2889   2   7   0.4233   1.0477   0.7347  -0.2321  -0.6254  -0.2311   0.00    2.9
2173 240826.000   -379062.7535  -4940495.5079   4002991.9933   2   7   0.4233   1.0477   0.7346  -0.2322  -0.6253  -0.2311   0.00    2.4
2173 240827.000   -379062.7619  -4940495.2116   4002991.8622   2   7   0.4233   1.0477   0.7345  -0.2323  -0.6252  -0.2310   0.00    2.3
2173 240828.000   -379062.6792  -4940495.5187   4002992.1288   2   7   0.4233   1.0477   0.7344  -0.2324  -0.6250  -0.2310   0.00    2.0
2173 240829.000   -379062.7481  -4940495.8010   4002992.3971   2   7   0.4233   1.0477   0.7343  -0.2326  -0.6249  -0.2310   0.00    2.3
2173 240830.000   -379062.8334  -4940495.8610   4002992.5037   2   7   0.4233   1.0477   0.7343  -0.2327  -0.6248  -0.2309   0.00    1.8
2173 240831.000   -379063.0419  -4940495.5125   4002992.4240   2   7   0.4234   1.0477   0.7342  -0.2328  -0.6247  -0.2309   0.00    2.2
2173 240832.000   -379063.0226  -4940495.7710   4002992.5936   2   7   0.4234   1.0477   0.7341  -0.2329  -0.6246  -0.2308   0.00    2.8
2173 240833.000   -379062.8084  -4940495.2837   4002992.2561   2   7   0.4234   1.0478   0.7340  -0.2330  -0.6245  -0.2308   0.00    2.3
2173 240834.000   -379062.8471  -4940495.7397   4002992.4257   2   7   0.4234   1.0478   0.7339  -0.2331  -0.6243  -0.2307   0.00    2.7
2173 240835.000   -379062.7801  -4940495.8543   4002992.3598   2   7   0.4234   1.0478   0.7338  -0.2332  -0.6242  -0.2307   0.00    2.3
2173 240836.000   -379062.8296  -4940495.7201   4002992.2686   2   7   0.4234   1.0478   0.7337  -0.2333  -0.6241  -0.2306   0.00    2.6
2173 240837.000   -379062.7768  -4940495.4728   4002992.0606   2   7   0.4235   1.0478   0.7336  -0.2335  -0.6240  -0.2306   0.00    2.3
2173 240838.000   -379062.8506  -4940495.2476   4002992.0915   2   7   0.4235   1.0478   0.7335  -0.2336  -0.6239  -0.2305   0.00    2.5
2173 240839.000   -379062.9221  -4940495.3197   4002992.1943   2   7   0.4235   1.0478   0.7335  -0.2337  -0.6237  -0.2305   0.00    3.0
2173 240840.000   -379063.3778  -4940495.1468   4002992.1101   1   7   0.0043   0.0106   0.0074  -0.0024  -0.0063  -0.0023   0.00    3.6
2173 240841.000   -379062.8460  -4940495.2743   4002992.2158   2   7   0.4235   1.0478   0.7333  -0.2339  -0.6235  -0.2304   0.00    2.8
2173 240842.000   -379063.3795  -4940495.1420   4002992.1155   1   7   0.0043   0.0106   0.0074  -0.0024  -0.0063  -0.0023   0.00    3.4
2173 240843.000   -379063.3787  -4940495.1481   4002992.1158   1   7   0.0043   0.0106   0.0074  -0.0024  -0.0063  -0.0023   0.00    3.1
2173 240844.000   -379063.3789  -4940495.1458   4002992.1167   1   7   0.0043   0.0106   0.0074  -0.0024  -0.0063  -0.0023   0.00    3.3
2173 240845.000   -379063.3779  -4940495.1448   4002992.1147   1   7   0.0043   0.0106   0.0074  -0.0024  -0.0063  -0.0023   0.00    3.3
2173 240846.000   -379063.3788  -4940495.1473   4002992.1149   1   7   0.0043   0.0106   0.0074  -0.0024  -0.0063  -0.0023   0.00    4.4
2173 240847.000   -379063.3788  -4940495.1436   4002992.1139   1   7   0.0043   0.0106   0.0074  -0.0024  -0.0063  -0.0023   0.00    4.0
2173 240848.000   -379063.3753  -4940495.1441   4002992.1129   1   7   0.0043   0.0106   0.0074  -0.0024  -0.0063  -0.0023   0.00    3.9
2173 240849.000   -379063.3750  -4940495.1468   4002992.1142   1   7   0.0043   0.0106   0.0074  -0.0024  -0.0063  -0.0023   0.00    3.6
2173 240850.000   -379063.3753  -4940495.1491   4002992.1132   1   7   0.0043   0.0106   0.0074  -0.0024  -0.0063  -0.0023   0.00    4.4
2173 240851.000   -379063.3761  -4940495.1461   4002992.1120   1   7   0.0043   0.0106   0.0074  -0.0024  -0.0063  -0.0023   0.00    3.9
2173 240852.000   -379063.3765  -4940495.1506   4002992.1174   1   7   0.0043   0.0106   0.0074  -0.0024  -0.0063  -0.0023   0.00    4.1
2173 240853.000   -379063.3754  -4940495.1452   4002992.1152   1   7   0.0043   0.0106   0.0074  -0.0024  -0.0063  -0.0023   0.00    3.2
2173 240854.000   -379063.3758  -4940495.1440   4002992.1118   1   7   0.0043   0.0106   0.0074  -0.0024  -0.0063  -0.0023   0.00    3.4
2173 240855.000   -379063.3762  -4940495.1459   4002992.1125   1   7   0.0043   0.0106   0.0074  -0.0024  -0.0063  -0.0023   0.00    3.7
2173 240856.000   -379063.1355  -4940495.5972   4002992.6007   2   7   0.4238   1.0479   0.7320  -0.2356  -0.6217  -0.2298   0.00    2.9
2173 240857.000   -379063.3767  -4940495.1485   4002992.1153   1   7   0.0043   0.0106   0.0074  -0.0024  -0.0063  -0.0023   0.00    3.7
2173 240858.000   -379063.3757  -4940495.1480   4002992.1166   1   7   0.0043   0.0106   0.0074  -0.0024  -0.0063  -0.0023   0.00    3.4
2173 240859.000   -379063.3753  -4940495.1495   4002992.1156   1   7   0.0043   0.0106   0.0074  -0.0024  -0.0063  -0.0023   0.00    3.2
2173 240860.000   -379062.8516  -4940495.5033   4002992.1829   2   7   0.4238   1.0479   0.7316  -0.2360  -0.6212  -0.2296   0.00    2.8
2173 240861.000   -379062.7535  -4940495.7649   4002992.5902   2   7   0.4238   1.0479   0.7315  -0.2361  -0.6211  -0.2295   0.00    2.8
2173 240862.000   -379063.3772  -4940495.1455   4002992.1177   1   7   0.0043   0.0106   0.0074  -0.0024  -0.0063  -0.0023   0.00    3.2
2173 240863.000   -379062.7717  -4940495.6350   4002992.6047   2   7   0.4239   1.0479   0.7314  -0.2364  -0.6209  -0.2295   0.00    2.8
2173 240864.000   -379063.3766  -4940495.1464   4002992.1191   1   7   0.0043   0.0106   0.0074  -0.0024  -0.0063  -0.0023   0.00    3.7
2173 240865.000   -379063.3778  -4940495.1483   4002992.1220   1   7   0.0043   0.0106   0.0074  -0.0024  -0.0063  -0.0023   0.00    3.5
2173 240866.000   -379063.3771  -4940495.1488   4002992.1172   1   7   0.0043   0.0106   0.0074  -0.0024  -0.0063  -0.0023   0.00    3.6
2173 240867.000   -379063.3780  -4940495.1502   4002992.1173   1   7   0.0043   0.0106   0.0074  -0.0024  -0.0063  -0.0023   0.00    4.5
2173 240868.000   -379063.3768  -4940495.1482   4002992.1182   1   7   0.0043   0.0106   0.0074  -0.0024  -0.0063  -0.0023   0.00    4.5
2173 240869.000   -379063.3755  -4940495.1540   4002992.1198   1   7   0.0043   0.0106   0.0074  -0.0024  -0.0063  -0.0023   0.00    4.6
2173 240870.000   -379063.3769  -4940495.1535   4002992.1197   1   7   0.0043   0.0106   0.0074  -0.0024  -0.0063  -0.0023   0.00    3.9
2173 240871.000   -379063.3773  -4940495.1522   4002992.1198   1   7   0.0043   0.0106   0.0074  -0.0024  -0.0063  -0.0023   0.00    3.7
2173 240872.000   -379063.3760  -4940495.1544   4002992.1169   1   7   0.0043   0.0106   0.0074  -0.0024  -0.0063  -0.0023   0.00    3.8
2173 240873.000   -379063.3772  -4940495.1554   4002992.1151   1   7   0.0043   0.0106   0.0074  -0.0024  -0.0063  -0.0023   0.00    4.1
2173 240874.000   -379063.3762  -4940495.1579   4002992.1199   1   7   0.0043   0.0106   0.0074  -0.0024  -0.0063  -0.0023   0.00    3.7
2173 240875.000   -379063.3761  -4940495.1540   4002992.1168   1   7   0.0043   0.0106   0.0074  -0.0024  -0.0063  -0.0023   0.00    3.5
2173 240876.000   -379063.3765  -4940495.1535   4002992.1165   1   7   0.0043   0.0106   0.0074  -0.0024  -0.0063  -0.0023   0.00    4.4
2173 240877.000   -379063.3765  -4940495.1561   4002992.1202   1   7   0.0043   0.0106   0.0074  -0.0024  -0.0063  -0.0023   0.00    3.8
2173 240878.000   -379063.3759  -4940495.1556   4002992.1172   1   7   0.0043   0.0106   0.0074  -0.0024  -0.0063  -0.0023   0.00    3.1
2173 240879.000   -379063.3790  -4940495.1562   4002992.1169   1   7   0.0043   0.0106   0.0074  -0.0024  -0.0063  -0.0023   0.00    3.1
2173 240880.000   -379063.3783  -4940495.1578   4002992.1199   1   7   0.0043   0.0106   0.0074  -0.0024  -0.0063  -0.0023   0.00    3.5
2173 240881.000   -379063.3792  -4940495.1567   4002992.1184   1   7   0.0043   0.0106   0.0074  -0.0024  -0.0063  -0.0023   0.00    3.7
2173 240882.000   -379063.3771  -4940495.1614   4002992.1184   1   7   0.0043   0.0106   0.0074  -0.0024  -0.0063  -0.0023   0.00    3.2
2173 240883.000   -379063.3757  -4940495.1627   4002992.1175   1   7   0.0043   0.0106   0.0074  -0.0024  -0.0063  -0.0023   0.00    3.5
2173 240884.000   -379063.3766  -4940495.1627   4002992.1196   1   7   0.0043   0.0106   0.0074  -0.0024  -0.0062  -0.0023   0.00    3.7
2173 240885.000   -379063.3781  -4940495.1626   4002992.1176   1   7   0.0043   0.0106   0.0074  -0.0024  -0.0062  -0.0023   0.00    3.5
2173 240886.000   -379063.3794  -4940495.1634   4002992.1189   1   7   0.0043   0.0106   0.0074  -0.0024  -0.0062  -0.0023   0.00    3.6
2173 240887.000   -379063.3759  -4940495.1642   4002992.1184   1   7   0.0043   0.0106   0.0074  -0.0024  -0.0062  -0.0023   0.00    3.8
2173 240888.000   -379063.3780  -4940495.1628   4002992.1179   1   7   0.0043   0.0106   0.0074  -0.0024  -0.0062  -0.0023   0.00    3.9
2173 240889.000   -379063.3754  -4940495.1651   4002992.1208   1   7   0.0043   0.0106   0.0074  -0.0024  -0.0062  -0.0023   0.00    3.4
2173 240890.000   -379063.3774  -4940495.1640   4002992.1217   1   7   0.0043   0.0106   0.0074  -0.0024  -0.0062  -0.0023   0.00    3.7
2173 240891.000   -379063.3742  -4940495.1622   4002992.1176   1   7   0.0043   0.0106   0.0074  -0.0024  -0.0062  -0.0023   0.00    3.7
2173 240892.000   -379063.3776  -4940495.1653   4002992.1195   1   7   0.0043   0.0106   0.0074  -0.0024  -0.0062  -0.0023   0.00    4.7
2173 240893.000   -379063.3805  -4940495.1584   4002992.1202   1   7   0.0043   0.0106   0.0073  -0.0024  -0.0062  -0.0023   0.00    4.9
2173 240894.000   -379063.3769  -4940495.1645   4002992.1198   1   7   0.0043   0.0106   0.0073  -0.0024  -0.0062  -0.0023   0.00    4.6
2173 240895.000   -379063.3781  -4940495.1634   4002992.1186   1   7   0.0043   0.0106   0.0073  -0.0024  -0.0062  -0.0023   0.00    3.7
2173 240896.000   -379063.3771  -4940495.1651   4002992.1163   1   7   0.0043   0.0106   0.0073  -0.0024  -0.0062  -0.0023   0.00    3.5
2173 240897.000   -379063.3779  -4940495.1632   4002992.1162   1   7   0.0043   0.0106   0.0073  -0.0024  -0.0062  -0.0023   0.00    4.2
2173 240898.000   -379063.3774  -4940495.1630   4002992.1165   1   7   0.0043   0.0106   0.0073  -0.0024  -0.0062  -0.0023   0.00    3.7
2173 240899.000   -379063.3756  -4940495.1665   4002992.1176   1   7   0.0043   0.0106   0.0073  -0.0024  -0.0062  -0.0023   0.00    3.7
2173 240900.000   -379063.3776  -4940495.1602   4002992.1185   1   7   0.0043   0.0106   0.0073  -0.0024  -0.0062  -0.0023   0.00    3.7
2173 240901.000   -379063.3758  -4940495.1624   4002992.1183   1   7   0.0043   0.0106   0.0073  -0.0024  -0.0062  -0.0023   0.00    3.8
2173 240902.000   -379063.3751  -4940495.1614   4002992.1157   1   7   0.0043   0.0106   0.0073  -0.0024  -0.0062  -0.0023   0.00    4.5
2173 240903.000   -379063.3752  -4940495.1636   4002992.1191   1   7   0.0043   0.0106   0.0073  -0.0024  -0.0062  -0.0023   0.00    4.6
2173 240904.000   -379063.3753  -4940495.1661   4002992.1194   1   7   0.0043   0.0106   0.0073  -0.0024  -0.0062  -0.0023   0.00    4.5
2173 240905.000   -379063.3757  -4940495.1641   4002992.1178   1   7   0.0043   0.0106   0.0073  -0.0024  -0.0062  -0.0023   0.00    4.1
2173 240906.000   -379063.3737  -4940495.1639   4002992.1192   1   7   0.0043   0.0106   0.0073  -0.0024  -0.0062  -0.0023   0.00    3.2
2173 240907.000   -379063.3737  -4940495.1653   4002992.1200   1   7   0.0043   0.0106   0.0073  -0.0024  -0.0062  -0.0023   0.00    4.5
2173 240908.000   -379063.3757  -4940495.1654   4002992.1220   1   7   0.0043   0.0106   0.0073  -0.0024  -0.0062  -0.0023   0.00    4.6
2173 240909.000   -379063.3749  -4940495.1638   4002992.1206   1   7   0.0043   0.0106   0.0073  -0.0024  -0.0062  -0.0023   0.00    4.2
2173 240910.000   -379063.3759  -4940495.1620   4002992.1232   1   7   0.0043   0.0106   0.0073  -0.0024  -0.0062  -0.0023   0.00    4.7
2173 240911.000   -379063.3766  -4940495.1664   4002992.1211   1   7   0.0043   0.0106   0.0073  -0.0024  -0.0062  -0.0023   0.00    3.8
2173 240912.000   -379063.3753  -4940495.1666   4002992.1204   1   7   0.0043   0.0106   0.0073  -0.0024  -0.0062  -0.0023   0.00    4.7
2173 240913.000   -379063.3777  -4940495.1674   4002992.1234   1   7   0.0043   0.0106   0.0073  -0.0024  -0.0062  -0.0023   0.00    3.9
2173 240914.000   -379063.3747  -4940495.1673   4002992.1171   1   8   0.0041   0.0106   0.0065  -0.0027  -0.0060  -0.0011   0.00    3.8
2173 240915.000   -379063.3741  -4940495.1628   4002992.1165   1   8   0.0041   0.0106   0.0065  -0.0027  -0.0060  -0.0011   0.00    3.2
2173 240916.000   -379063.3746  -4940495.1622   4002992.1163   1   8   0.0041   0.0106   0.0065  -0.0027  -0.0060  -0.0011   0.00    3.4
2173 240917.000   -379063.3738  -4940495.1641   4002992.1143   1   8   0.0041   0.0106   0.0065  -0.0027  -0.0060  -0.0011   0.00    3.5
2173 240918.000   -379063.3752  -4940495.1617   4002992.1138   1   8   0.0041   0.0106   0.0065  -0.0027  -0.0060  -0.0011   0.00    4.3
2173 240919.000   -379063.3750  -4940495.1614   4002992.1124   1   8   0.0041   0.0106   0.0065  -0.0027  -0.0060  -0.0011   0.00    3.4
2173 240920.000   -379063.3749  -4940495.1621   4002992.1136   1   8   0.0041   0.0106   0.0065  -0.0027  -0.0060  -0.0011   0.00    3.3
