% program   : rnx2rtkp ver.2.4.3 b31
% inp file  : ngs/21_08_28_06_06_41_txda.obs
% inp file  : ngs/21_08_28_06_06_41_txda_SNTX.obs
% inp file  : ngs/21_08_28_06_06_41_brdc.nav
% obs start : 2021/08/28 06:00:00.0 GPST (week2172 540000.0s)
% obs end   : 2021/08/28 06:59:59.0 GPST (week2172 543599.0s)
% ref pos   :  -623595.6246  -5330169.5275   3435333.5519
%
% (x/y/z-ecef=WGS84,Q=1:fix,2:float,3:sbas,4:dgps,5:single,6:ppp,ns=# of satellites)
%  GPST              x-ecef(m)      y-ecef(m)      z-ecef(m)   Q  ns   sdx(m)   sdy(m)   sdz(m)  sdxy(m)  sdyz(m)  sdzx(m) age(s)  ratio
2172 540377.000   -623611.7322  -5330304.7973   3435421.6699   2   7   0.4613   1.0986   1.1853   0.1672  -1.0327   0.1268 -30.00    2.8
2172 540378.000   -623611.7763  -5330304.6941   3435421.6837   2   7   0.3282   0.7831   0.8436   0.1167  -0.7358   0.0931 -29.00    2.1
2172 540379.000   -623611.8683  -5330304.7697   3435421.8099   2   7   0.2688   0.6414   0.6907   0.0950  -0.6026   0.0767 -28.00    1.6
2172 540380.000   -623611.8407  -5330304.6756   3435421.6982   2   7   0.2332   0.5564   0.5992   0.0823  -0.5227   0.0665 -27.00    1.8
2172 540381.000   -623611.8108  -5330304.6821   3435421.7438   2   7   0.2088   0.4983   0.5365   0.0736  -0.4681   0.0595 -26.00    1.9
2172 540382.000   -623611.8021  -5330304.6164   3435421.6775   2   7   0.1908   0.4553   0.4902   0.0672  -0.4276   0.0543 -25.00    2.1
2172 540383.000   -623611.8000  -5330304.6109   3435421.6239   2   7   0.1768   0.4218   0.4541   0.0623  -0.3961   0.0503 -24.00    2.3
2172 540384.000   -623611.7970  -5330304.6267   3435421.6301   2   7   0.1655   0.3947   0.4249   0.0582  -0.3707   0.0470 -23.00    2.4
2172 540385.000   -623611.8115  -5330304.6049   3435421.5914   2   7   0.1561   0.3722   0.4007   0.0549  -0.3496   0.0443 -22.00    2.4
2172 540386.000   -623611.7928  -5330304.5685   3435421.5106   2   7   0.1481   0.3532   0.3801   0.0520  -0.3316   0.0421 -21.00    2.7
2172 540387.000   -623611.7869  -5330304.5759   3435421.4905   2   7   0.1413   0.3368   0.3624   0.0496  -0.3162   0.0402 -20.00    2.8
2172 540388.000   -623611.7832  -5330304.5573   3435421.4753   2   7   0.1353   0.3224   0.3469   0.0474  -0.3027   0.0385 -19.00    3.0
2172 540389.000   -623611.4405  -5330304.7205   3435421.2575   1   7   0.0151   0.0312   0.0406   0.0107  -0.0312  -0.0101 -18.00    3.0
2172 540390.000   -623611.4421  -5330304.7199   3435421.2597   1   7   0.0144   0.0297   0.0385   0.0101  -0.0297  -0.0095 -17.00    3.2
2172 540391.000   -623611.4406  -5330304.7151   3435421.2523   1   7   0.0137   0.0282   0.0365   0.0095  -0.0282  -0.0089 -16.00    3.4
2172 540392.000   -623611.4419  -5330304.7233   3435421.2590   1   7   0.0129   0.0268   0.0345   0.0089  -0.0267  -0.0083 -15.00    3.6
2172 540393.000   -623611.4447  -5330304.7203   3435421.2552   1   7   0.0122   0.0253   0.0325   0.0083  -0.0253  -0.0077 -14.00    3.8
2172 540394.000   -623611.4445  -5330304.7227   3435421.2569   1   7   0.0115   0.0239   0.0305   0.0078  -0.0238  -0.0071 -13.00    3.9
2172 540395.000   -623611.4445  -5330304.7278   3435421.2618   1   7   0.0108   0.0226   0.0286   0.0072  -0.0224  -0.0065 -12.00    4.1
2172 540396.000   -623611.4412  -5330304.7344   3435421.2667   1   7   0.0101   0.0212   0.0266   0.0066  -0.0210  -0.0059 -11.00    4.4
2172 540397.000   -623611.4418  -5330304.7326   3435421.2654   1   7   0.0095   0.0199   0.0247   0.0061  -0.0196  -0.0052 -10.00    4.6
2172 540398.000   -623611.4426  -5330304.7298   3435421.2648   1   7   0.0088   0.0186   0.0229   0.0055  -0.0182  -0.0046  -9.00    4.7
2172 540399.000   -623611.4441  -5330304.7336   3435421.2664   1   7   0.0082   0.0173   0.0211   0.0049  -0.0170  -0.0040  -8.00    4.8
2172 540400.000   -623611.4419  -5330304.7325   3435421.2659   1   7   0.0075   0.0162   0.0194   0.0043  -0.0157  -0.0033  -7.00    5.0
2172 540401.000   -623611.4435  -5330304.7401   3435421.2729   1   7   0.0068   0.0151   0.0178   0.0038  -0.0146  -0.0028  -6.00    5.3
2172 540402.000   -623611.4439  -5330304.7391   3435421.2731   1   7   0.0064   0.0140   0.0162   0.0034  -0.0135  -0.0021  -5.00    5.6
2172 540403.000   -623611.4427  -5330304.7420   3435421.2768   1   7   0.0058   0.0131   0.0148   0.0029  -0.0125  -0.0014  -4.00    6.1
2172 540404.000   -623611.4449  -5330304.7474   3435421.2807   1   7   0.0054   0.0123   0.0137   0.0023  -0.0117  -0.0011  -3.00    6.5
2172 540405.000   -623611.4437  -5330304.7513   3435421.2847   1   7   0.0051   0.0116   0.0127   0.0016  -0.0111   0.0012  -2.00    7.2
2172 540406.000   -623611.4454  -5330304.7488   3435421.2826   1   7   0.0047   0.0113   0.0121   0.0013  -0.0105   0.0014  -1.00    7.8
2172 540407.000   -623611.4414  -5330304.7576   3435421.2902   1   7   0.0047   0.0111   0.0119   0.0013  -0.0104   0.0015   0.00    8.3
2172 540408.000   -623611.4434  -5330304.7521   3435421.2893   1   7   0.0047   0.0111   0.0119   0.0011  -0.0104   0.0015   0.00    8.4
2172 540409.000   -623611.4411  -5330304.7510   3435421.2834   1   7   0.0047   0.0111   0.0119   0.0017  -0.0104   0.0015   0.00    8.6
2172 540410.000   -623611.4412  -5330304.7513   3435421.2861   1   7   0.0046   0.0110   0.0118   0.0014  -0.0104   0.0013   0.00    8.7
2172 540411.000   -623611.4420  -5330304.7490   3435421.2813   1   7   0.0049   0.0110   0.0118   0.0013  -0.0105   0.0009   0.00    8.7
2172 540412.000   -623611.4374  -5330304.7508   3435421.2878   1   7   0.0046   0.0111   0.0120   0.0017  -0.0104   0.0018   0.00    8.9
2172 540413.000   -623611.4391  -5330304.7502   3435421.2849   1   7   0.0048   0.0110   0.0119   0.0013  -0.0104   0.0020   0.00    8.9
2172 540414.000   -623611.4452  -5330304.7490   3435421.2840   1   7   0.0047   0.0111   0.0118   0.0020  -0.0104   0.0017   0.00    9.0
2172 540415.000   -623611.4438  -5330304.7477   3435421.2824   1   7   0.0047   0.0111   0.0118   0.0021  -0.0104   0.0008   0.00    9.0
2172 540416.000   -623611.4432  -5330304.7571   3435421.2929   1   7   0.0047   0.0110   0.0119   0.0018  -0.0104   0.0016   0.00    9.1
2172 540417.000   -623611.4431  -5330304.7521   3435421.2884   1   7   0.0049   0.0111   0.0118   0.0015  -0.0104   0.0011   0.00    9.3
2172 540418.000   -623611.4436  -5330304.7505   3435421.2857   1   7   0.0042   0.0111   0.0118   0.0024  -0.0104  -0.0012   0.00    9.4
2172 540419.000   -623611.4412  -5330304.7468   3435421.2847   1   7   0.0043   0.0110   0.0118   0.0013  -0.0104   0.0010   0.00    9.3
2172 540420.000   -623611.4427  -5330304.7535   3435421.2918   1   7   0.0048   0.0111   0.0118   0.0016  -0.0104  -0.0009   0.00    9.4
2172 540421.000   -623611.4415  -5330304.7468   3435421.2823   1   7   0.0046   0.0112   0.0119   0.0021  -0.0103  -0.0002   0.00    9.4
2172 540422.000   -623611.4399  -5330304.7490   3435421.2837   1   7   0.0046   0.0110   0.0118   0.0018  -0.0104   0.0005   0.00    9.5
2172 540423.000   -623611.4415  -5330304.7490   3435421.2846   1   7   0.0047   0.0111   0.0118   0.0021  -0.0104   0.0019   0.00    9.5
2172 540424.000   -623611.4419  -5330304.7474   3435421.2861   1   7   0.0047   0.0111   0.0118   0.0024  -0.0104   0.0014   0.00    9.5
2172 540425.000   -623611.4418  -5330304.7529   3435421.2888   1   7   0.0041   0.0111   0.0118   0.0015  -0.0103   0.0019   0.00    9.5
2172 540426.000   -623611.4393  -5330304.7544   3435421.2899   1   7   0.0048   0.0111   0.0118   0.0016  -0.0103   0.0020   0.00    9.6
2172 540427.000   -623611.4402  -5330304.7529   3435421.2878   1   7   0.0046   0.0111   0.0118   0.0015  -0.0103   0.0005   0.00    9.8
2172 540428.000   -623611.4396  -5330304.7527   3435421.2894   1   7   0.0044   0.0110   0.0118   0.0027  -0.0104   0.0014   0.00    9.9
2172 540429.000   -623611.4426  -5330304.7474   3435421.2815   1   7   0.0046   0.0111   0.0118   0.0011  -0.0103   0.0005   0.00   10.0
2172 540430.000   -623611.4410  -5330304.7544   3435421.2886   1   7   0.0046   0.0111   0.0118   0.0023  -0.0104   0.0020   0.00   10.0
2172 540431.000   -623611.4412  -5330304.7533   3435421.2895   1   7   0.0047   0.0111   0.0118   0.0019  -0.0103   0.0009   0.00   10.0
2172 540432.000   -623611.4422  -5330304.7511   3435421.2876   1   7   0.0050   0.0111   0.0118   0.0018  -0.0103   0.0013   0.00   10.0
2172 540433.000   -623611.4395  -5330304.7556   3435421.2924   1   7   0.0051   0.0110   0.0118   0.0017  -0.0103  -0.0004   0.00   10.1
2172 540434.000   -623611.4424  -5330304.7480   3435421.2839   1   7   0.0045   0.0110   0.0118   0.0011  -0.0104   0.0004   0.00    9.8
2172 540435.000   -623611.4389  -5330304.7450   3435421.2841   1   7   0.0050   0.0110   0.0118   0.0008  -0.0104   0.0019   0.00    9.7
2172 540436.000   -623611.4421  -5330304.7481   3435421.2853   1   7   0.0047   0.0111   0.0118   0.0017  -0.0103   0.0019   0.00    9.6
2172 540437.000   -623611.4409  -5330304.7461   3435421.2848   1   7   0.0047   0.0111   0.0118   0.0019  -0.0103  -0.0003   0.00    9.5
2172 540438.000   -623611.4427  -5330304.7469   3435421.2838   1   7   0.0049   0.0111   0.0118   0.0005  -0.0103   0.0007   0.00    9.5
2172 540439.000   -623611.4406  -5330304.7546   3435421.2883   1   7   0.0049   0.0111   0.0119   0.0026  -0.0103   0.0007   0.00    9.4
2172 540440.000   -623611.4405  -5330304.7595   3435421.2945   1   7   0.0044   0.0110   0.0117   0.0015  -0.0104   0.0015   0.00    9.3
2172 540441.000   -623611.4396  -5330304.7479   3435421.2877   1   7   0.0044   0.0111   0.0118   0.0021  -0.0103  -0.0007   0.00    9.3
2172 540442.000   -623611.4387  -5330304.7504   3435421.2869   1   7   0.0044   0.0110   0.0118   0.0014  -0.0103   0.0008   0.00    9.3
2172 540443.000   -623611.4397  -5330304.7583   3435421.2924   1   7   0.0047   0.0111   0.0118   0.0013  -0.0103   0.0010   0.00    9.3
2172 540444.000   -623611.4394  -5330304.7548   3435421.2913   1   7   0.0046   0.0111   0.0117   0.0007  -0.0103   0.0007   0.00    9.3
2172 540445.000   -623611.4420  -5330304.7503   3435421.2875   1   7   0.0048   0.0111   0.0118   0.0021  -0.0103  -0.0003   0.00    9.2
2172 540446.000   -623611.4413  -5330304.7457   3435421.2843   1   7   0.0047   0.0111   0.0118   0.0016  -0.0102   0.0011   0.00    9.1
2172 540447.000   -623611.4416  -5330304.7485   3435421.2860   1   7   0.0045   0.0110   0.0118   0.0018  -0.0104   0.0004   0.00    9.1
2172 540448.000   -623611.4413  -5330304.7483   3435421.2866   1   7   0.0045   0.0111   0.0117   0.0022  -0.0102   0.0017   0.00    9.0
2172 540449.000   -623611.4405  -5330304.7439   3435421.2786   1   7   0.0047   0.0111   0.0118   0.0019  -0.0103   0.0011   0.00    9.0
2172 540450.000   -623611.4399  -5330304.7470   3435421.2847   1   7   0.0046   0.0112   0.0117   0.0023  -0.0103   0.0014   0.00    8.9
2172 540451.000   -623611.4398  -5330304.7467   3435421.2870   1   7   0.0047   0.0110   0.0118   0.0023  -0.0103  -0.0010   0.00    8.9
2172 540452.000   -623611.4391  -5330304.7506   3435421.2876   1   7   0.0046   0.0111   0.0118   0.0012  -0.0103   0.0007   0.00    8.9
2172 540453.000   -623611.4430  -5330304.7495   3435421.2828   1   7   0.0045   0.0111   0.0118   0.0013  -0.0103  -0.0005   0.00    8.8
2172 540454.000   -623611.4395  -5330304.7505   3435421.2905   1   7   0.0047   0.0110   0.0118   0.0019  -0.0103  -0.0007   0.00    8.8
2172 540455.000   -623611.4403  -5330304.7485   3435421.2850   1   7   0.0044   0.0110   0.0118   0.0014  -0.0103   0.0007   0.00    8.8
2172 540456.000   -623611.4390  -5330304.7482   3435421.2861   1   7   0.0047   0.0111   0.0117   0.0020  -0.0103   0.0019   0.00    8.8
2172 540457.000   -623611.4402  -5330304.7511   3435421.2901   1   7   0.0045   0.0111   0.0117   0.0016  -0.0102   0.0011   0.00    8.7
2172 540458.000   -623611.4417  -5330304.7402   3435421.2767   1   7   0.0048   0.0110   0.0117   0.0013  -0.0103   0.0021   0.00    8.6
2172 540459.000   -623611.4398  -5330304.7427   3435421.2846   1   7   0.0051   0.0110   0.0118   0.0014  -0.0102   0.0019   0.00    8.6
2172 540460.000   -623611.4406  -5330304.7409   3435421.2812   1   7   0.0042   0.0111   0.0117   0.0019  -0.0102   0.0013   0.00    8.6
2172 540461.000   -623611.4392  -5330304.7546   3435421.2933   1   7   0.0048   0.0111   0.0118   0.0014  -0.0102  -0.0011   0.00    8.7
2172 540462.000   -623611.4397  -5330304.7462   3435421.2865   1   7   0.0048   0.0110   0.0117   0.0014  -0.0103   0.0022   0.00    8.7
2172 540463.000   -623611.4416  -5330304.7433   3435421.2827   1   7   0.0045   0.0110   0.0117   0.0015  -0.0103  -0.0006   0.00    8.7
2172 540464.000   -623611.4405  -5330304.7496   3435421.2892   1   7   0.0047   0.0111   0.0118   0.0021  -0.0102   0.0010   0.00    8.7
2172 540465.000   -623611.4384  -5330304.7537   3435421.2916   1   7   0.0046   0.0109   0.0116   0.0022  -0.0104   0.0015   0.00    8.7
2172 540466.000   -623611.4407  -5330304.7455   3435421.2835   1   7   0.0045   0.0111   0.0116   0.0027  -0.0102   0.0009   0.00    8.8
2172 540467.000   -623611.4415  -5330304.7512   3435421.2882   1   7   0.0044   0.0110   0.0117   0.0021  -0.0103   0.0013   0.00    8.7
2172 540468.000   -623611.4385  -5330304.7461   3435421.2878   1   7   0.0041   0.0110   0.0118   0.0014  -0.0103   0.0013   0.00    8.8
2172 540469.000   -623611.4444  -5330304.7523   3435421.2837   1   7   0.0046   0.0111   0.0117   0.0011  -0.0102   0.0015   0.00    8.8
2172 540470.000   -623611.4438  -5330304.7404   3435421.2769   1   7   0.0043   0.0111   0.0116   0.0017  -0.0102   0.0014   0.00    8.8
2172 540471.000   -623611.4434  -5330304.7483   3435421.2837   1   7   0.0047   0.0110   0.0117   0.0020  -0.0103  -0.0009   0.00    8.7
2172 540472.000   -623611.4441  -5330304.7454   3435421.2818   1   7   0.0046   0.0110   0.0117   0.0019  -0.0102   0.0016   0.00    8.8
2172 540473.000   -623611.4459  -5330304.7468   3435421.2834   1   7   0.0046   0.0110   0.0117   0.0021  -0.0103   0.0014   0.00    8.7
2172 540474.000   -623611.4414  -5330304.7454   3435421.2837   1   7   0.0044   0.0109   0.0116  -0.0007  -0.0103   0.0018   0.00    8.7
2172 540475.000   -623611.4405  -5330304.7511   3435421.2907   1   7   0.0046   0.0111   0.0117   0.0026  -0.0102  -0.0020   0.00    8.7
2172 540476.000   -623611.4408  -5330304.7461   3435421.2873   1   7   0.0048   0.0109   0.0117   0.0016  -0.0103   0.0002   0.00    8.7
2172 540477.000   -623611.4426  -5330304.7423   3435421.2830   1   7   0.0048   0.0110   0.0116   0.0019  -0.0102   0.0016   0.00    8.7
2172 540478.000   -623611.4419  -5330304.7454   3435421.2869   1   7   0.0047   0.0110   0.0117   0.0016  -0.0103  -0.0011   0.00    8.7
2172 540479.000   -623611.4453  -5330304.7411   3435421.2813   1   7   0.0045   0.0110   0.0116   0.0009  -0.0103   0.0014   0.00    8.6
2172 540480.000   -623611.4428  -5330304.7463   3435421.2837   1   7   0.0044   0.0111   0.0116   0.0025  -0.0102   0.0015   0.00    8.7
2172 540481.000   -623611.4426  -5330304.7456   3435421.2839   1   7   0.0049   0.0111   0.0117   0.0023  -0.0102   0.0011   0.00    8.7
2172 540482.000   -623611.4439  -5330304.7469   3435421.2864   1   7   0.0049   0.0110   0.0116   0.0011  -0.0102   0.0018   0.00    8.7
2172 540483.000   -623611.4432  -5330304.7434   3435421.2820   1   7   0.0048   0.0110   0.0117   0.0020  -0.0103  -0.0005   0.00    8.7
2172 540484.000   -623611.4407  -5330304.7472   3435421.2846   1   7   0.0048   0.0109   0.0117   0.0003  -0.0103   0.0014   0.00    8.8
2172 540485.000   -623611.4432  -5330304.7380   3435421.2786   1   7   0.0045   0.0110   0.0116   0.0012  -0.0102   0.0012   0.00    8.8
2172 540486.000   -623611.4418  -5330304.7409   3435421.2795   1   7   0.0050   0.0110   0.0117   0.0021  -0.0102   0.0017   0.00    8.8
2172 540487.000   -623611.4421  -5330304.7403   3435421.2820   1   7   0.0046   0.0110   0.0116   0.0009  -0.0103  -0.0006   0.00    8.8
2172 540488.000   -623611.4439  -5330304.7351   3435421.2761   1   7   0.0046   0.0110   0.0117   0.0021  -0.0102   0.0007   0.00    8.8
2172 540489.000   -623611.4406  -5330304.7396   3435421.2781   1   7   0.0046   0.0110   0.0116   0.0020  -0.0102   0.0013   0.00    8.8
2172 540490.000   -623611.4398  -5330304.7445   3435421.2842   1   7   0.0047   0.0109   0.0116   0.0010  -0.0102   0.0004   0.00    8.8
2172 540491.000   -623611.4410  -5330304.7458   3435421.2849   1   7   0.0048   0.0110   0.0116   0.0016  -0.0103   0.0015   0.00    8.8
2172 540492.000   -623611.4393  -5330304.7427   3435421.2852   1   7   0.0049   0.0111   0.0116   0.0022  -0.0102   0.0017   0.00    8.9
2172 540493.000   -623611.4393  -5330304.7433   3435421.2842   1   7   0.0048   0.0111   0.0115   0.0017  -0.0102   0.0021   0.00    8.9
2172 540494.000   -623611.4430  -5330304.7404   3435421.2824   1   7   0.0049   0.0110   0.0116   0.0022  -0.0102   0.0009   0.00    8.9
2172 540495.000   -623611.4440  -5330304.7435   3435421.2861   1   7   0.0048   0.0110   0.0116   0.0017  -0.0102   0.0008   0.00    8.9
2172 540496.000   -623611.4411  -5330304.7481   3435421.2848   1   7   0.0052   0.0111   0.0116   0.0016  -0.0102   0.0014   0.00    9.0
2172 540497.000   -623611.4420  -5330304.7421   3435421.2813   1   7   0.0048   0.0110   0.0117   0.0016  -0.0101  -0.0005   0.00    9.1
2172 540498.000   -623611.4441  -5330304.7420   3435421.2800   1   7   0.0047   0.0109   0.0116   0.0008  -0.0102   0.0009   0.00    9.1
2172 540499.000   -623611.4426  -5330304.7424   3435421.2820   1   7   0.0049   0.0111   0.0116   0.0018  -0.0101   0.0021   0.00    9.2
2172 540500.000   -623611.4426  -5330304.7394   3435421.2811   1   7   0.0041   0.0109   0.0116   0.0012  -0.0103   0.0012   0.00    9.2
2172 540501.000   -623611.4436  -5330304.7361   3435421.2742   1   7   0.0049   0.0111   0.0115   0.0025  -0.0101   0.0017   0.00    9.2
2172 540502.000   -623611.4429  -5330304.7372   3435421.2745   1   7   0.0049   0.0110   0.0116   0.0009  -0.0102   0.0018   0.00    9.2
2172 540503.000   -623611.4435  -5330304.7439   3435421.2825   1   7   0.0049   0.0109   0.0116  -0.0006  -0.0102   0.0009   0.00    9.3
2172 540504.000   -623611.4423  -5330304.7401   3435421.2798   1   7   0.0050   0.0110   0.0116   0.0020  -0.0101   0.0017   0.00    9.3
2172 540505.000   -623611.4453  -5330304.7429   3435421.2864   1   7   0.0050   0.0110   0.0116   0.0015  -0.0102   0.0007   0.00    9.4
2172 540506.000   -623611.4427  -5330304.7414   3435421.2846   1   7   0.0045   0.0110   0.0116   0.0020  -0.0102  -0.0014   0.00    9.4
2172 540507.000   -623611.4412  -5330304.7406   3435421.2844   1   7   0.0048   0.0109   0.0116   0.0008  -0.0102   0.0014   0.00    9.4
2172 540508.000   -623611.4431  -5330304.7342   3435421.2757   1   7   0.0048   0.0110   0.0115   0.0023  -0.0102   0.0003   0.00    9.5
2172 540509.000   -623611.4436  -5330304.7410   3435421.2794   1   7   0.0049   0.0110   0.0115   0.0023  -0.0102   0.0017   0.00    9.5
2172 540510.000   -623611.4446  -5330304.7414   3435421.2807   1   7   0.0049   0.0109   0.0116   0.0005  -0.0102   0.0020   0.00    9.6
2172 540511.000   -623611.4434  -5330304.7403   3435421.2811   1   7   0.0045   0.0110   0.0116   0.0019  -0.0101   0.0008   0.00    9.7
2172 540512.000   -623611.4438  -5330304.7444   3435421.2884   1   7   0.0046   0.0110   0.0116   0.0011  -0.0101   0.0009   0.00    9.7
2172 540513.000   -623611.4430  -5330304.7434   3435421.2841   1   7   0.0046   0.0109   0.0115   0.0017  -0.0102  -0.0011   0.00    9.8
2172 540514.000   -623611.4421  -5330304.7401   3435421.2826   1   7   0.0043   0.0109   0.0115   0.0027  -0.0102   0.0015   0.00    9.8
2172 540515.000   -623611.4423  -5330304.7428   3435421.2856   1   7   0.0049   0.0109   0.0115   0.0023  -0.0102   0.0012   0.00    9.9
2172 540516.000   -623611.4430  -5330304.7411   3435421.2835   1   7   0.0046   0.0109   0.0115   0.0001  -0.0102   0.0008   0.00   10.0
2172 540517.000   -623611.4416  -5330304.7373   3435421.2769   1   7   0.0049   0.0111   0.0116   0.0025  -0.0101   0.0013   0.00   10.1
2172 540518.000   -623611.4455  -5330304.7433   3435421.2839   1   7   0.0047   0.0109   0.0115   0.0015  -0.0101  -0.0008   0.00   10.2
2172 540519.000   -623611.4424  -5330304.7357   3435421.2787   1   7   0.0049   0.0110   0.0117   0.0016  -0.0101   0.0010   0.00   10.2
2172 540520.000   -623611.4404  -5330304.7360   3435421.2788   1   7   0.0050   0.0109   0.0116   0.0012  -0.0102   0.0004   0.00   10.4
2172 540521.000   -623611.4405  -5330304.7372   3435421.2803   1   7   0.0047   0.0110   0.0115   0.0014  -0.0101  -0.0007   0.00   10.4
2172 540522.000   -623611.4401  -5330304.7376   3435421.2796   1   7   0.0046   0.0110   0.0116   0.0022  -0.0101  -0.0007   0.00   10.6
2172 540523.000   -623611.4388  -5330304.7375   3435421.2816   1   7   0.0048   0.0109   0.0115   0.0014  -0.0102  -0.0011   0.00   10.7
2172 540524.000   -623611.4434  -5330304.7410   3435421.2792   1   7   0.0046   0.0109   0.0115   0.0019  -0.0102   0.0021   0.00   10.8
2172 540525.000   -623611.4419  -5330304.7459   3435421.2834   1   7   0.0047   0.0110   0.0115   0.0022  -0.0101   0.0017   0.00   10.9
2172 540526.000   -623611.4431  -5330304.7438   3435421.2839   1   7   0.0051   0.0109   0.0116   0.0009  -0.0101   0.0010   0.00   11.0
2172 540527.000   -623611.4423  -5330304.7377   3435421.2815   1   7   0.0043   0.0109   0.0115   0.0016  -0.0102   0.0018   0.00   11.1
2172 540528.000   -623611.4443  -5330304.7403   3435421.2801   1   7   0.0048   0.0110   0.0116   0.0021  -0.0101  -0.0011   0.00   11.1
2172 540529.000   -623611.4417  -5330304.7387   3435421.2827   1   7   0.0044   0.0109   0.0116   0.0011  -0.0102  -0.0017   0.00   11.2
2172 540530.000   -623611.4438  -5330304.7342   3435421.2788   1   7   0.0044   0.0109   0.0115   0.0014  -0.0102   0.0014   0.00   11.3
2172 540531.000   -623611.4429  -5330304.7394   3435421.2825   1   7   0.0047   0.0109   0.0115   0.0020  -0.0101  -0.0008   0.00   11.5
2172 540532.000   -623611.4426  -5330304.7381   3435421.2806   1   7   0.0050   0.0110   0.0115   0.0020  -0.0101   0.0008   0.00   11.5
2172 540533.000   -623611.4446  -5330304.7384   3435421.2799   1   7   0.0049   0.0110   0.0114   0.0022  -0.0101   0.0020   0.00   11.6
2172 540534.000   -623611.4415  -5330304.7365   3435421.2785   1   7   0.0047   0.0109   0.0115   0.0014  -0.0101   0.0013   0.00   11.7
2172 540535.000   -623611.4429  -5330304.7399   3435421.2820   1   7   0.0048   0.0110   0.0115   0.0019  -0.0101   0.0020   0.00   11.9
2172 540536.000   -623611.4435  -5330304.7402   3435421.2853   1   7   0.0046   0.0109   0.0115   0.0017  -0.0101   0.0006   0.00   11.9
2172 540537.000   -623611.4438  -5330304.7401   3435421.2829   1   7   0.0051   0.0109   0.0115   0.0013  -0.0101   0.0007   0.00   12.1
2172 540538.000   -623611.4421  -5330304.7418   3435421.2827   1   7   0.0043   0.0110   0.0115   0.0014  -0.0100   0.0012   0.00   12.2
2172 540539.000   -623611.4429  -5330304.7397   3435421.2800   1   7   0.0044   0.0109   0.0114   0.0013  -0.0101   0.0015   0.00   12.3
2172 540540.000   -623611.4421  -5330304.7437   3435421.2863   1   7   0.0045   0.0109   0.0115   0.0011  -0.0101   0.0010   0.00   12.5
2172 540541.000   -623611.4430  -5330304.7403   3435421.2828   1   7   0.0050   0.0109   0.0115   0.0015  -0.0101   0.0019   0.00   12.6
2172 540542.000   -623611.4427  -5330304.7409   3435421.2832   1   7   0.0047   0.0109   0.0114   0.0018  -0.0101   0.0016   0.00   12.6
2172 540543.000   -623611.4427  -5330304.7446   3435421.2847   1   7   0.0051   0.0110   0.0115   0.0017  -0.0100  -0.0007   0.00   12.6
2172 540544.000   -623611.4425  -5330304.7421   3435421.2821   1   7   0.0045   0.0109   0.0114   0.0018  -0.0101   0.0010   0.00   12.6
2172 540545.000   -623611.4438  -5330304.7414   3435421.2852   1   7   0.0045   0.0110   0.0114   0.0024  -0.0100   0.0012   0.00   12.6
2172 540546.000   -623611.4419  -5330304.7427   3435421.2871   1   7   0.0046   0.0109   0.0116   0.0017  -0.0101  -0.0013   0.00   12.6
2172 540547.000   -623611.4424  -5330304.7414   3435421.2848   1   7   0.0047   0.0109   0.0115  -0.0007  -0.0101   0.0015   0.00   12.6
2172 540548.000   -623611.4424  -5330304.7402   3435421.2841   1   7   0.0047   0.0110   0.0115   0.0020  -0.0100   0.0004   0.00   12.5
2172 540549.000   -623611.4421  -5330304.7407   3435421.2852   1   7   0.0048   0.0109   0.0115   0.0018  -0.0101  -0.0005   0.00   12.5
2172 540550.000   -623611.4425  -5330304.7397   3435421.2861   1   7   0.0043   0.0109   0.0114   0.0013  -0.0101  -0.0009   0.00   12.5
2172 540551.000   -623611.4429  -5330304.7449   3435421.2895   1   7   0.0049   0.0110   0.0115   0.0019  -0.0100   0.0013   0.00   12.5
2172 540552.000   -623611.4412  -5330304.7388   3435421.2831   1   7   0.0048   0.0108   0.0114   0.0021  -0.0102   0.0014   0.00   12.5
2172 540553.000   -623611.4435  -5330304.7391   3435421.2842   1   7   0.0049   0.0110   0.0115   0.0018  -0.0101  -0.0014   0.00   12.5
2172 540554.000   -623611.4450  -5330304.7420   3435421.2862   1   7   0.0048   0.0111   0.0114   0.0023  -0.0100  -0.0007   0.00   12.5
2172 540555.000   -623611.4442  -5330304.7346   3435421.2786   1   7   0.0050   0.0109   0.0115   0.0018  -0.0101   0.0016   0.00   12.5
2172 540556.000   -623611.4457  -5330304.7461   3435421.2919   1   7   0.0050   0.0110   0.0115   0.0019  -0.0100  -0.0012   0.00   12.4
2172 540557.000   -623611.4439  -5330304.7381   3435421.2838   1   7   0.0048   0.0109   0.0115   0.0016  -0.0100  -0.0009   0.00   12.5
2172 540558.000   -623611.4423  -5330304.7449   3435421.2891   1   7   0.0049   0.0109   0.0115   0.0021  -0.0100  -0.0012   0.00   12.5
2172 540559.000   -623611.4465  -5330304.7373   3435421.2790   1   7   0.0049   0.0109   0.0115   0.0020  -0.0100  -0.0013   0.00   12.4
2172 540560.000   -623611.4444  -5330304.7421   3435421.2847   1   7   0.0049   0.0108   0.0115   0.0013  -0.0101  -0.0011   0.00   12.4
2172 540561.000   -623611.4415  -5330304.7406   3435421.2855   1   7   0.0044   0.0110   0.0114   0.0017  -0.0101   0.0016   0.00   12.4
2172 540562.000   -623611.4443  -5330304.7419   3435421.2826   1   7   0.0045   0.0110   0.0114   0.0018  -0.0100   0.0007   0.00   12.4
2172 540563.000   -623611.4429  -5330304.7453   3435421.2884   1   7   0.0047   0.0109   0.0114   0.0021  -0.0101   0.0011   0.00   12.4
2172 540564.000   -623611.4443  -5330304.7367   3435421.2798   1   7   0.0046   0.0108   0.0114   0.0018  -0.0101  -0.0010   0.00   12.4
2172 540565.000   -623611.4394  -5330304.7352   3435421.2803   1   7   0.0049   0.0110   0.0113   0.0023  -0.0100   0.0020   0.00   12.5
2172 540566.000   -623611.4437  -5330304.7322   3435421.2790   1   7   0.0046   0.0109   0.0114   0.0019  -0.0100   0.0016   0.00   12.5
2172 540567.000   -623611.4422  -5330304.7352   3435421.2817   1   7   0.0043   0.0108   0.0114   0.0010  -0.0101  -0.0008   0.00   12.4
2172 540568.000   -623611.4420  -5330304.7339   3435421.2818   1   7   0.0047   0.0109   0.0114   0.0016  -0.0100   0.0011   0.00   12.4
2172 540569.000   -623611.4473  -5330304.7401   3435421.2854   1   7   0.0045   0.0109   0.0114   0.0025  -0.0100  -0.0007   0.00   12.4
2172 540570.000   -623611.4437  -5330304.7397   3435421.2854   1   7   0.0046   0.0109   0.0114   0.0010  -0.0100   0.0007   0.00   12.4
2172 540571.000   -623611.4446  -5330304.7447   3435421.2884   1   7   0.0047   0.0109   0.0114   0.0019  -0.0100   0.0003   0.00   12.4
2172 540572.000   -623611.4430  -5330304.7436   3435421.2876   1   7   0.0044   0.0109   0.0113   0.0020  -0.0101  -0.0007   0.00   12.4
2172 540573.000   -623611.4412  -5330304.7387   3435421.2869   1   7   0.0048   0.0109   0.0114   0.0023  -0.0100  -0.0017   0.00   12.5
2172 540574.000   -623611.4420  -5330304.7420   3435421.2909   1   7   0.0047   0.0109   0.0113   0.0017  -0.0100  -0.0002   0.00   12.5
2172 540575.000   -623611.4441  -5330304.7391   3435421.2839   1   7   0.0046   0.0110   0.0114   0.0015  -0.0100   0.0013   0.00   12.5
2172 540576.000   -623611.4432  -5330304.7403   3435421.2906   1   7   0.0044   0.0109   0.0114   0.0020  -0.0100   0.0018   0.00   12.5
2172 540577.000   -623611.4424  -5330304.7315   3435421.2798   1   7   0.0046   0.0109   0.0113   0.0022  -0.0100   0.0018   0.00   12.5
2172 540578.000   -623611.4406  -5330304.7372   3435421.2871   1   7   0.0047   0.0109   0.0114   0.0015  -0.0100  -0.0006   0.00   12.6
2172 540579.000   -623611.4438  -5330304.7483   3435421.2961   1   7   0.0049   0.0110   0.0114   0.0018  -0.0100   0.0012   0.00   12.6
2172 540580.000   -623611.4402  -5330304.7404   3435421.2876   1   7   0.0045   0.0108   0.0113   0.0016  -0.0101   0.0011   0.00   12.6
2172 540581.000   -623611.4410  -5330304.7393   3435421.2850   1   7   0.0043   0.0109   0.0113   0.0023  -0.0100   0.0013   0.00   12.6
2172 540582.000   -623611.4423  -5330304.7466   3435421.2918   1   7   0.0048   0.0109   0.0113   0.0025  -0.0100   0.0013   0.00   12.6
2172 540583.000   -623611.4401  -5330304.7385   3435421.2846   1   7   0.0051   0.0109   0.0114   0.0021  -0.0100   0.0006   0.00   12.7
2172 540584.000   -623611.4472  -5330304.7428   3435421.2917   1   7   0.0046   0.0108   0.0113   0.0018  -0.0100  -0.0008   0.00   12.7
2172 540585.000   -623611.4442  -5330304.7373   3435421.2868   1   7   0.0044   0.0109   0.0114   0.0017  -0.0100   0.0013   0.00   12.7
2172 540586.000   -623611.4424  -5330304.7338   3435421.2826   1   7   0.0048   0.0110   0.0114   0.0015  -0.0099   0.0022   0.00   12.7
2172 540587.000   -623611.4452  -5330304.7422   3435421.2888   1   7   0.0047   0.0109   0.0113   0.0020  -0.0100   0.0010   0.00   12.7
2172 540588.000   -623611.4450  -5330304.7444   3435421.2910   1   7   0.0048   0.0109   0.0113   0.0018  -0.0100   0.0010   0.00   12.7
2172 540589.000   -623611.4427  -5330304.7418   3435421.2861   1   7   0.0047   0.0109   0.0114   0.0023  -0.0100  -0.0013   0.00   12.7
2172 540590.000   -623611.4434  -5330304.7430   3435421.2915   1   7   0.0050   0.0109   0.0114   0.0023  -0.0100   0.0004   0.00   12.7
2172 540591.000   -623611.4434  -5330304.7401   3435421.2861   1   7   0.0046   0.0110   0.0113   0.0027  -0.0099   0.0011   0.00   12.8
2172 540592.000   -623611.4421  -5330304.7389   3435421.2849   1   7   0.0043   0.0109   0.0114   0.0019  -0.0100  -0.0013   0.00   12.8
2172 540593.000   -623611.4443  -5330304.7412   3435421.2858   1   7   0.0050   0.0110   0.0113   0.0016  -0.0099   0.0014   0.00   12.8
2172 540594.000   -623611.4420  -5330304.7422   3435421.2838   1   7   0.0046   0.0108   0.0113   0.0005  -0.0100   0.0011   0.00   12.9
2172 540595.000   -623611.4412  -5330304.7425   3435421.2877   1   7   0.0045   0.0109   0.0113   0.0020  -0.0100  -0.0005   0.00   12.9
2172 540596.000   -623611.4435  -5330304.7360   3435421.2822   1   7   0.0045   0.0108   0.0112   0.0026  -0.0100  -0.0004   0.00   12.9
2172 540597.000   -623611.4393  -5330304.7406   3435421.2868   1   7   0.0048   0.0108   0.0113   0.0017  -0.0100   0.0019   0.00   12.9
2172 540598.000   -623611.4407  -5330304.7412   3435421.2866   1   7   0.0049   0.0110   0.0113   0.0019  -0.0099   0.0009   0.00   12.9
2172 540599.000   -623611.4424  -5330304.7451   3435421.2901   1   7   0.0046   0.0108   0.0113   0.0022  -0.0100   0.0019   0.00   12.9
2172 540600.000   -623611.4426  -5330304.7421   3435421.2884   1   7   0.0049   0.0109   0.0113   0.0021  -0.0099   0.0008   0.00   13.0
2172 540601.000   -623611.4422  -5330304.7388   3435421.2878   1   7   0.0043   0.0109   0.0113   0.0020  -0.0099  -0.0007   0.00   13.0
2172 540602.000   -623611.4417  -5330304.7379   3435421.2880   1   7   0.0046   0.0108   0.0113   0.0021  -0.0100  -0.0011   0.00   13.0
2172 540603.000   -623611.4429  -5330304.7456   3435421.2959   1   7   0.0052   0.0111   0.0113   0.0027  -0.0098   0.0019   0.00   13.0
2172 540604.000   -623611.4398  -5330304.7396   3435421.2875   1   7   0.0046   0.0109   0.0113   0.0021  -0.0099   0.0011   0.00   13.1
2172 540605.000   -623611.4415  -5330304.7399   3435421.2849   1   7   0.0045   0.0108   0.0113  -0.0011  -0.0099   0.0014   0.00   13.1
2172 540606.000   -623611.4410  -5330304.7361   3435421.2821   1   7   0.0049   0.0108   0.0113   0.0015  -0.0100   0.0017   0.00   13.1
2172 540607.000   -623611.4401  -5330304.7424   3435421.2862   1   7   0.0048   0.0108   0.0112   0.0017  -0.0100   0.0020   0.00   13.2
2172 540608.000   -623611.4421  -5330304.7421   3435421.2878   1   7   0.0049   0.0108   0.0113   0.0020  -0.0100  -0.0010   0.00   13.2
2172 540609.000   -623611.4412  -5330304.7347   3435421.2847   1   7   0.0049   0.0109   0.0113   0.0022  -0.0099   0.0007   0.00   13.3
2172 540610.000   -623611.4440  -5330304.7291   3435421.2804   1   7   0.0044   0.0109   0.0112   0.0012  -0.0100   0.0019   0.00   13.2
2172 540611.000   -623611.4452  -5330304.7392   3435421.2818   1   7   0.0052   0.0108   0.0113   0.0012  -0.0099   0.0013   0.00   13.2
2172 540612.000   -623611.4442  -5330304.7362   3435421.2801   1   7   0.0046   0.0109   0.0112   0.0022  -0.0099   0.0011   0.00   13.3
2172 540613.000   -623611.4422  -5330304.7296   3435421.2787   1   7   0.0048   0.0108   0.0113   0.0020  -0.0099  -0.0013   0.00   13.3
2172 540614.000   -623611.4454  -5330304.7371   3435421.2841   1   7   0.0046   0.0108   0.0113   0.0018  -0.0100  -0.0010   0.00   13.3
2172 540615.000   -623611.4454  -5330304.7352   3435421.2785   1   7   0.0044   0.0108   0.0112   0.0013  -0.0100   0.0012   0.00   13.3
2172 540616.000   -623611.4432  -5330304.7337   3435421.2809   1   7   0.0044   0.0109   0.0113   0.0024  -0.0099  -0.0014   0.00   13.3
2172 540617.000   -623611.4441  -5330304.7403   3435421.2838   1   7   0.0045   0.0107   0.0113   0.0011  -0.0100  -0.0008   0.00   13.4
2172 540618.000   -623611.4458  -5330304.7438   3435421.2895   1   7   0.0047   0.0109   0.0113   0.0020  -0.0099   0.0005   0.00   13.4
2172 540619.000   -623611.4426  -5330304.7416   3435421.2895   1   7   0.0045   0.0108   0.0112   0.0020  -0.0099   0.0013   0.00   13.4
2172 540620.000   -623611.4425  -5330304.7409   3435421.2868   1   7   0.0045   0.0108   0.0112   0.0014  -0.0099   0.0003   0.00   13.4
2172 540621.000   -623611.4435  -5330304.7384   3435421.2859   1   7   0.0046   0.0109   0.0113   0.0021  -0.0099  -0.0003   0.00   13.5
2172 540622.000   -623611.4417  -5330304.7370   3435421.2851   1   7   0.0043   0.0108   0.0111   0.0021  -0.0100   0.0012   0.00   13.5
2172 540623.000   -623611.4410  -5330304.7374   3435421.2849   1   7   0.0046   0.0108   0.0112   0.0012  -0.0100   0.0020   0.00   13.6
2172 540624.000   -623611.4440  -5330304.7354   3435421.2839   1   7   0.0048   0.0109   0.0113   0.0021  -0.0099  -0.0010   0.00   13.5
2172 540625.000   -623611.4453  -5330304.7374   3435421.2881   1   7   0.0044   0.0108   0.0112   0.0020  -0.0100   0.0007   0.00   13.6
2172 540626.000   -623611.4466  -5330304.7353   3435421.2837   1   7   0.0049   0.0109   0.0112   0.0021  -0.0099   0.0019   0.00   13.5
2172 540627.000   -623611.4456  -5330304.7382   3435421.2860   1   7   0.0046   0.0108   0.0112   0.0019  -0.0099   0.0003   0.00   13.5
2172 540628.000   -623611.4449  -5330304.7366   3435421.2844   1   7   0.0047   0.0108   0.0113   0.0014  -0.0099  -0.0008   0.00   13.6
2172 540629.000   -623611.4443  -5330304.7389   3435421.2883   1   7   0.0050   0.0109   0.0113   0.0014  -0.0098   0.0009   0.00   13.6
2172 540630.000   -623611.4455  -5330304.7359   3435421.2820   1   7   0.0047   0.0108   0.0112   0.0023  -0.0100   0.0007   0.00   13.6
2172 540631.000   -623611.4448  -5330304.7385   3435421.2862   1   7   0.0050   0.0109   0.0112   0.0018  -0.0099   0.0008   0.00   13.6
2172 540632.000   -623611.4459  -5330304.7423   3435421.2875   1   7   0.0052   0.0109   0.0112   0.0019  -0.0099   0.0009   0.00   13.6
2172 540633.000   -623611.4457  -5330304.7407   3435421.2865   1   7   0.0049   0.0108   0.0112   0.0020  -0.0099   0.0008   0.00   13.6
2172 540634.000   -623611.4433  -5330304.7402   3435421.2898   1   7   0.0046   0.0108   0.0112   0.0024  -0.0099  -0.0008   0.00   13.7
2172 540635.000   -623611.4468  -5330304.7372   3435421.2869   1   7   0.0048   0.0109   0.0112   0.0013  -0.0098  -0.0014   0.00   13.7
2172 540636.000   -623611.4461  -5330304.7383   3435421.2845   1   7   0.0047   0.0108   0.0112   0.0020  -0.0099   0.0010   0.00   13.7
2172 540637.000   -623611.4456  -5330304.7361   3435421.2840   1   7   0.0047   0.0109   0.0112   0.0020  -0.0099  -0.0012   0.00   13.7
2172 540638.000   -623611.4465  -5330304.7360   3435421.2850   1   7   0.0048   0.0108   0.0112   0.0022  -0.0099  -0.0004   0.00   13.7
2172 540639.000   -623611.4469  -5330304.7396   3435421.2823   1   7   0.0049   0.0108   0.0112   0.0018  -0.0099   0.0010   0.00   13.7
2172 540640.000   -623611.4450  -5330304.7405   3435421.2882   1   7   0.0046   0.0109   0.0112   0.0019  -0.0099  -0.0004   0.00   13.7
2172 540641.000   -623611.4454  -5330304.7405   3435421.2862   1   7   0.0051   0.0108   0.0112   0.0021  -0.0099  -0.0006   0.00   13.7
2172 540642.000   -623611.4450  -5330304.7370   3435421.2869   1   7   0.0047   0.0109   0.0112   0.0028  -0.0099   0.0009   0.00   13.8
2172 540643.000   -623611.4446  -5330304.7418   3435421.2898   1   7   0.0047   0.0109   0.0111   0.0020  -0.0098   0.0015   0.00   13.8
2172 540644.000   -623611.4473  -5330304.7372   3435421.2836   1   7   0.0047   0.0108   0.0112   0.0015  -0.0099   0.0014   0.00   13.8
2172 540645.000   -623611.4478  -5330304.7404   3435421.2845   1   7   0.0048   0.0108   0.0112   0.0025  -0.0099   0.0015   0.00   13.8
2172 540646.000   -623611.4448  -5330304.7332   3435421.2812   1   7   0.0049   0.0109   0.0112   0.0020  -0.0099   0.0008   0.00   13.8
2172 540647.000   -623611.4462  -5330304.7399   3435421.2864   1   7   0.0051   0.0109   0.0111   0.0016  -0.0098   0.0015   0.00   13.8
2172 540648.000   -623611.4442  -5330304.7314   3435421.2840   1   7   0.0049   0.0109   0.0112   0.0018  -0.0099   0.0012   0.00   13.8
2172 540649.000   -623611.4479  -5330304.7349   3435421.2867   1   7   0.0052   0.0108   0.0113   0.0018  -0.0098  -0.0018   0.00   13.8
2172 540650.000   -623611.4496  -5330304.7383   3435421.2846   1   7   0.0047   0.0108   0.0111   0.0018  -0.0099   0.0018   0.00   13.8
2172 540651.000   -623611.4466  -5330304.7356   3435421.2801   1   7   0.0045   0.0108   0.0112   0.0019  -0.0099   0.0008   0.00   13.8
2172 540652.000   -623611.4459  -5330304.7331   3435421.2828   1   7   0.0050   0.0107   0.0112   0.0015  -0.0099  -0.0012   0.00   13.8
2172 540653.000   -623611.4462  -5330304.7413   3435421.2884   1   7   0.0047   0.0108   0.0112   0.0018  -0.0099   0.0009   0.00   13.8
2172 540654.000   -623611.4476  -5330304.7424   3435421.2887   1   7   0.0048   0.0108   0.0112   0.0020  -0.0099   0.0013   0.00   13.8
2172 540655.000   -623611.4452  -5330304.7349   3435421.2824   1   7   0.0046   0.0109   0.0112   0.0023  -0.0098  -0.0013   0.00   13.8
2172 540656.000   -623611.4457  -5330304.7395   3435421.2868   1   7   0.0049   0.0109   0.0113   0.0020  -0.0098  -0.0007   0.00   13.8
2172 540657.000   -623611.4431  -5330304.7406   3435421.2861   1   7   0.0048   0.0109   0.0112   0.0011  -0.0098  -0.0006   0.00   13.8
2172 540658.000   -623611.4465  -5330304.7373   3435421.2844   1   7   0.0048   0.0108   0.0112   0.0020  -0.0099  -0.0007   0.00   13.9
2172 540659.000   -623611.4444  -5330304.7423   3435421.2871   1   7   0.0050   0.0109   0.0112   0.0021  -0.0098  -0.0016   0.00   13.9
2172 540660.000   -623611.4453  -5330304.7386   3435421.2866   1   7   0.0048   0.0109   0.0111   0.0021  -0.0098   0.0004   0.00   13.9
2172 540661.000   -623611.4462  -5330304.7405   3435421.2899   1   7   0.0044   0.0108   0.0111   0.0015  -0.0099   0.0007   0.00   13.9
2172 540662.000   -623611.4453  -5330304.7338   3435421.2818   1   7   0.0047   0.0108   0.0112   0.0013  -0.0098  -0.0015   0.00   13.9
2172 540663.000   -623611.4451  -5330304.7429   3435421.2888   1   7   0.0049   0.0108   0.0112   0.0010  -0.0099  -0.0002   0.00   14.0
2172 540664.000   -623611.4469  -5330304.7309   3435421.2779   1   7   0.0049   0.0109   0.0111   0.0021  -0.0098   0.0013   0.00   13.9
2172 540665.000   -623611.4452  -5330304.7383   3435421.2852   1   7   0.0045   0.0108   0.0111   0.0018  -0.0099  -0.0008   0.00   14.0
2172 540666.000   -623611.4456  -5330304.7433   3435421.2897   1   7   0.0046   0.0108   0.0111   0.0018  -0.0098   0.0015   0.00   14.0
2172 540667.000   -623611.4429  -5330304.7324   3435421.2798   1   7   0.0049   0.0109   0.0112   0.0025  -0.0098  -0.0017   0.00   14.0
2172 540668.000   -623611.4497  -5330304.7400   3435421.2837   1   7   0.0047   0.0108   0.0112   0.0024  -0.0099   0.0005   0.00   14.0
2172 540669.000   -623611.4479  -5330304.7369   3435421.2812   1   7   0.0051   0.0109   0.0111   0.0023  -0.0098   0.0013   0.00   14.0
2172 540670.000   -623611.4459  -5330304.7342   3435421.2819   1   7   0.0045   0.0107   0.0111   0.0017  -0.0099   0.0009   0.00   14.1
2172 540671.000   -623611.4452  -5330304.7341   3435421.2839   1   7   0.0046   0.0109   0.0111   0.0019  -0.0098  -0.0010   0.00   14.1
2172 540672.000   -623611.4438  -5330304.7338   3435421.2831   1   7   0.0044   0.0107   0.0111   0.0018  -0.0099   0.0014   0.00   14.1
2172 540673.000   -623611.4438  -5330304.7312   3435421.2771   1   7   0.0050   0.0107   0.0110   0.0023  -0.0099  -0.0014   0.00   14.1
2172 540674.000   -623611.4466  -5330304.7329   3435421.2817   1   7   0.0044   0.0107   0.0112   0.0012  -0.0099  -0.0013   0.00   14.1
2172 540675.000   -623611.4452  -5330304.7376   3435421.2841   1   7   0.0045   0.0108   0.0110   0.0018  -0.0098   0.0005   0.00   14.2
2172 540676.000   -623611.4476  -5330304.7485   3435421.2902   1   7   0.0048   0.0107   0.0112   0.0015  -0.0099  -0.0005   0.00   14.2
2172 540677.000   -623611.4477  -5330304.7360   3435421.2833   1   7   0.0050   0.0108   0.0111   0.0019  -0.0098   0.0004   0.00   14.2
2172 540678.000   -623611.4465  -5330304.7369   3435421.2844   1   7   0.0049   0.0109   0.0111   0.0018  -0.0097  -0.0011   0.00   14.3
2172 540679.000   -623611.4475  -5330304.7381   3435421.2830   1   7   0.0045   0.0108   0.0112   0.0012  -0.0099  -0.0002   0.00   14.3
2172 540680.000   -623611.4484  -5330304.7389   3435421.2857   1   7   0.0047   0.0108   0.0110   0.0019  -0.0098   0.0014   0.00   14.3
2172 540681.000   -623611.4482  -5330304.7383   3435421.2861   1   7   0.0047   0.0108   0.0110   0.0019  -0.0098   0.0013   0.00   14.3
2172 540682.000   -623611.4486  -5330304.7372   3435421.2816   1   7   0.0046   0.0107   0.0111   0.0021  -0.0099   0.0012   0.00   14.3
2172 540683.000   -623611.4498  -5330304.7451   3435421.2886   1   7   0.0048   0.0109   0.0111   0.0026  -0.0097   0.0013   0.00   14.4
2172 540684.000   -623611.4477  -5330304.7305   3435421.2777   1   7   0.0045   0.0107   0.0111   0.0024  -0.0098  -0.0016   0.00   14.4
2172 540685.000   -623611.4471  -5330304.7358   3435421.2829   1   7   0.0047   0.0108   0.0110   0.0015  -0.0098   0.0010   0.00   14.4
2172 540686.000   -623611.4443  -5330304.7349   3435421.2809   1   7   0.0044   0.0108   0.0110   0.0020  -0.0098   0.0005   0.00   14.4
2172 540687.000   -623611.4477  -5330304.7438   3435421.2887   1   7   0.0044   0.0108   0.0110   0.0022  -0.0098  -0.0009   0.00   14.5
2172 540688.000   -623611.4479  -5330304.7433   3435421.2864   1   7   0.0049   0.0108   0.0111   0.0016  -0.0098   0.0006   0.00   14.5
2172 540689.000   -623611.4472  -5330304.7382   3435421.2855   1   7   0.0044   0.0108   0.0110   0.0017  -0.0098  -0.0013   0.00   14.5
2172 540690.000   -623611.4453  -5330304.7360   3435421.2862   1   7   0.0048   0.0108   0.0111   0.0019  -0.0098   0.0005   0.00   14.6
2172 540691.000   -623611.4461  -5330304.7411   3435421.2854   1   7   0.0047   0.0107   0.0111   0.0025  -0.0099   0.0012   0.00   14.6
2172 540692.000   -623611.4488  -5330304.7399   3435421.2835   1   7   0.0043   0.0108   0.0110   0.0015  -0.0098   0.0009   0.00   14.6
2172 540693.000   -623611.4479  -5330304.7416   3435421.2841   1   7   0.0047   0.0108   0.0110   0.0026  -0.0098  -0.0015   0.00   14.7
2172 540694.000   -623611.4496  -5330304.7350   3435421.2798   1   7   0.0050   0.0108   0.0111   0.0020  -0.0097   0.0012   0.00   14.7
2172 540695.000   -623611.4474  -5330304.7339   3435421.2802   1   7   0.0046   0.0108   0.0110   0.0016  -0.0098   0.0011   0.00   14.7
2172 540696.000   -623611.4467  -5330304.7410   3435421.2876   1   7   0.0047   0.0108   0.0110   0.0023  -0.0098   0.0015   0.00   14.8
2172 540697.000   -623611.4465  -5330304.7349   3435421.2815   1   7   0.0048   0.0108   0.0111   0.0017  -0.0097   0.0008   0.00   14.8
2172 540698.000   -623611.4470  -5330304.7312   3435421.2798   1   7   0.0048   0.0108   0.0110   0.0022  -0.0098  -0.0005   0.00   14.8
2172 540699.000   -623611.4496  -5330304.7391   3435421.2832   1   7   0.0047   0.0107   0.0110   0.0018  -0.0098   0.0010   0.00   14.9
2172 540700.000   -623611.4477  -5330304.7375   3435421.2827   1   7   0.0048   0.0108   0.0110   0.0015  -0.0098   0.0005   0.00   14.9
2172 540701.000   -623611.4469  -5330304.7386   3435421.2805   1   7   0.0043   0.0107   0.0109   0.0024  -0.0098  -0.0010   0.00   14.9
2172 540702.000   -623611.4472  -5330304.7390   3435421.2850   1   7   0.0044   0.0107   0.0110   0.0012  -0.0099   0.0009   0.00   15.0
2172 540703.000   -623611.4464  -5330304.7394   3435421.2813   1   7   0.0045   0.0107   0.0111   0.0008  -0.0098  -0.0012   0.00   15.0
2172 540704.000   -623611.4480  -5330304.7344   3435421.2802   1   7   0.0048   0.0107   0.0110   0.0013  -0.0098   0.0009   0.00   15.0
2172 540705.000   -623611.4492  -5330304.7350   3435421.2823   1   7   0.0047   0.0107   0.0110   0.0017  -0.0098   0.0014   0.00   15.0
2172 540706.000   -623611.4473  -5330304.7380   3435421.2840   1   7   0.0051   0.0108   0.0110   0.0018  -0.0098   0.0017   0.00   15.1
2172 540707.000   -623611.4497  -5330304.7336   3435421.2805   1   7   0.0046   0.0106   0.0110   0.0013  -0.0099   0.0011   0.00   15.1
2172 540708.000   -623611.4497  -5330304.7337   3435421.2817   1   7   0.0047   0.0107   0.0110   0.0025  -0.0098  -0.0011   0.00   15.1
2172 540709.000   -623611.4495  -5330304.7367   3435421.2811   1   7   0.0046   0.0108   0.0109   0.0027  -0.0097   0.0010   0.00   15.1
2172 540710.000   -623611.4516  -5330304.7398   3435421.2836   1   7   0.0044   0.0108   0.0110   0.0015  -0.0097   0.0013   0.00   15.1
2172 540711.000   -623611.4502  -5330304.7367   3435421.2811   1   7   0.0044   0.0108   0.0110   0.0021  -0.0097  -0.0010   0.00   15.1
2172 540712.000   -623611.4543  -5330304.7403   3435421.2834   1   7   0.0046   0.0108   0.0109   0.0024  -0.0098   0.0011   0.00   15.1
2172 540713.000   -623611.4496  -5330304.7407   3435421.2839   1   7   0.0050   0.0107   0.0111   0.0016  -0.0098  -0.0008   0.00   15.1
2172 540714.000   -623611.4507  -5330304.7335   3435421.2790   1   7   0.0048   0.0106   0.0110   0.0014  -0.0099   0.0014   0.00   15.1
2172 540715.000   -623611.4482  -5330304.7373   3435421.2831   1   7   0.0050   0.0107   0.0110   0.0020  -0.0098   0.0011   0.00   15.1
2172 540716.000   -623611.4471  -5330304.7361   3435421.2808   1   7   0.0049   0.0108   0.0110   0.0013  -0.0097   0.0007   0.00   15.2
2172 540717.000   -623611.4472  -5330304.7336   3435421.2769   1   7   0.0050   0.0107   0.0109   0.0019  -0.0097  -0.0012   0.00   15.2
2172 540718.000   -623611.4454  -5330304.7319   3435421.2806   1   7   0.0044   0.0107   0.0109   0.0017  -0.0097  -0.0012   0.00   15.2
2172 540719.000   -623611.4491  -5330304.7331   3435421.2802   1   7   0.0048   0.0108   0.0109   0.0025  -0.0097  -0.0020   0.00   15.2
2172 540720.000   -623611.4518  -5330304.7316   3435421.2753   1   7   0.0048   0.0107   0.0109   0.0020  -0.0098  -0.0011   0.00   15.2
2172 540721.000   -623611.4503  -5330304.7311   3435421.2771   1   7   0.0046   0.0107   0.0110   0.0022  -0.0098  -0.0003   0.00   15.2
2172 540722.000   -623611.4502  -5330304.7356   3435421.2795   1   7   0.0049   0.0107   0.0110   0.0018  -0.0098  -0.0006   0.00   15.2
2172 540723.000   -623611.4509  -5330304.7319   3435421.2784   1   7   0.0045   0.0108   0.0110   0.0027  -0.0097   0.0007   0.00   15.2
2172 540724.000   -623611.4489  -5330304.7314   3435421.2772   1   7   0.0045   0.0106   0.0109   0.0014  -0.0098  -0.0005   0.00   15.2
2172 540725.000   -623611.4500  -5330304.7308   3435421.2787   1   7   0.0046   0.0109   0.0110   0.0024  -0.0096   0.0006   0.00   15.2
2172 540726.000   -623611.4502  -5330304.7389   3435421.2822   1   7   0.0047   0.0108   0.0110   0.0019  -0.0096  -0.0016   0.00   15.3
2172 540727.000   -623611.4515  -5330304.7386   3435421.2829   1   7   0.0043   0.0107   0.0109   0.0020  -0.0097   0.0004   0.00   15.3
2172 540728.000   -623611.4529  -5330304.7391   3435421.2825   1   7   0.0046   0.0107   0.0109   0.0014  -0.0098  -0.0011   0.00   15.3
2172 540729.000   -623611.4471  -5330304.7348   3435421.2783   1   7   0.0047   0.0107   0.0109   0.0020  -0.0097   0.0015   0.00   15.4
2172 540730.000   -623611.4461  -5330304.7331   3435421.2825   1   7   0.0048   0.0107   0.0110   0.0023  -0.0097  -0.0005   0.00   15.4
2172 540731.000   -623611.4467  -5330304.7314   3435421.2786   1   7   0.0047   0.0108   0.0109   0.0024  -0.0097   0.0011   0.00   15.4
2172 540732.000   -623611.4481  -5330304.7246   3435421.2691   1   7   0.0046   0.0106   0.0109   0.0020  -0.0098  -0.0014   0.00   15.4
2172 540733.000   -623611.4504  -5330304.7354   3435421.2798   1   7   0.0044   0.0107   0.0109   0.0018  -0.0098  -0.0008   0.00   15.4
2172 540734.000   -623611.4508  -5330304.7411   3435421.2833   1   7   0.0046   0.0107   0.0109   0.0022  -0.0098   0.0011   0.00   15.4
2172 540735.000   -623611.4482  -5330304.7346   3435421.2819   1   7   0.0046   0.0108   0.0110   0.0021  -0.0096   0.0019   0.00   15.4
2172 540736.000   -623611.4478  -5330304.7400   3435421.2825   1   7   0.0049   0.0108   0.0110   0.0022  -0.0097   0.0009   0.00   15.4
2172 540737.000   -623611.4457  -5330304.7379   3435421.2860   1   7   0.0047   0.0107   0.0109   0.0014  -0.0097   0.0009   0.00   15.5
2172 540738.000   -623611.4491  -5330304.7301   3435421.2795   1   7   0.0044   0.0107   0.0110   0.0021  -0.0097  -0.0012   0.00   15.5
2172 540739.000   -623611.4478  -5330304.7338   3435421.2774   1   7   0.0047   0.0107   0.0109   0.0017  -0.0097   0.0006   0.00   15.5
2172 540740.000   -623611.4478  -5330304.7310   3435421.2753   1   7   0.0045   0.0106   0.0109   0.0019  -0.0098  -0.0010   0.00   15.5
2172 540741.000   -623611.4482  -5330304.7325   3435421.2761   1   7   0.0045   0.0107   0.0109   0.0013  -0.0097   0.0009   0.00   15.5
2172 540742.000   -623611.4479  -5330304.7334   3435421.2765   1   7   0.0046   0.0107   0.0109   0.0016  -0.0097   0.0009   0.00   15.5
2172 540743.000   -623611.4498  -5330304.7290   3435421.2747   1   7   0.0050   0.0108   0.0108   0.0023  -0.0097   0.0010   0.00   15.5
2172 540744.000   -623611.4488  -5330304.7317   3435421.2771   1   7   0.0045   0.0106   0.0109   0.0020  -0.0098  -0.0012   0.00   15.5
2172 540745.000   -623611.4479  -5330304.7421   3435421.2817   1   7   0.0047   0.0108   0.0109   0.0015  -0.0096  -0.0015   0.00   15.5
2172 540746.000   -623611.4489  -5330304.7390   3435421.2817   1   7   0.0048   0.0107   0.0109   0.0015  -0.0097   0.0007   0.00   15.5
2172 540747.000   -623611.4513  -5330304.7322   3435421.2746   1   7   0.0046   0.0107   0.0109   0.0020  -0.0097   0.0016   0.00   15.5
2172 540748.000   -623611.4533  -5330304.7372   3435421.2793   1   7   0.0050   0.0107   0.0109   0.0017  -0.0097  -0.0009   0.00   15.5
2172 540749.000   -623611.4474  -5330304.7305   3435421.2782   1   7   0.0047   0.0108   0.0108   0.0020  -0.0096   0.0011   0.00   15.5
2172 540750.000   -623611.4502  -5330304.7347   3435421.2773   1   7   0.0047   0.0105   0.0109   0.0007  -0.0098  -0.0006   0.00   15.5
2172 540751.000   -623611.4487  -5330304.7342   3435421.2803   1   7   0.0043   0.0108   0.0109   0.0024  -0.0096   0.0009   0.00   15.5
2172 540752.000   -623611.4481  -5330304.7342   3435421.2789   1   7   0.0050   0.0107   0.0109   0.0023  -0.0097  -0.0011   0.00   15.5
2172 540753.000   -623611.4499  -5330304.7287   3435421.2759   1   7   0.0043   0.0107   0.0108   0.0018  -0.0097   0.0017   0.00   15.5
2172 540754.000   -623611.4485  -5330304.7325   3435421.2759   1   7   0.0047   0.0108   0.0108   0.0021  -0.0097  -0.0006   0.00   15.5
2172 540755.000   -623611.4502  -5330304.7337   3435421.2782   1   7   0.0050   0.0107   0.0109   0.0023  -0.0097   0.0010   0.00   15.5
2172 540756.000   -623611.4496  -5330304.7321   3435421.2742   1   7   0.0043   0.0107   0.0108   0.0022  -0.0097   0.0006   0.00   15.5
2172 540757.000   -623611.4504  -5330304.7330   3435421.2765   1   7   0.0046   0.0107   0.0109   0.0024  -0.0097  -0.0007   0.00   15.5
2172 540758.000   -623611.4479  -5330304.7283   3435421.2729   1   7   0.0048   0.0107   0.0108   0.0024  -0.0096  -0.0014   0.00   15.5
2172 540759.000   -623611.4522  -5330304.7290   3435421.2739   1   7   0.0049   0.0108   0.0109   0.0020  -0.0095   0.0009   0.00   15.5
2172 540760.000   -623611.4490  -5330304.7328   3435421.2779   1   7   0.0046   0.0108   0.0109   0.0027  -0.0096  -0.0017   0.00   15.5
2172 540761.000   -623611.4535  -5330304.7359   3435421.2782   1   7   0.0048   0.0106   0.0109   0.0010  -0.0097   0.0005   0.00   15.5
2172 540762.000   -623611.4531  -5330304.7326   3435421.2725   1   7   0.0050   0.0108   0.0111   0.0022  -0.0098   0.0008   1.00   15.5
2172 540763.000   -623611.4532  -5330304.7298   3435421.2732   1   7   0.0051   0.0113   0.0116   0.0025  -0.0102  -0.0008   2.00   15.5
2172 540764.000   -623611.4538  -5330304.7222   3435421.2666   1   7   0.0053   0.0119   0.0125   0.0024  -0.0108  -0.0016   3.00   15.5
2172 540765.000   -623611.4524  -5330304.7250   3435421.2654   1   7   0.0059   0.0127   0.0136   0.0029  -0.0117  -0.0018   4.00   15.5
2172 540766.000   -623611.4500  -5330304.7220   3435421.2625   1   7   0.0063   0.0136   0.0149   0.0034  -0.0126  -0.0023   5.00   15.5
2172 540767.000   -623611.4494  -5330304.7254   3435421.2630   1   7   0.0069   0.0146   0.0163   0.0035  -0.0136  -0.0028   6.00   15.5
2172 540768.000   -623611.4474  -5330304.7249   3435421.2626   1   7   0.0076   0.0157   0.0178   0.0041  -0.0147  -0.0032   7.00   15.5
2172 540769.000   -623611.4482  -5330304.7236   3435421.2606   1   7   0.0082   0.0169   0.0195   0.0045  -0.0159  -0.0037   8.00   15.5
2172 540770.000   -623611.4494  -5330304.7257   3435421.2591   1   7   0.0088   0.0181   0.0211   0.0051  -0.0172  -0.0042   9.00   15.5
2172 540771.000   -623611.4458  -5330304.7224   3435421.2544   1   7   0.0094   0.0194   0.0229   0.0053  -0.0184  -0.0047  10.00   15.5
2172 540772.000   -623611.4455  -5330304.7290   3435421.2578   1   7   0.0102   0.0207   0.0246   0.0058  -0.0198  -0.0051  11.00   15.6
2172 540773.000   -623611.4460  -5330304.7305   3435421.2517   1   7   0.0108   0.0220   0.0264   0.0062  -0.0211  -0.0056  12.00   15.6
2172 540774.000   -623611.4413  -5330304.7260   3435421.2461   1   7   0.0115   0.0234   0.0283   0.0067  -0.0225  -0.0060  13.00   15.6
2172 540775.000   -623611.4416  -5330304.7276   3435421.2440   1   7   0.0122   0.0248   0.0301   0.0071  -0.0239  -0.0065  14.00   15.6
2172 540776.000   -623611.4403  -5330304.7252   3435421.2412   1   7   0.0129   0.0262   0.0320   0.0076  -0.0253  -0.0069  15.00   15.6
2172 540777.000   -623611.4394  -5330304.7260   3435421.2404   1   7   0.0136   0.0276   0.0338   0.0080  -0.0267  -0.0074  16.00   15.6
2172 540778.000   -623611.4393  -5330304.7354   3435421.2452   1   7   0.0143   0.0291   0.0357   0.0085  -0.0281  -0.0078  17.00   15.6
2172 540779.000   -623611.4398  -5330304.7367   3435421.2435   1   7   0.0150   0.0305   0.0376   0.0089  -0.0296  -0.0083  18.00   15.6
2172 540780.000   -623611.4393  -5330304.7402   3435421.2445   1   7   0.0157   0.0320   0.0395   0.0094  -0.0310  -0.0087  19.00   15.6
2172 540781.000   -623611.4405  -5330304.7434   3435421.2443   1   7   0.0165   0.0334   0.0414   0.0098  -0.0325  -0.0092  20.00   15.6
2172 540782.000   -623611.4401  -5330304.7454   3435421.2467   1   7   0.0172   0.0349   0.0433   0.0102  -0.0340  -0.0096  21.00   15.6
2172 540783.000   -623611.4433  -5330304.7540   3435421.2482   1   7   0.0179   0.0364   0.0453   0.0107  -0.0354  -0.0101  22.00   15.6
2172 540784.000   -623611.4455  -5330304.7578   3435421.2497   1   7   0.0187   0.0379   0.0472   0.0111  -0.0369  -0.0105  23.00   15.6
2172 540785.000   -623611.4471  -5330304.7537   3435421.2469   1   7   0.0194   0.0394   0.0491   0.0116  -0.0384  -0.0110  24.00   15.6
2172 540786.000   -623611.4460  -5330304.7585   3435421.2516   1   7   0.0201   0.0409   0.0510   0.0120  -0.0399  -0.0114  25.00   15.6
2172 540787.000   -623611.4438  -5330304.7579   3435421.2506   1   7   0.0209   0.0424   0.0530   0.0125  -0.0413  -0.0119  26.00   15.6
2172 540788.000   -623611.4484  -5330304.7566   3435421.2448   1   7   0.0216   0.0439   0.0549   0.0129  -0.0428  -0.0123  27.00   15.7
2172 540789.000   -623611.4477  -5330304.7567   3435421.2486   1   7   0.0224   0.0454   0.0568   0.0134  -0.0443  -0.0128  28.00   15.7
2172 540790.000   -623611.4485  -5330304.7610   3435421.2503   1   7   0.0231   0.0469   0.0588   0.0138  -0.0458  -0.0132  29.00   15.7
2172 540791.000   -623611.4495  -5330304.7542   3435421.2451   1   7   0.0239   0.0485   0.0607   0.0143  -0.0473  -0.0136  30.00   15.7
