% program   : rnx2rtkp ver.2.4.3 b31
% inp file  : ngs/21_08_29_15_04_23_njtw.obs
% inp file  : ngs/21_08_29_15_04_23_njtw_VZ.obs
% inp file  : ngs/21_08_29_15_04_23_brdc.nav
% obs start : 2021/08/29 15:00:16.0 GPST (week2173  54016.0s)
% obs end   : 2021/08/29 15:59:59.0 GPST (week2173  57599.0s)
% ref pos   :  1276753.9277  -4732720.8764   4066971.8105
%
% (x/y/z-ecef=WGS84,Q=1:fix,2:float,3:sbas,4:dgps,5:single,6:ppp,ns=# of satellites)
%  GPST              x-ecef(m)      y-ecef(m)      z-ecef(m)   Q  ns   sdx(m)   sdy(m)   sdz(m)  sdxy(m)  sdyz(m)  sdzx(m) age(s)  ratio
2173  54241.000   1271651.9405  -4729242.0842   4072560.6424   2   8   0.5112   0.8929   0.7024  -0.5359  -0.5612   0.2547 -30.00    1.0
2173  54242.000   1271651.9289  -4729242.0011   4072560.6065   2   8   0.3637   0.6349   0.4994  -0.3811  -0.3987   0.1804 -29.00    1.2
2173  54243.000   1271651.9636  -4729241.9918   4072560.5570   2   8   0.2978   0.5198   0.4088  -0.3120  -0.3263   0.1476 -28.00    1.3
2173  54244.000   1271651.9650  -4729241.9767   4072560.5171   2   8   0.2584   0.4509   0.3546  -0.2707  -0.2831   0.1281 -27.00    1.4
2173  54245.000   1271652.0136  -4729242.0933   4072560.5497   2   8   0.2314   0.4038   0.3176  -0.2425  -0.2535   0.1147 -26.00    1.4
2173  54246.000   1271652.0633  -4729242.1627   4072560.5940   2   8   0.2115   0.3690   0.2902  -0.2216  -0.2317   0.1048 -25.00    1.6
2173  54247.000   1271652.1004  -4729242.2011   4072560.6101   2   8   0.1959   0.3419   0.2689  -0.2053  -0.2146   0.0971 -24.00    1.7
2173  54248.000   1271652.1347  -4729242.2436   4072560.6169   2   8   0.1834   0.3200   0.2517  -0.1922  -0.2009   0.0909 -23.00    1.8
2173  54249.000   1271652.1359  -4729242.2393   4072560.6150   2   8   0.1730   0.3018   0.2374  -0.1813  -0.1895   0.0857 -22.00    1.9
2173  54250.000   1271652.1294  -4729242.2299   4072560.5997   2   8   0.1642   0.2864   0.2253  -0.1720  -0.1798   0.0813 -21.00    2.0
2173  54251.000   1271652.1341  -4729242.2396   4072560.6112   2   8   0.1566   0.2731   0.2148  -0.1641  -0.1714   0.0775 -20.00    2.1
2173  54252.000   1271652.1316  -4729242.2308   4072560.5998   2   8   0.1499   0.2615   0.2056  -0.1571  -0.1641   0.0742 -19.00    2.3
2173  54253.000   1271652.1267  -4729242.2281   4072560.6060   2   8   0.1441   0.2512   0.1975  -0.1509  -0.1576   0.0712 -18.00    2.5
2173  54254.000   1271652.1200  -4729242.2055   4072560.5953   2   8   0.1388   0.2420   0.1903  -0.1454  -0.1518   0.0686 -17.00    2.7
2173  54255.000   1271652.1227  -4729242.2015   4072560.5904   2   8   0.1341   0.2338   0.1838  -0.1405  -0.1466   0.0662 -16.00    3.0
2173  54256.000   1271652.3170  -4729242.2004   4072560.6621   1   8   0.0143   0.0266   0.0217  -0.0160  -0.0185   0.0104 -15.00    3.2
2173  54257.000   1271652.3153  -4729242.1966   4072560.6588   1   8   0.0134   0.0251   0.0204  -0.0150  -0.0174   0.0097 -14.00    3.5
2173  54258.000   1271652.3134  -4729242.1933   4072560.6558   1   8   0.0126   0.0235   0.0192  -0.0141  -0.0162   0.0091 -13.00    3.9
2173  54259.000   1271652.3126  -4729242.1903   4072560.6523   1   8   0.0118   0.0220   0.0179  -0.0132  -0.0152   0.0084 -12.00    4.3
2173  54260.000   1271652.3132  -4729242.1902   4072560.6530   1   8   0.0111   0.0205   0.0167  -0.0123  -0.0141   0.0078 -11.00    4.7
2173  54261.000   1271652.3132  -4729242.1899   4072560.6532   1   8   0.0103   0.0191   0.0155  -0.0114  -0.0130   0.0072 -10.00    5.1
2173  54262.000   1271652.3119  -4729242.1851   4072560.6502   1   8   0.0095   0.0176   0.0142  -0.0105  -0.0120   0.0066  -9.00    5.6
2173  54263.000   1271652.3126  -4729242.1833   4072560.6493   1   8   0.0088   0.0162   0.0131  -0.0097  -0.0110   0.0059  -8.00    6.0
2173  54264.000   1271652.3119  -4729242.1780   4072560.6464   1   8   0.0081   0.0149   0.0120  -0.0089  -0.0100   0.0053  -7.00    6.4
2173  54265.000   1271652.3104  -4729242.1770   4072560.6452   1   8   0.0073   0.0136   0.0109  -0.0081  -0.0091   0.0047  -6.00    6.8
2173  54266.000   1271652.3095  -4729242.1740   4072560.6453   1   8   0.0069   0.0124   0.0099  -0.0075  -0.0081   0.0041  -5.00    7.3
2173  54267.000   1271652.3106  -4729242.1731   4072560.6434   1   8   0.0063   0.0114   0.0090  -0.0066  -0.0072   0.0038  -4.00    8.0
2173  54268.000   1271652.3096  -4729242.1711   4072560.6419   1   8   0.0059   0.0106   0.0082  -0.0058  -0.0064   0.0034  -3.00    8.9
2173  54269.000   1271652.3097  -4729242.1709   4072560.6415   1   8   0.0056   0.0095   0.0076  -0.0060  -0.0061   0.0025  -2.00    9.8
2173  54270.000   1271652.3107  -4729242.1715   4072560.6408   1   8   0.0053   0.0091   0.0072  -0.0054  -0.0059   0.0024  -1.00   10.7
2173  54271.000   1271652.3102  -4729242.1662   4072560.6377   1   8   0.0049   0.0090   0.0072  -0.0054  -0.0055   0.0030   0.00   11.7
2173  54272.000   1271652.3110  -4729242.1626   4072560.6386   1   8   0.0053   0.0093   0.0071  -0.0050  -0.0056   0.0026   0.00   12.5
2173  54273.000   1271652.3080  -4729242.1667   4072560.6408   1   8   0.0050   0.0089   0.0071  -0.0055  -0.0057   0.0025   0.00   12.8
2173  54274.000   1271652.3093  -4729242.1679   4072560.6397   1   8   0.0054   0.0090   0.0071  -0.0055  -0.0057   0.0022   0.00   13.3
2173  54275.000   1271652.3098  -4729242.1653   4072560.6386   1   8   0.0050   0.0089   0.0072  -0.0057  -0.0057   0.0029   0.00   13.5
2173  54276.000   1271652.3102  -4729242.1679   4072560.6382   1   8   0.0054   0.0090   0.0070  -0.0053  -0.0055   0.0025   0.00   13.7
2173  54277.000   1271652.3093  -4729242.1642   4072560.6372   1   8   0.0052   0.0089   0.0071  -0.0055  -0.0055   0.0029   0.00   13.8
2173  54278.000   1271652.3081  -4729242.1613   4072560.6374   1   8   0.0054   0.0091   0.0071  -0.0050  -0.0054   0.0027   0.00   13.9
2173  54279.000   1271652.3090  -4729242.1660   4072560.6382   1   8   0.0052   0.0090   0.0072  -0.0051  -0.0055   0.0028   0.00   14.1
2173  54280.000   1271652.3084  -4729242.1640   4072560.6362   1   8   0.0053   0.0089   0.0070  -0.0052  -0.0056   0.0026   0.00   14.1
2173  54281.000   1271652.3111  -4729242.1686   4072560.6377   1   8   0.0052   0.0090   0.0070  -0.0056  -0.0056   0.0020   0.00   14.2
2173  54282.000   1271652.3083  -4729242.1653   4072560.6391   1   8   0.0052   0.0089   0.0071  -0.0053  -0.0055   0.0024   0.00   14.2
2173  54283.000   1271652.3077  -4729242.1634   4072560.6383   1   8   0.0049   0.0086   0.0071  -0.0058  -0.0058   0.0028   0.00   14.1
2173  54284.000   1271652.3093  -4729242.1652   4072560.6394   1   8   0.0054   0.0091   0.0070  -0.0049  -0.0057   0.0022   0.00   14.4
2173  54285.000   1271652.3086  -4729242.1651   4072560.6401   1   8   0.0053   0.0091   0.0071  -0.0053  -0.0056   0.0025   0.00   14.6
2173  54286.000   1271652.3102  -4729242.1653   4072560.6386   1   8   0.0055   0.0090   0.0072  -0.0053  -0.0057   0.0024   0.00   14.5
2173  54287.000   1271652.3092  -4729242.1639   4072560.6385   1   8   0.0050   0.0089   0.0071  -0.0056  -0.0057   0.0026   0.00   14.7
2173  54288.000   1271652.3091  -4729242.1637   4072560.6393   1   8   0.0050   0.0089   0.0070  -0.0058  -0.0056   0.0029   0.00   14.6
2173  54289.000   1271652.3115  -4729242.1664   4072560.6402   1   8   0.0051   0.0090   0.0071  -0.0054  -0.0054   0.0025   0.00   14.6
2173  54290.000   1271652.3118  -4729242.1668   4072560.6384   1   8   0.0054   0.0090   0.0071  -0.0054  -0.0057   0.0025   0.00   14.7
2173  54291.000   1271652.3082  -4729242.1647   4072560.6379   1   8   0.0052   0.0091   0.0070  -0.0052  -0.0056   0.0023   0.00   14.7
2173  54292.000   1271652.3100  -4729242.1672   4072560.6415   1   8   0.0051   0.0091   0.0071  -0.0057  -0.0057   0.0023   1.00   14.7
2173  54293.000   1271652.3062  -4729242.1608   4072560.6373   1   8   0.0051   0.0090   0.0071  -0.0054  -0.0056   0.0024   0.00   14.6
2173  54294.000   1271652.3098  -4729242.1650   4072560.6394   1   8   0.0052   0.0088   0.0069  -0.0055  -0.0055   0.0020   0.00   14.6
2173  54295.000   1271652.3103  -4729242.1599   4072560.6377   1   8   0.0052   0.0091   0.0072  -0.0054  -0.0055   0.0028   0.00   14.6
2173  54296.000   1271652.3103  -4729242.1634   4072560.6381   1   8   0.0052   0.0092   0.0071  -0.0051  -0.0055   0.0025   0.00   14.6
2173  54297.000   1271652.3096  -4729242.1650   4072560.6382   1   8   0.0052   0.0089   0.0071  -0.0056  -0.0056   0.0027   0.00   14.6
2173  54298.000   1271652.3108  -4729242.1646   4072560.6361   1   8   0.0052   0.0091   0.0070  -0.0053  -0.0057   0.0026   0.00   14.7
2173  54299.000   1271652.3077  -4729242.1617   4072560.6387   1   8   0.0053   0.0091   0.0070  -0.0052  -0.0055   0.0023   0.00   14.6
2173  54300.000   1271652.3065  -4729242.1577   4072560.6326   1   8   0.0050   0.0089   0.0071  -0.0054  -0.0057   0.0023   0.00   14.5
2173  54301.000   1271652.3083  -4729242.1611   4072560.6378   1   8   0.0049   0.0088   0.0071  -0.0057  -0.0056   0.0025   0.00   14.4
2173  54302.000   1271652.3072  -4729242.1573   4072560.6364   1   8   0.0052   0.0088   0.0071  -0.0056  -0.0057   0.0025   0.00   14.3
2173  54303.000   1271652.3068  -4729242.1628   4072560.6379   1   8   0.0052   0.0090   0.0070  -0.0055  -0.0055   0.0020   0.00   14.3
2173  54304.000   1271652.3064  -4729242.1613   4072560.6397   1   8   0.0052   0.0091   0.0070  -0.0055  -0.0054   0.0026   0.00   14.2
2173  54305.000   1271652.3085  -4729242.1639   4072560.6384   1   8   0.0053   0.0091   0.0071  -0.0049  -0.0055   0.0027   0.00   14.2
2173  54306.000   1271652.3071  -4729242.1618   4072560.6416   1   8   0.0050   0.0089   0.0070  -0.0056  -0.0057   0.0026   0.00   14.1
2173  54307.000   1271652.3067  -4729242.1635   4072560.6381   1   8   0.0050   0.0090   0.0070  -0.0054  -0.0055   0.0023   0.00   14.1
2173  54308.000   1271652.3084  -4729242.1613   4072560.6359   1   8   0.0052   0.0090   0.0070  -0.0056  -0.0055   0.0027   0.00   14.0
2173  54309.000   1271652.3075  -4729242.1595   4072560.6348   1   8   0.0054   0.0090   0.0071  -0.0054  -0.0057   0.0021   0.00   14.0
2173  54310.000   1271652.3066  -4729242.1622   4072560.6384   1   8   0.0053   0.0089   0.0072  -0.0055  -0.0055   0.0024   0.00   14.0
2173  54311.000   1271652.3042  -4729242.1591   4072560.6373   1   8   0.0052   0.0089   0.0070  -0.0054  -0.0058   0.0021   0.00   13.9
2173  54312.000   1271652.3067  -4729242.1612   4072560.6365   1   8   0.0053   0.0089   0.0071  -0.0060  -0.0053   0.0022   0.00   13.8
2173  54313.000   1271652.3073  -4729242.1580   4072560.6338   1   8   0.0050   0.0090   0.0070  -0.0054  -0.0056   0.0028   0.00   13.8
2173  54314.000   1271652.3065  -4729242.1597   4072560.6377   1   8   0.0054   0.0090   0.0070  -0.0053  -0.0057   0.0024   0.00   13.7
2173  54315.000   1271652.3045  -4729242.1600   4072560.6377   1   8   0.0049   0.0087   0.0071  -0.0058  -0.0056   0.0029   0.00   13.6
2173  54316.000   1271652.3090  -4729242.1644   4072560.6370   1   8   0.0051   0.0089   0.0071  -0.0051  -0.0055   0.0029   0.00   13.6
2173  54317.000   1271652.3044  -4729242.1623   4072560.6384   1   8   0.0054   0.0090   0.0071  -0.0055  -0.0056   0.0024   0.00   13.6
2173  54318.000   1271652.3045  -4729242.1580   4072560.6375   1   8   0.0051   0.0089   0.0071  -0.0055  -0.0055   0.0021   0.00   13.6
2173  54319.000   1271652.3072  -4729242.1618   4072560.6362   1   8   0.0055   0.0090   0.0070  -0.0055  -0.0054   0.0021   0.00   13.5
2173  54320.000   1271652.3026  -4729242.1574   4072560.6374   1   8   0.0053   0.0092   0.0070  -0.0050  -0.0055   0.0023   0.00   13.5
2173  54321.000   1271652.3086  -4729242.1625   4072560.6356   1   8   0.0052   0.0090   0.0072  -0.0055  -0.0055   0.0028   0.00   13.5
2173  54322.000   1271652.3088  -4729242.1642   4072560.6377   1   8   0.0053   0.0090   0.0071  -0.0053  -0.0058   0.0026   0.00   13.4
2173  54323.000   1271652.3061  -4729242.1605   4072560.6343   1   8   0.0052   0.0091   0.0072  -0.0049  -0.0056   0.0026   0.00   13.4
2173  54324.000   1271652.3035  -4729242.1599   4072560.6360   1   8   0.0052   0.0089   0.0069  -0.0054  -0.0055   0.0023   0.00   13.4
2173  54325.000   1271652.3055  -4729242.1602   4072560.6369   1   8   0.0051   0.0091   0.0071  -0.0053  -0.0056   0.0021   0.00   13.3
2173  54326.000   1271652.3022  -4729242.1559   4072560.6381   1   8   0.0052   0.0090   0.0071  -0.0054  -0.0056   0.0024   0.00   13.3
2173  54327.000   1271652.3036  -4729242.1575   4072560.6353   1   8   0.0050   0.0090   0.0069  -0.0052  -0.0055   0.0026   0.00   13.3
2173  54328.000   1271652.3032  -4729242.1607   4072560.6356   1   8   0.0053   0.0088   0.0069  -0.0057  -0.0055   0.0026   0.00   13.2
2173  54329.000   1271652.3065  -4729242.1622   4072560.6369   1   8   0.0054   0.0091   0.0071  -0.0052  -0.0055   0.0018   0.00   13.2
2173  54330.000   1271652.3055  -4729242.1652   4072560.6400   1   8   0.0051   0.0089   0.0069  -0.0052  -0.0054   0.0023   0.00   13.2
2173  54331.000   1271652.3043  -4729242.1616   4072560.6364   1   8   0.0052   0.0091   0.0072  -0.0052  -0.0056   0.0023   0.00   13.2
2173  54332.000   1271652.3054  -4729242.1616   4072560.6372   1   8   0.0053   0.0091   0.0071  -0.0052  -0.0055   0.0026   0.00   13.1
2173  54333.000   1271652.3071  -4729242.1640   4072560.6375   1   8   0.0050   0.0089   0.0071  -0.0054  -0.0053   0.0023   0.00   13.1
2173  54334.000   1271652.3061  -4729242.1641   4072560.6386   1   8   0.0052   0.0090   0.0072  -0.0054  -0.0056   0.0029   0.00   13.1
2173  54335.000   1271652.3040  -4729242.1602   4072560.6373   1   8   0.0051   0.0091   0.0071  -0.0053  -0.0055   0.0020   0.00   13.0
2173  54336.000   1271652.3064  -4729242.1622   4072560.6374   1   8   0.0052   0.0087   0.0071  -0.0060  -0.0056   0.0028   0.00   13.0
2173  54337.000   1271652.3085  -4729242.1640   4072560.6372   1   8   0.0051   0.0092   0.0071  -0.0054  -0.0054   0.0028   0.00   13.0
2173  54338.000   1271652.3038  -4729242.1600   4072560.6364   1   8   0.0052   0.0091   0.0070  -0.0054  -0.0053   0.0019   0.00   13.0
2173  54339.000   1271652.3050  -4729242.1620   4072560.6351   1   8   0.0053   0.0092   0.0069  -0.0052  -0.0055   0.0022   0.00   13.0
2173  54340.000   1271652.3050  -4729242.1607   4072560.6334   1   8   0.0053   0.0091   0.0070  -0.0053  -0.0055   0.0026   0.00   13.0
2173  54341.000   1271652.3072  -4729242.1642   4072560.6344   1   8   0.0055   0.0089   0.0070  -0.0055  -0.0056   0.0022   0.00   13.0
2173  54342.000   1271652.3066  -4729242.1641   4072560.6355   1   8   0.0053   0.0088   0.0070  -0.0057  -0.0057   0.0027   0.00   13.0
2173  54343.000   1271652.3058  -4729242.1634   4072560.6368   1   8   0.0051   0.0086   0.0070  -0.0058  -0.0056   0.0023   0.00   13.0
2173  54344.000   1271652.3067  -4729242.1632   4072560.6349   1   8   0.0050   0.0088   0.0070  -0.0057  -0.0056   0.0026   0.00   13.0
2173  54345.000   1271652.3060  -4729242.1624   4072560.6344   1   8   0.0054   0.0091   0.0071  -0.0052  -0.0056   0.0023   0.00   13.0
2173  54346.000   1271652.3046  -4729242.1608   4072560.6343   1   8   0.0050   0.0089   0.0070  -0.0056  -0.0055   0.0028   0.00   13.0
2173  54347.000   1271652.3073  -4729242.1642   4072560.6331   1   8   0.0050   0.0089   0.0070  -0.0058  -0.0058   0.0021   0.00   13.0
2173  54348.000   1271652.3062  -4729242.1620   4072560.6332   1   8   0.0054   0.0091   0.0071  -0.0052  -0.0056   0.0017   0.00   13.0
2173  54349.000   1271652.3049  -4729242.1605   4072560.6316   1   8   0.0048   0.0089   0.0072  -0.0057  -0.0055   0.0027   0.00   13.0
2173  54350.000   1271652.3056  -4729242.1595   4072560.6317   1   8   0.0048   0.0088   0.0070  -0.0057  -0.0054   0.0026   0.00   13.0
2173  54351.000   1271652.3062  -4729242.1631   4072560.6353   1   8   0.0052   0.0090   0.0071  -0.0057  -0.0057   0.0024   0.00   12.9
2173  54352.000   1271652.3067  -4729242.1640   4072560.6364   1   8   0.0050   0.0092   0.0070  -0.0046  -0.0055   0.0022   0.00   13.0
2173  54353.000   1271652.3054  -4729242.1636   4072560.6355   1   8   0.0054   0.0089   0.0070  -0.0053  -0.0056   0.0024   0.00   13.0
2173  54354.000   1271652.3034  -4729242.1611   4072560.6345   1   8   0.0054   0.0090   0.0071  -0.0053  -0.0055   0.0023   0.00   13.0
2173  54355.000   1271652.3044  -4729242.1612   4072560.6341   1   8   0.0050   0.0090   0.0071  -0.0055  -0.0054   0.0024   0.00   12.9
2173  54356.000   1271652.3047  -4729242.1605   4072560.6346   1   8   0.0052   0.0088   0.0070  -0.0055  -0.0056   0.0023   0.00   12.9
2173  54357.000   1271652.3034  -4729242.1588   4072560.6351   1   8   0.0050   0.0090   0.0070  -0.0051  -0.0054   0.0024   0.00   12.9
2173  54358.000   1271652.3068  -4729242.1647   4072560.6366   1   8   0.0052   0.0091   0.0071  -0.0052  -0.0054   0.0017   0.00   13.0
2173  54359.000   1271652.3057  -4729242.1574   4072560.6329   1   8   0.0053   0.0091   0.0072  -0.0055  -0.0056   0.0024   0.00   13.0
2173  54360.000   1271652.3061  -4729242.1639   4072560.6345   1   8   0.0052   0.0088   0.0072  -0.0059  -0.0056   0.0029   0.00   13.0
2173  54361.000   1271652.3032  -4729242.1577   4072560.6323   1   8   0.0050   0.0088   0.0071  -0.0055  -0.0055   0.0022   0.00   13.0
2173  54362.000   1271652.3054  -4729242.1654   4072560.6356   1   8   0.0052   0.0091   0.0071  -0.0050  -0.0055   0.0025   0.00   13.0
2173  54363.000   1271652.3054  -4729242.1637   4072560.6370   1   8   0.0054   0.0092   0.0071  -0.0049  -0.0056   0.0018   0.00   13.0
2173  54364.000   1271652.3044  -4729242.1583   4072560.6323   1   8   0.0049   0.0088   0.0071  -0.0061  -0.0055   0.0027   0.00   13.0
2173  54365.000   1271652.3065  -4729242.1628   4072560.6363   1   8   0.0052   0.0091   0.0071  -0.0057  -0.0058   0.0021   1.00   13.0
2173  54366.000   1271652.3067  -4729242.1614   4072560.6341   1   8   0.0053   0.0090   0.0071  -0.0050  -0.0054   0.0022   0.00   13.0
2173  54367.000   1271652.3058  -4729242.1630   4072560.6356   1   8   0.0052   0.0092   0.0072  -0.0050  -0.0052   0.0024   0.00   13.0
2173  54368.000   1271652.3041  -4729242.1597   4072560.6351   1   8   0.0052   0.0090   0.0070  -0.0055  -0.0054   0.0024   0.00   13.0
2173  54369.000   1271652.3028  -4729242.1616   4072560.6359   1   8   0.0053   0.0091   0.0070  -0.0055  -0.0054   0.0026   0.00   13.0
2173  54370.000   1271652.3050  -4729242.1615   4072560.6352   1   8   0.0052   0.0089   0.0070  -0.0054  -0.0055   0.0024   0.00   13.0
2173  54371.000   1271652.3051  -4729242.1618   4072560.6373   1   8   0.0053   0.0090   0.0071  -0.0055  -0.0055   0.0024   0.00   12.9
2173  54372.000   1271652.3032  -4729242.1585   4072560.6343   1   8   0.0052   0.0089   0.0070  -0.0052  -0.0054   0.0026   0.00   13.0
2173  54373.000   1271652.3053  -4729242.1614   4072560.6341   1   8   0.0053   0.0089   0.0070  -0.0052  -0.0054   0.0022   0.00   13.0
2173  54374.000   1271652.3058  -4729242.1597   4072560.6340   1   8   0.0053   0.0089   0.0071  -0.0055  -0.0056   0.0020   0.00   13.0
2173  54375.000   1271652.3053  -4729242.1602   4072560.6372   1   8   0.0054   0.0090   0.0070  -0.0055  -0.0053   0.0024   0.00   13.1
2173  54376.000   1271652.3064  -4729242.1629   4072560.6353   1   8   0.0052   0.0090   0.0071  -0.0054  -0.0056   0.0027   0.00   13.0
2173  54377.000   1271652.3052  -4729242.1589   4072560.6342   1   8   0.0051   0.0091   0.0071  -0.0054  -0.0052   0.0021   0.00   13.1
2173  54378.000   1271652.3060  -4729242.1607   4072560.6350   1   8   0.0051   0.0088   0.0070  -0.0058  -0.0056   0.0021   0.00   13.0
2173  54379.000   1271652.3068  -4729242.1621   4072560.6372   1   8   0.0051   0.0089   0.0070  -0.0055  -0.0058   0.0019   0.00   13.0
2173  54380.000   1271652.3065  -4729242.1636   4072560.6340   1   8   0.0048   0.0088   0.0070  -0.0058  -0.0055   0.0027   0.00   12.9
2173  54381.000   1271652.3046  -4729242.1588   4072560.6355   1   8   0.0052   0.0089   0.0070  -0.0052  -0.0054   0.0027   0.00   12.9
2173  54382.000   1271652.3033  -4729242.1569   4072560.6349   1   8   0.0052   0.0088   0.0071  -0.0057  -0.0057   0.0024   0.00   12.8
2173  54383.000   1271652.3026  -4729242.1601   4072560.6361   1   8   0.0052   0.0090   0.0071  -0.0052  -0.0055   0.0025   0.00   12.8
2173  54384.000   1271652.3059  -4729242.1666   4072560.6383   1   8   0.0052   0.0090   0.0071  -0.0055  -0.0055   0.0026   0.00   12.7
2173  54385.000   1271652.3056  -4729242.1620   4072560.6369   1   8   0.0050   0.0086   0.0070  -0.0058  -0.0057   0.0022   0.00   12.7
2173  54386.000   1271652.3031  -4729242.1600   4072560.6342   1   8   0.0052   0.0090   0.0071  -0.0054  -0.0056   0.0022   0.00   12.7
2173  54387.000   1271652.3017  -4729242.1569   4072560.6344   1   8   0.0055   0.0089   0.0069  -0.0054  -0.0055   0.0019   0.00   12.7
2173  54388.000   1271652.3041  -4729242.1568   4072560.6339   1   8   0.0049   0.0088   0.0070  -0.0060  -0.0055   0.0027   0.00   12.6
2173  54389.000   1271652.3028  -4729242.1581   4072560.6351   1   8   0.0052   0.0088   0.0071  -0.0053  -0.0056   0.0025   0.00   12.6
2173  54390.000   1271652.3042  -4729242.1625   4072560.6368   1   8   0.0049   0.0089   0.0070  -0.0058  -0.0056   0.0030   0.00   12.6
2173  54391.000   1271652.3048  -4729242.1618   4072560.6355   1   8   0.0050   0.0089   0.0070  -0.0054  -0.0055   0.0023   0.00   12.6
2173  54392.000   1271652.3027  -4729242.1562   4072560.6344   1   8   0.0054   0.0089   0.0070  -0.0053  -0.0057   0.0016   0.00   12.6
2173  54393.000   1271652.3045  -4729242.1604   4072560.6356   1   8   0.0049   0.0087   0.0069  -0.0055  -0.0055   0.0022   0.00   12.6
2173  54394.000   1271652.3030  -4729242.1586   4072560.6344   1   8   0.0052   0.0088   0.0071  -0.0054  -0.0054   0.0013   0.00   12.5
2173  54395.000   1271652.3044  -4729242.1623   4072560.6375   1   8   0.0051   0.0090   0.0070  -0.0052  -0.0055   0.0026   0.00   12.5
2173  54396.000   1271652.3007  -4729242.1542   4072560.6337   1   8   0.0053   0.0089   0.0071  -0.0057  -0.0056   0.0024   0.00   12.4
2173  54397.000   1271652.3031  -4729242.1583   4072560.6361   1   8   0.0051   0.0088   0.0071  -0.0055  -0.0055   0.0024   0.00   12.4
2173  54398.000   1271652.3027  -4729242.1590   4072560.6376   1   8   0.0054   0.0091   0.0069  -0.0051  -0.0053   0.0022   0.00   12.4
2173  54399.000   1271652.3023  -4729242.1584   4072560.6372   1   8   0.0054   0.0092   0.0071  -0.0051  -0.0054   0.0019   0.00   12.4
2173  54400.000   1271652.3025  -4729242.1590   4072560.6374   1   8   0.0054   0.0090   0.0071  -0.0055  -0.0054   0.0018   0.00   12.4
2173  54401.000   1271652.3029  -4729242.1607   4072560.6384   1   8   0.0053   0.0092   0.0071  -0.0049  -0.0053   0.0020   0.00   12.3
2173  54402.000   1271652.3047  -4729242.1596   4072560.6382   1   8   0.0052   0.0090   0.0070  -0.0055  -0.0056   0.0022   0.00   12.3
2173  54403.000   1271652.3021  -4729242.1603   4072560.6370   1   8   0.0053   0.0090   0.0070  -0.0055  -0.0055   0.0026   0.00   12.3
2173  54404.000   1271652.2999  -4729242.1557   4072560.6365   1   8   0.0050   0.0088   0.0070  -0.0055  -0.0055   0.0018   0.00   12.2
2173  54405.000   1271652.3028  -4729242.1579   4072560.6382   1   8   0.0054   0.0092   0.0070  -0.0053  -0.0054   0.0017   0.00   12.2
2173  54406.000   1271652.3009  -4729242.1556   4072560.6363   1   8   0.0055   0.0090   0.0070  -0.0054  -0.0057   0.0023   0.00   12.2
2173  54407.000   1271652.3026  -4729242.1573   4072560.6374   1   8   0.0051   0.0090   0.0069  -0.0054  -0.0053   0.0020   0.00   12.2
2173  54408.000   1271652.3016  -4729242.1558   4072560.6367   1   8   0.0051   0.0089   0.0069  -0.0057  -0.0056   0.0024   0.00   12.2
2173  54409.000   1271652.3013  -4729242.1574   4072560.6374   1   8   0.0054   0.0088   0.0070  -0.0055  -0.0056   0.0021   0.00   12.2
2173  54410.000   1271652.3024  -4729242.1571   4072560.6374   1   8   0.0054   0.0088   0.0071  -0.0058  -0.0054   0.0022   0.00   12.2
2173  54411.000   1271652.3013  -4729242.1552   4072560.6361   1   8   0.0054   0.0090   0.0070  -0.0054  -0.0054   0.0027   0.00   12.2
2173  54412.000   1271652.3045  -4729242.1598   4072560.6386   1   8   0.0055   0.0091   0.0070  -0.0054  -0.0052   0.0021   0.00   12.1
2173  54413.000   1271652.3008  -4729242.1521   4072560.6343   1   8   0.0051   0.0086   0.0070  -0.0056  -0.0056   0.0019   0.00   12.1
2173  54414.000   1271652.3026  -4729242.1582   4072560.6385   1   8   0.0053   0.0090   0.0071  -0.0054  -0.0054   0.0022   0.00   12.1
2173  54415.000   1271652.3033  -4729242.1565   4072560.6362   1   8   0.0051   0.0090   0.0071  -0.0053  -0.0054   0.0021   0.00   12.1
2173  54416.000   1271652.3028  -4729242.1578   4072560.6359   1   8   0.0052   0.0087   0.0069  -0.0058  -0.0055   0.0028   0.00   12.0
2173  54417.000   1271652.3022  -4729242.1542   4072560.6364   1   8   0.0053   0.0089   0.0071  -0.0054  -0.0056   0.0024   0.00   12.0
2173  54418.000   1271652.3022  -4729242.1568   4072560.6359   1   8   0.0053   0.0091   0.0070  -0.0054  -0.0054   0.0024   0.00   12.0
2173  54419.000   1271652.3038  -4729242.1553   4072560.6357   1   8   0.0053   0.0088   0.0070  -0.0056  -0.0055   0.0024   0.00   12.0
2173  54420.000   1271652.3055  -4729242.1581   4072560.6372   1   8   0.0053   0.0092   0.0070  -0.0050  -0.0053   0.0017   0.00   12.0
2173  54421.000   1271652.3043  -4729242.1572   4072560.6369   1   8   0.0053   0.0091   0.0070  -0.0055  -0.0054   0.0020   0.00   12.0
2173  54422.000   1271652.3068  -4729242.1592   4072560.6373   1   8   0.0054   0.0090   0.0069  -0.0053  -0.0053   0.0016   0.00   12.0
2173  54423.000   1271652.3035  -4729242.1541   4072560.6350   1   8   0.0053   0.0090   0.0070  -0.0054  -0.0056   0.0025   0.00   12.0
2173  54424.000   1271652.3066  -4729242.1579   4072560.6376   1   8   0.0052   0.0089   0.0070  -0.0054  -0.0056   0.0020   0.00   12.0
2173  54425.000   1271652.3063  -4729242.1552   4072560.6354   1   8   0.0050   0.0090   0.0069  -0.0053  -0.0055   0.0019   0.00   12.0
2173  54426.000   1271652.3051  -4729242.1559   4072560.6359   1   8   0.0051   0.0089   0.0071  -0.0057  -0.0053   0.0025   0.00   12.0
2173  54427.000   1271652.3055  -4729242.1553   4072560.6330   1   8   0.0055   0.0091   0.0072  -0.0053  -0.0053   0.0020   0.00   12.0
2173  54428.000   1271652.3037  -4729242.1565   4072560.6367   1   8   0.0054   0.0089   0.0070  -0.0053  -0.0055   0.0019   0.00   12.0
2173  54429.000   1271652.3055  -4729242.1576   4072560.6348   1   8   0.0053   0.0090   0.0070  -0.0053  -0.0052   0.0022   0.00   12.0
2173  54430.000   1271652.3015  -4729242.1529   4072560.6366   1   8   0.0054   0.0090   0.0071  -0.0055  -0.0055   0.0020   0.00   11.9
2173  54431.000   1271652.3057  -4729242.1588   4072560.6366   1   8   0.0050   0.0089   0.0069  -0.0057  -0.0055   0.0023   0.00   11.9
2173  54432.000   1271652.3062  -4729242.1603   4072560.6389   1   8   0.0054   0.0089   0.0070  -0.0057  -0.0054   0.0027   0.00   11.9
2173  54433.000   1271652.3067  -4729242.1605   4072560.6364   1   8   0.0051   0.0089   0.0070  -0.0058  -0.0056   0.0025   0.00   12.0
2173  54434.000   1271652.3033  -4729242.1543   4072560.6356   1   8   0.0052   0.0089   0.0071  -0.0054  -0.0055   0.0022   0.00   11.9
2173  54435.000   1271652.3047  -4729242.1543   4072560.6355   1   8   0.0053   0.0089   0.0072  -0.0054  -0.0054   0.0024   0.00   11.9
2173  54436.000   1271652.3057  -4729242.1585   4072560.6366   1   8   0.0055   0.0091   0.0070  -0.0051  -0.0055   0.0017   0.00   11.9
2173  54437.000   1271652.3018  -4729242.1507   4072560.6350   1   8   0.0054   0.0090   0.0071  -0.0054  -0.0055   0.0023   0.00   12.0
2173  54438.000   1271652.3038  -4729242.1522   4072560.6336   1   8   0.0054   0.0092   0.0071  -0.0051  -0.0051   0.0017   0.00   12.0
2173  54439.000   1271652.3045  -4729242.1566   4072560.6376   1   8   0.0054   0.0089   0.0070  -0.0053  -0.0053   0.0023   0.00   12.0
2173  54440.000   1271652.3044  -4729242.1529   4072560.6336   1   8   0.0051   0.0091   0.0071  -0.0054  -0.0054   0.0025   0.00   11.9
2173  54441.000   1271652.3029  -4729242.1536   4072560.6368   1   8   0.0053   0.0089   0.0069  -0.0055  -0.0056   0.0021   0.00   12.0
2173  54442.000   1271652.3022  -4729242.1548   4072560.6366   1   8   0.0052   0.0090   0.0071  -0.0053  -0.0053   0.0018   0.00   12.0
2173  54443.000   1271652.3046  -4729242.1571   4072560.6380   1   8   0.0053   0.0090   0.0071  -0.0050  -0.0054   0.0022   0.00   12.0
2173  54444.000   1271652.3016  -4729242.1556   4072560.6374   1   8   0.0051   0.0090   0.0072  -0.0056  -0.0053   0.0028   0.00   12.0
2173  54445.000   1271652.3040  -4729242.1547   4072560.6347   1   8   0.0055   0.0091   0.0070  -0.0052  -0.0054   0.0025   0.00   12.0
2173  54446.000   1271652.3041  -4729242.1551   4072560.6336   1   8   0.0055   0.0090   0.0070  -0.0054  -0.0054   0.0022   0.00   12.1
2173  54447.000   1271652.3049  -4729242.1578   4072560.6369   1   8   0.0052   0.0089   0.0070  -0.0057  -0.0054   0.0026   0.00   12.1
2173  54448.000   1271652.3055  -4729242.1574   4072560.6343   1   8   0.0052   0.0090   0.0071  -0.0055  -0.0054   0.0021   0.00   12.1
2173  54449.000   1271652.3030  -4729242.1562   4072560.6339   1   8   0.0054   0.0092   0.0070  -0.0054  -0.0053   0.0022   0.00   12.2
2173  54450.000   1271652.3042  -4729242.1546   4072560.6340   1   8   0.0053   0.0088   0.0070  -0.0056  -0.0055   0.0027   0.00   12.2
2173  54451.000   1271652.3037  -4729242.1562   4072560.6333   1   8   0.0053   0.0090   0.0071  -0.0050  -0.0053   0.0022   0.00   12.2
2173  54452.000   1271652.3040  -4729242.1592   4072560.6341   1   8   0.0050   0.0088   0.0070  -0.0056  -0.0053   0.0023   0.00   12.2
2173  54453.000   1271652.3060  -4729242.1576   4072560.6338   1   8   0.0054   0.0090   0.0070  -0.0056  -0.0055   0.0020   0.00   12.3
2173  54454.000   1271652.3050  -4729242.1568   4072560.6339   1   8   0.0052   0.0088   0.0070  -0.0056  -0.0056   0.0023   0.00   12.3
2173  54455.000   1271652.3047  -4729242.1539   4072560.6350   1   8   0.0051   0.0090   0.0069  -0.0053  -0.0053   0.0019   0.00   12.3
2173  54456.000   1271652.3050  -4729242.1544   4072560.6320   1   8   0.0052   0.0087   0.0071  -0.0059  -0.0055   0.0024   0.00   12.3
2173  54457.000   1271652.3050  -4729242.1586   4072560.6354   1   8   0.0055   0.0090   0.0071  -0.0053  -0.0053   0.0024   0.00   12.4
2173  54458.000   1271652.3041  -4729242.1547   4072560.6335   1   8   0.0050   0.0086   0.0070  -0.0058  -0.0057   0.0023   0.00   12.4
2173  54459.000   1271652.3046  -4729242.1533   4072560.6328   1   8   0.0053   0.0091   0.0071  -0.0057  -0.0056   0.0021   0.00   12.5
2173  54460.000   1271652.3036  -4729242.1534   4072560.6330   1   8   0.0053   0.0090   0.0071  -0.0056  -0.0054   0.0023   0.00   12.5
2173  54461.000   1271652.3046  -4729242.1568   4072560.6322   1   8   0.0051   0.0089   0.0070  -0.0057  -0.0055   0.0020   0.00   12.5
2173  54462.000   1271652.3039  -4729242.1515   4072560.6334   1   8   0.0052   0.0089   0.0069  -0.0054  -0.0051   0.0026   0.00   12.6
2173  54463.000   1271652.3059  -4729242.1553   4072560.6319   1   8   0.0052   0.0089   0.0070  -0.0053  -0.0056   0.0018   0.00   12.6
2173  54464.000   1271652.3044  -4729242.1565   4072560.6339   1   8   0.0051   0.0090   0.0070  -0.0056  -0.0052   0.0021   0.00   12.6
2173  54465.000   1271652.3051  -4729242.1543   4072560.6328   1   8   0.0051   0.0088   0.0070  -0.0055  -0.0055   0.0022   0.00   12.6
2173  54466.000   1271652.3058  -4729242.1548   4072560.6322   1   8   0.0051   0.0089   0.0070  -0.0054  -0.0053   0.0021   0.00   12.6
2173  54467.000   1271652.3057  -4729242.1542   4072560.6291   1   8   0.0051   0.0088   0.0069  -0.0057  -0.0053   0.0023   0.00   12.7
2173  54468.000   1271652.3068  -4729242.1557   4072560.6297   1   8   0.0054   0.0090   0.0071  -0.0053  -0.0054   0.0023   0.00   12.7
2173  54469.000   1271652.3062  -4729242.1566   4072560.6304   1   8   0.0053   0.0090   0.0071  -0.0054  -0.0053   0.0022   0.00   12.7
2173  54470.000   1271652.3026  -4729242.1509   4072560.6312   1   8   0.0050   0.0088   0.0070  -0.0058  -0.0056   0.0024   0.00   12.8
2173  54471.000   1271652.3040  -4729242.1550   4072560.6289   1   8   0.0052   0.0088   0.0069  -0.0057  -0.0053   0.0022   0.00   12.8
2173  54472.000   1271652.3038  -4729242.1529   4072560.6314   1   8   0.0052   0.0090   0.0071  -0.0055  -0.0052   0.0022   0.00   12.8
2173  54473.000   1271652.3035  -4729242.1523   4072560.6323   1   8   0.0052   0.0090   0.0070  -0.0052  -0.0054   0.0020   0.00   12.8
2173  54474.000   1271652.3041  -4729242.1509   4072560.6306   1   8   0.0053   0.0091   0.0071  -0.0050  -0.0054   0.0026   0.00   12.9
2173  54475.000   1271652.3024  -4729242.1567   4072560.6319   1   8   0.0051   0.0088   0.0070  -0.0055  -0.0054   0.0023   0.00   12.9
2173  54476.000   1271652.3064  -4729242.1616   4072560.6328   1   8   0.0050   0.0088   0.0070  -0.0056  -0.0054   0.0029   0.00   12.9
2173  54477.000   1271652.3031  -4729242.1501   4072560.6309   1   8   0.0054   0.0090   0.0071  -0.0054  -0.0054   0.0019   0.00   13.0
2173  54478.000   1271652.3024  -4729242.1504   4072560.6301   1   8   0.0055   0.0092   0.0071  -0.0049  -0.0055   0.0020   0.00   13.0
2173  54479.000   1271652.3045  -4729242.1565   4072560.6314   1   8   0.0051   0.0087   0.0070  -0.0058  -0.0054   0.0021   0.00   13.1
2173  54480.000   1271652.3070  -4729242.1561   4072560.6308   1   8   0.0053   0.0090   0.0070  -0.0053  -0.0053   0.0024   0.00   13.1
2173  54481.000   1271652.3047  -4729242.1558   4072560.6329   1   8   0.0056   0.0092   0.0072  -0.0052  -0.0054   0.0023   0.00   13.2
2173  54482.000   1271652.3052  -4729242.1521   4072560.6290   1   8   0.0052   0.0088   0.0071  -0.0055  -0.0052   0.0027   0.00   13.2
2173  54483.000   1271652.3039  -4729242.1559   4072560.6316   1   8   0.0053   0.0088   0.0071  -0.0055  -0.0054   0.0021   0.00   13.3
2173  54484.000   1271652.3038  -4729242.1505   4072560.6283   1   8   0.0054   0.0092   0.0070  -0.0053  -0.0053   0.0020   0.00   13.4
2173  54485.000   1271652.3045  -4729242.1544   4072560.6335   1   8   0.0055   0.0093   0.0071  -0.0049  -0.0053   0.0018   0.00   13.4
2173  54486.000   1271652.3041  -4729242.1508   4072560.6311   1   8   0.0051   0.0088   0.0070  -0.0056  -0.0053   0.0024   0.00   13.5
2173  54487.000   1271652.3023  -4729242.1514   4072560.6306   1   8   0.0051   0.0089   0.0070  -0.0055  -0.0052   0.0022   0.00   13.5
2173  54488.000   1271652.3047  -4729242.1558   4072560.6310   1   8   0.0050   0.0088   0.0070  -0.0058  -0.0055   0.0024   0.00   13.6
2173  54489.000   1271652.3026  -4729242.1506   4072560.6283   1   8   0.0054   0.0092   0.0069  -0.0051  -0.0054   0.0017   0.00   13.6
2173  54490.000   1271652.3027  -4729242.1531   4072560.6326   1   8   0.0052   0.0088   0.0070  -0.0057  -0.0056   0.0025   0.00   13.7
2173  54491.000   1271652.3024  -4729242.1530   4072560.6321   1   8   0.0052   0.0091   0.0070  -0.0054  -0.0053   0.0024   0.00   13.8
2173  54492.000   1271652.3045  -4729242.1526   4072560.6323   1   8   0.0053   0.0090   0.0070  -0.0053  -0.0055   0.0019   0.00   13.9
2173  54493.000   1271652.3031  -4729242.1503   4072560.6312   1   8   0.0056   0.0090   0.0071  -0.0052  -0.0056   0.0021   0.00   14.0
2173  54494.000   1271652.3031  -4729242.1503   4072560.6309   1   8   0.0054   0.0090   0.0070  -0.0056  -0.0054   0.0024   0.00   14.1
2173  54495.000   1271652.3059  -4729242.1535   4072560.6293   1   8   0.0053   0.0091   0.0071  -0.0053  -0.0055   0.0026   0.00   14.2
2173  54496.000   1271652.3037  -4729242.1532   4072560.6343   1   8   0.0053   0.0087   0.0070  -0.0056  -0.0055   0.0022   0.00   14.3
2173  54497.000   1271652.3032  -4729242.1512   4072560.6319   1   8   0.0054   0.0089   0.0070  -0.0055  -0.0054   0.0022   0.00   14.4
2173  54498.000   1271652.3029  -4729242.1515   4072560.6292   1   8   0.0051   0.0089   0.0070  -0.0054  -0.0057   0.0023   0.00   14.5
2173  54499.000   1271652.3023  -4729242.1490   4072560.6279   1   8   0.0052   0.0091   0.0070  -0.0052  -0.0054   0.0023   0.00   14.7
2173  54500.000   1271652.3043  -4729242.1505   4072560.6278   1   8   0.0054   0.0090   0.0070  -0.0055  -0.0052   0.0018   0.00   14.8
2173  54501.000   1271652.3033  -4729242.1485   4072560.6279   1   8   0.0051   0.0088   0.0070  -0.0058  -0.0053   0.0015   0.00   14.9
2173  54502.000   1271652.3040  -4729242.1521   4072560.6338   1   8   0.0050   0.0086   0.0070  -0.0059  -0.0055   0.0026   0.00   15.0
2173  54503.000   1271652.3019  -4729242.1474   4072560.6279   1   8   0.0051   0.0086   0.0071  -0.0062  -0.0056   0.0025   0.00   15.1
2173  54504.000   1271652.3025  -4729242.1512   4072560.6320   1   8   0.0051   0.0089   0.0070  -0.0055  -0.0053   0.0020   0.00   15.2
2173  54505.000   1271652.3018  -4729242.1464   4072560.6303   1   8   0.0055   0.0092   0.0070  -0.0051  -0.0053   0.0025   0.00   15.3
2173  54506.000   1271652.3032  -4729242.1472   4072560.6296   1   8   0.0053   0.0088   0.0071  -0.0057  -0.0053   0.0021   0.00   15.5
2173  54507.000   1271652.3033  -4729242.1487   4072560.6301   1   8   0.0055   0.0092   0.0069  -0.0055  -0.0053   0.0010   0.00   15.6
2173  54508.000   1271652.3036  -4729242.1479   4072560.6289   1   8   0.0054   0.0090   0.0071  -0.0054  -0.0054   0.0022   0.00   15.7
2173  54509.000   1271652.3029  -4729242.1494   4072560.6314   1   8   0.0052   0.0089   0.0070  -0.0056  -0.0051   0.0022   0.00   15.9
2173  54510.000   1271652.3039  -4729242.1476   4072560.6289   1   8   0.0054   0.0091   0.0071  -0.0055  -0.0054   0.0020   0.00   16.0
2173  54511.000   1271652.3044  -4729242.1516   4072560.6289   1   8   0.0055   0.0091   0.0071  -0.0052  -0.0053   0.0020   0.00   16.1
2173  54512.000   1271652.3060  -4729242.1484   4072560.6303   1   8   0.0050   0.0088   0.0069  -0.0059  -0.0056   0.0026   0.00   16.2
2173  54513.000   1271652.3022  -4729242.1462   4072560.6275   1   8   0.0055   0.0090   0.0071  -0.0055  -0.0054   0.0025   0.00   16.4
2173  54514.000   1271652.2999  -4729242.1425   4072560.6273   1   8   0.0052   0.0090   0.0071  -0.0054  -0.0052   0.0021   0.00   16.5
2173  54515.000   1271652.3051  -4729242.1484   4072560.6300   1   8   0.0053   0.0089   0.0069  -0.0052  -0.0055   0.0019   0.00   16.6
2173  54516.000   1271652.3023  -4729242.1479   4072560.6300   1   8   0.0054   0.0094   0.0071  -0.0047  -0.0052   0.0017   0.00   16.7
2173  54517.000   1271652.3044  -4729242.1510   4072560.6303   1   8   0.0054   0.0089   0.0070  -0.0053  -0.0054   0.0017   0.00   16.9
2173  54518.000   1271652.3014  -4729242.1449   4072560.6266   1   8   0.0053   0.0091   0.0071  -0.0050  -0.0053   0.0022   0.00   17.0
2173  54519.000   1271652.3020  -4729242.1467   4072560.6313   1   8   0.0053   0.0088   0.0071  -0.0057  -0.0054   0.0025   0.00   17.2
2173  54520.000   1271652.3040  -4729242.1476   4072560.6292   1   8   0.0053   0.0090   0.0071  -0.0052  -0.0053   0.0018   0.00   17.3
2173  54521.000   1271652.3024  -4729242.1495   4072560.6282   1   8   0.0051   0.0088   0.0070  -0.0056  -0.0053   0.0017   0.00   17.5
2173  54522.000   1271652.3011  -4729242.1433   4072560.6285   1   8   0.0054   0.0091   0.0070  -0.0052  -0.0054   0.0017   0.00   17.6
2173  54523.000   1271652.3021  -4729242.1461   4072560.6269   1   8   0.0056   0.0092   0.0069  -0.0048  -0.0054   0.0011   0.00   17.7
2173  54524.000   1271652.3019  -4729242.1438   4072560.6287   1   8   0.0053   0.0090   0.0071  -0.0057  -0.0054   0.0020   0.00   17.9
2173  54525.000   1271652.2991  -4729242.1481   4072560.6307   1   8   0.0054   0.0090   0.0069  -0.0055  -0.0055   0.0024   0.00   18.0
2173  54526.000   1271652.3016  -4729242.1453   4072560.6286   1   8   0.0053   0.0089   0.0070  -0.0054  -0.0053   0.0016   0.00   18.2
2173  54527.000   1271652.3013  -4729242.1447   4072560.6281   1   8   0.0054   0.0089   0.0070  -0.0058  -0.0054   0.0023   0.00   18.3
2173  54528.000   1271652.3006  -4729242.1453   4072560.6288   1   8   0.0052   0.0089   0.0070  -0.0059  -0.0056   0.0018   0.00   18.4
2173  54529.000   1271652.3007  -4729242.1472   4072560.6295   1   8   0.0054   0.0091   0.0070  -0.0051  -0.0053   0.0024   0.00   18.5
2173  54530.000   1271652.2989  -4729242.1442   4072560.6267   1   8   0.0054   0.0090   0.0071  -0.0055  -0.0053   0.0025   0.00   18.7
2173  54531.000   1271652.3015  -4729242.1443   4072560.6294   1   8   0.0053   0.0091   0.0070  -0.0051  -0.0052   0.0020   0.00   18.9
2173  54532.000   1271652.3020  -4729242.1442   4072560.6289   1   8   0.0054   0.0090   0.0071  -0.0052  -0.0054   0.0022   0.00   19.0
2173  54533.000   1271652.3005  -4729242.1446   4072560.6268   1   8   0.0053   0.0090   0.0070  -0.0052  -0.0053   0.0021   0.00   19.1
2173  54534.000   1271652.3044  -4729242.1465   4072560.6298   1   8   0.0049   0.0088   0.0070  -0.0056  -0.0054   0.0023   0.00   19.3
2173  54535.000   1271652.3043  -4729242.1523   4072560.6299   1   8   0.0048   0.0086   0.0071  -0.0060  -0.0056   0.0018   0.00   19.4
2173  54536.000   1271652.3023  -4729242.1501   4072560.6297   1   8   0.0054   0.0090   0.0070  -0.0053  -0.0055   0.0021   0.00   19.6
2173  54537.000   1271652.2986  -4729242.1438   4072560.6278   1   8   0.0052   0.0088   0.0069  -0.0061  -0.0056   0.0020   0.00   19.7
2173  54538.000   1271652.3007  -4729242.1475   4072560.6282   1   8   0.0053   0.0089   0.0071  -0.0055  -0.0055   0.0024   0.00   19.9
2173  54539.000   1271652.3009  -4729242.1464   4072560.6313   1   8   0.0054   0.0090   0.0070  -0.0052  -0.0054   0.0020   0.00   20.0
2173  54540.000   1271652.3036  -4729242.1464   4072560.6292   1   8   0.0053   0.0091   0.0070  -0.0051  -0.0054   0.0016   0.00   20.2
2173  54541.000   1271652.3037  -4729242.1483   4072560.6282   1   8   0.0055   0.0090   0.0070  -0.0056  -0.0054   0.0013   0.00   20.3
2173  54542.000   1271652.3002  -4729242.1466   4072560.6267   1   8   0.0051   0.0088   0.0070  -0.0054  -0.0056   0.0020   0.00   20.4
2173  54543.000   1271652.3020  -4729242.1481   4072560.6288   1   8   0.0054   0.0089   0.0070  -0.0056  -0.0053   0.0023   0.00   20.6
2173  54544.000   1271652.3023  -4729242.1491   4072560.6284   1   8   0.0052   0.0088   0.0070  -0.0058  -0.0052   0.0021   0.00   20.7
2173  54545.000   1271652.3027  -4729242.1479   4072560.6273   1   8   0.0056   0.0090   0.0070  -0.0053  -0.0051   0.0017   0.00   20.8
2173  54546.000   1271652.2999  -4729242.1451   4072560.6273   1   8   0.0054   0.0089   0.0070  -0.0055  -0.0052   0.0023   0.00   21.0
2173  54547.000   1271652.3021  -4729242.1475   4072560.6292   1   8   0.0053   0.0088   0.0070  -0.0059  -0.0055   0.0020   0.00   21.1
2173  54548.000   1271652.3039  -4729242.1490   4072560.6277   1   8   0.0053   0.0089   0.0070  -0.0053  -0.0053   0.0020   0.00   21.3
2173  54549.000   1271652.2998  -4729242.1448   4072560.6265   1   8   0.0051   0.0088   0.0070  -0.0056  -0.0051   0.0022   0.00   21.5
2173  54550.000   1271652.2990  -4729242.1414   4072560.6295   1   8   0.0053   0.0088   0.0070  -0.0056  -0.0055   0.0013   0.00   21.6
2173  54551.000   1271652.3014  -4729242.1427   4072560.6249   1   8   0.0050   0.0087   0.0071  -0.0059  -0.0053   0.0027   0.00   21.7
2173  54552.000   1271652.3028  -4729242.1478   4072560.6303   1   8   0.0055   0.0090   0.0070  -0.0055  -0.0054   0.0018   0.00   21.9
2173  54553.000   1271652.2990  -4729242.1393   4072560.6253   1   8   0.0054   0.0089   0.0071  -0.0058  -0.0055   0.0017   0.00   22.0
2173  54554.000   1271652.3017  -4729242.1441   4072560.6278   1   8   0.0052   0.0092   0.0071  -0.0049  -0.0050   0.0023   0.00   22.2
2173  54555.000   1271652.3024  -4729242.1469   4072560.6250   1   8   0.0052   0.0090   0.0070  -0.0053  -0.0053   0.0020   0.00   22.4
2173  54556.000   1271652.3025  -4729242.1444   4072560.6270   1   8   0.0054   0.0089   0.0070  -0.0056  -0.0053   0.0021   0.00   22.5
2173  54557.000   1271652.3016  -4729242.1451   4072560.6267   1   8   0.0053   0.0087   0.0071  -0.0057  -0.0054   0.0021   0.00   22.7
2173  54558.000   1271652.3011  -4729242.1461   4072560.6272   1   8   0.0052   0.0089   0.0070  -0.0057  -0.0054   0.0023   0.00   22.8
2173  54559.000   1271652.3003  -4729242.1424   4072560.6254   1   8   0.0053   0.0089   0.0070  -0.0054  -0.0054   0.0019   0.00   23.0
2173  54560.000   1271652.2986  -4729242.1420   4072560.6264   1   8   0.0053   0.0088   0.0070  -0.0056  -0.0053   0.0008   0.00   23.1
2173  54561.000   1271652.2988  -4729242.1420   4072560.6277   1   8   0.0055   0.0089   0.0071  -0.0053  -0.0054   0.0015   0.00   23.3
2173  54562.000   1271652.2984  -4729242.1421   4072560.6255   1   8   0.0054   0.0090   0.0071  -0.0054  -0.0055   0.0021   0.00   23.5
2173  54563.000   1271652.2993  -4729242.1429   4072560.6274   1   8   0.0053   0.0091   0.0070  -0.0054  -0.0052   0.0023   0.00   23.6
2173  54564.000   1271652.2988  -4729242.1401   4072560.6262   1   8   0.0053   0.0090   0.0071  -0.0055  -0.0054   0.0021   0.00   23.8
2173  54565.000   1271652.3002  -4729242.1404   4072560.6272   1   8   0.0055   0.0091   0.0070  -0.0050  -0.0054   0.0016   0.00   24.0
2173  54566.000   1271652.2998  -4729242.1445   4072560.6262   1   8   0.0052   0.0088   0.0070  -0.0057  -0.0054   0.0022   0.00   24.1
2173  54567.000   1271652.3007  -4729242.1462   4072560.6274   1   8   0.0051   0.0090   0.0069  -0.0056  -0.0052   0.0013   0.00   24.3
2173  54568.000   1271652.2995  -4729242.1423   4072560.6264   1   8   0.0053   0.0089   0.0071  -0.0054  -0.0055   0.0018   0.00   24.4
2173  54569.000   1271652.3005  -4729242.1433   4072560.6256   1   8   0.0052   0.0090   0.0070  -0.0054  -0.0053   0.0019   0.00   24.6
2173  54570.000   1271652.3017  -4729242.1475   4072560.6286   1   8   0.0052   0.0089   0.0070  -0.0057  -0.0051   0.0025   0.00   24.8
2173  54571.000   1271652.2978  -4729242.1422   4072560.6277   1   8   0.0052   0.0089   0.0069  -0.0052  -0.0052   0.0015   0.00   25.0
2173  54572.000   1271652.3006  -4729242.1455   4072560.6271   1   8   0.0052   0.0089   0.0070  -0.0055  -0.0053   0.0026   0.00   25.2
2173  54573.000   1271652.3016  -4729242.1461   4072560.6270   1   8   0.0055   0.0090   0.0071  -0.0053  -0.0052   0.0022   0.00   25.3
2173  54574.000   1271652.3019  -4729242.1449   4072560.6265   1   8   0.0054   0.0090   0.0071  -0.0054  -0.0054   0.0022   0.00   25.5
2173  54575.000   1271652.3013  -4729242.1455   4072560.6264   1   8   0.0052   0.0089   0.0071  -0.0055  -0.0054   0.0019   0.00   25.7
2173  54576.000   1271652.3019  -4729242.1447   4072560.6276   1   8   0.0053   0.0088   0.0070  -0.0057  -0.0056   0.0019   0.00   25.8
2173  54577.000   1271652.3007  -4729242.1432   4072560.6263   1   8   0.0051   0.0091   0.0070  -0.0054  -0.0052   0.0020   0.00   26.0
2173  54578.000   1271652.3028  -4729242.1485   4072560.6295   1   8   0.0052   0.0090   0.0070  -0.0054  -0.0053   0.0020   0.00   26.1
2173  54579.000   1271652.2993  -4729242.1450   4072560.6266   1   8   0.0051   0.0088   0.0070  -0.0057  -0.0054   0.0023   0.00   26.3
2173  54580.000   1271652.3006  -4729242.1455   4072560.6310   1   8   0.0052   0.0088   0.0070  -0.0055  -0.0056   0.0020   0.00   26.4
2173  54581.000   1271652.2991  -4729242.1469   4072560.6311   1   8   0.0053   0.0089   0.0069  -0.0056  -0.0055   0.0019   0.00   26.4
2173  54582.000   1271652.2987  -4729242.1440   4072560.6258   1   8   0.0051   0.0089   0.0070  -0.0054  -0.0051   0.0021   0.00   26.4
2173  54583.000   1271652.2981  -4729242.1427   4072560.6264   1   8   0.0052   0.0090   0.0069  -0.0055  -0.0056   0.0013   0.00   26.5
2173  54584.000   1271652.2998  -4729242.1477   4072560.6300   1   8   0.0052   0.0090   0.0071  -0.0053  -0.0052   0.0018   0.00   26.5
2173  54585.000   1271652.2982  -4729242.1446   4072560.6289   1   8   0.0055   0.0090   0.0070  -0.0051  -0.0053   0.0014   0.00   26.5
2173  54586.000   1271652.2998  -4729242.1459   4072560.6261   1   8   0.0052   0.0088   0.0071  -0.0056  -0.0052   0.0019   0.00   26.5
2173  54587.000   1271652.3030  -4729242.1468   4072560.6255   1   8   0.0053   0.0091   0.0070  -0.0053  -0.0053   0.0016   0.00   26.5
2173  54588.000   1271652.3018  -4729242.1459   4072560.6273   1   8   0.0051   0.0089   0.0070  -0.0057  -0.0052   0.0021   0.00   26.5
2173  54589.000   1271652.3020  -4729242.1461   4072560.6272   1   8   0.0053   0.0088   0.0071  -0.0059  -0.0054   0.0017   0.00   26.5
2173  54590.000   1271652.3025  -4729242.1489   4072560.6288   1   8   0.0051   0.0085   0.0070  -0.0061  -0.0053   0.0024   0.00   26.5
2173  54591.000   1271652.3005  -4729242.1455   4072560.6269   1   8   0.0053   0.0090   0.0070  -0.0059  -0.0055   0.0011   0.00   26.5
2173  54592.000   1271652.3015  -4729242.1448   4072560.6253   1   8   0.0053   0.0090   0.0071  -0.0055  -0.0054   0.0012   0.00   26.5
2173  54593.000   1271652.3000  -4729242.1438   4072560.6268   1   8   0.0052   0.0088   0.0071  -0.0057  -0.0052   0.0021   0.00   26.5
2173  54594.000   1271652.3011  -4729242.1472   4072560.6290   1   8   0.0052   0.0090   0.0070  -0.0053  -0.0053   0.0019   0.00   26.5
2173  54595.000   1271652.2997  -4729242.1440   4072560.6276   1   8   0.0053   0.0089   0.0071  -0.0057  -0.0051   0.0019   0.00   26.5
2173  54596.000   1271652.3019  -4729242.1504   4072560.6281   1   8   0.0056   0.0091   0.0069  -0.0052  -0.0052   0.0016   0.00   26.5
2173  54597.000   1271652.3020  -4729242.1501   4072560.6312   1   8   0.0052   0.0090   0.0071  -0.0052  -0.0053   0.0019   0.00   26.5
2173  54598.000   1271652.3018  -4729242.1478   4072560.6314   1   8   0.0052   0.0090   0.0071  -0.0051  -0.0053   0.0021   0.00   26.5
2173  54599.000   1271652.3019  -4729242.1465   4072560.6268   1   8   0.0053   0.0089   0.0070  -0.0055  -0.0052   0.0021   0.00   26.5
2173  54600.000   1271652.3045  -4729242.1544   4072560.6308   1   8   0.0054   0.0089   0.0071  -0.0054  -0.0053   0.0020   0.00   26.5
2173  54601.000   1271652.3026  -4729242.1466   4072560.6281   1   8   0.0053   0.0091   0.0070  -0.0050  -0.0052   0.0022   0.00   26.5
2173  54602.000   1271652.3007  -4729242.1495   4072560.6290   1   8   0.0053   0.0089   0.0070  -0.0054  -0.0051   0.0017   0.00   26.4
2173  54603.000   1271652.3013  -4729242.1452   4072560.6296   1   8   0.0051   0.0088   0.0070  -0.0055  -0.0052   0.0022   0.00   26.4
2173  54604.000   1271652.3003  -4729242.1475   4072560.6276   1   8   0.0055   0.0088   0.0071  -0.0058  -0.0055   0.0017   0.00   26.4
2173  54605.000   1271652.3008  -4729242.1482   4072560.6308   1   8   0.0054   0.0091   0.0071  -0.0050  -0.0051   0.0020   0.00   26.4
2173  54606.000   1271652.2997  -4729242.1464   4072560.6279   1   8   0.0050   0.0088   0.0070  -0.0058  -0.0054   0.0023   0.00   26.4
2173  54607.000   1271652.3027  -4729242.1498   4072560.6268   1   8   0.0052   0.0089   0.0070  -0.0058  -0.0053   0.0017   0.00   26.4
2173  54608.000   1271652.3019  -4729242.1459   4072560.6272   1   8   0.0054   0.0091   0.0070  -0.0056  -0.0050   0.0012   0.00   26.4
2173  54609.000   1271652.2992  -4729242.1454   4072560.6284   1   8   0.0054   0.0091   0.0069  -0.0051  -0.0050   0.0013   0.00   26.4
2173  54610.000   1271652.3029  -4729242.1521   4072560.6298   1   8   0.0055   0.0089   0.0070  -0.0051  -0.0052   0.0020   0.00   26.4
2173  54611.000   1271652.3014  -4729242.1470   4072560.6277   1   8   0.0054   0.0089   0.0071  -0.0055  -0.0053   0.0021   0.00   26.4
2173  54612.000   1271652.3030  -4729242.1492   4072560.6302   1   8   0.0055   0.0088   0.0069  -0.0053  -0.0053   0.0021   0.00   26.4
2173  54613.000   1271652.3019  -4729242.1491   4072560.6269   1   8   0.0049   0.0087   0.0072  -0.0057  -0.0053   0.0028   0.00   26.3
2173  54614.000   1271652.3022  -4729242.1453   4072560.6259   1   8   0.0053   0.0087   0.0071  -0.0060  -0.0051   0.0024   0.00   26.3
2173  54615.000   1271652.3028  -4729242.1501   4072560.6291   1   8   0.0053   0.0090   0.0071  -0.0055  -0.0053   0.0013   0.00   26.3
2173  54616.000   1271652.3051  -4729242.1531   4072560.6293   1   8   0.0055   0.0090   0.0069  -0.0052  -0.0052   0.0015   0.00   26.3
2173  54617.000   1271652.3035  -4729242.1502   4072560.6295   1   8   0.0054   0.0091   0.0070  -0.0051  -0.0051   0.0016   0.00   26.3
2173  54618.000   1271652.3054  -4729242.1521   4072560.6284   1   8   0.0050   0.0089   0.0070  -0.0056  -0.0051   0.0026   0.00   26.3
2173  54619.000   1271652.3056  -4729242.1509   4072560.6270   1   8   0.0054   0.0090   0.0070  -0.0055  -0.0054   0.0012   0.00   26.2
2173  54620.000   1271652.3041  -4729242.1504   4072560.6279   1   8   0.0056   0.0090   0.0071  -0.0053  -0.0052   0.0017   0.00   26.2
2173  54621.000   1271652.3070  -4729242.1506   4072560.6271   1   8   0.0051   0.0087   0.0069  -0.0059  -0.0054   0.0021   0.00   26.2
2173  54622.000   1271652.3067  -4729242.1500   4072560.6267   1   8   0.0052   0.0089   0.0069  -0.0054  -0.0054   0.0015   0.00   26.2
2173  54623.000   1271652.3060  -4729242.1511   4072560.6285   1   8   0.0053   0.0091   0.0069  -0.0050  -0.0054   0.0018   0.00   26.2
2173  54624.000   1271652.3057  -4729242.1502   4072560.6270   1   8   0.0054   0.0088   0.0070  -0.0058  -0.0053   0.0016   0.00   26.2
2173  54625.000   1271652.3067  -4729242.1494   4072560.6292   1   8   0.0052   0.0089   0.0071  -0.0057  -0.0052   0.0025   0.00   26.2
2173  54626.000   1271652.3054  -4729242.1520   4072560.6292   1   8   0.0055   0.0089   0.0070  -0.0055  -0.0053   0.0019   0.00   26.2
2173  54627.000   1271652.3062  -4729242.1522   4072560.6250   1   8   0.0052   0.0090   0.0071  -0.0049  -0.0053   0.0014   0.00   26.2
2173  54628.000   1271652.3075  -4729242.1492   4072560.6275   1   8   0.0054   0.0089   0.0071  -0.0054  -0.0055   0.0018   0.00   26.2
2173  54629.000   1271652.3038  -4729242.1478   4072560.6266   1   8   0.0051   0.0089   0.0070  -0.0054  -0.0053   0.0017   0.00   26.2
2173  54630.000   1271652.3053  -4729242.1479   4072560.6256   1   8   0.0055   0.0092   0.0070  -0.0048  -0.0049   0.0019   0.00   26.2
2173  54631.000   1271652.3057  -4729242.1509   4072560.6280   1   8   0.0052   0.0090   0.0070  -0.0054  -0.0055   0.0017   0.00   26.2
2173  54632.000   1271652.3035  -4729242.1473   4072560.6245   1   8   0.0054   0.0090   0.0070  -0.0053  -0.0052   0.0016   0.00   26.3
2173  54633.000   1271652.3056  -4729242.1490   4072560.6253   1   8   0.0053   0.0089   0.0071  -0.0057  -0.0052   0.0021   0.00   26.3
2173  54634.000   1271652.3064  -4729242.1517   4072560.6278   1   8   0.0055   0.0091   0.0071  -0.0053  -0.0051   0.0023   0.00   26.3
2173  54635.000   1271652.3068  -4729242.1495   4072560.6255   1   8   0.0055   0.0090   0.0070  -0.0052  -0.0050   0.0021   0.00   26.3
2173  54636.000   1271652.3062  -4729242.1530   4072560.6289   1   8   0.0054   0.0090   0.0071  -0.0052  -0.0053   0.0019   0.00   26.3
2173  54637.000   1271652.3055  -4729242.1521   4072560.6298   1   8   0.0054   0.0087   0.0071  -0.0058  -0.0052   0.0024   0.00   26.4
2173  54638.000   1271652.3054  -4729242.1485   4072560.6246   1   8   0.0057   0.0092   0.0071  -0.0051  -0.0050   0.0016   0.00   26.4
2173  54639.000   1271652.3060  -4729242.1503   4072560.6272   1   8   0.0054   0.0088   0.0069  -0.0056  -0.0052   0.0017   0.00   26.4
2173  54640.000   1271652.3055  -4729242.1499   4072560.6293   1   8   0.0052   0.0089   0.0070  -0.0054  -0.0052   0.0023   0.00   26.4
2173  54641.000   1271652.3035  -4729242.1492   4072560.6289   1   8   0.0055   0.0090   0.0070  -0.0053  -0.0050   0.0018   0.00   26.4
2173  54642.000   1271652.3058  -4729242.1474   4072560.6280   1   8   0.0052   0.0087   0.0070  -0.0060  -0.0053   0.0024   0.00   26.4
2173  54643.000   1271652.3077  -4729242.1492   4072560.6284   1   8   0.0051   0.0089   0.0071  -0.0058  -0.0055   0.0022   1.00   26.4
2173  54644.000   1271652.3051  -4729242.1486   4072560.6280   1   8   0.0054   0.0090   0.0068  -0.0051  -0.0052   0.0019   0.00   26.5
2173  54645.000   1271652.3071  -4729242.1503   4072560.6302   1   8   0.0050   0.0089   0.0071  -0.0058  -0.0052   0.0021   0.00   26.4
2173  54646.000   1271652.3079  -4729242.1539   4072560.6285   1   8   0.0051   0.0088   0.0069  -0.0057  -0.0053   0.0019   0.00   26.4
2173  54647.000   1271652.3048  -4729242.1518   4072560.6290   1   8   0.0053   0.0088   0.0071  -0.0060  -0.0053   0.0023   0.00   26.4
2173  54648.000   1271652.3062  -4729242.1547   4072560.6295   1   8   0.0054   0.0089   0.0071  -0.0057  -0.0052   0.0027   0.00   26.4
2173  54649.000   1271652.3074  -4729242.1539   4072560.6266   1   8   0.0052   0.0089   0.0071  -0.0053  -0.0050   0.0021   0.00   26.4
2173  54650.000   1271652.3065  -4729242.1509   4072560.6307   1   8   0.0057   0.0092   0.0070  -0.0050  -0.0052   0.0018   0.00   26.3
2173  54651.000   1271652.3042  -4729242.1500   4072560.6303   1   8   0.0048   0.0087   0.0070  -0.0058  -0.0053   0.0020   0.00   26.3
2173  54652.000   1271652.3054  -4729242.1489   4072560.6274   1   8   0.0053   0.0090   0.0070  -0.0054  -0.0052   0.0017   0.00   26.3
2173  54653.000   1271652.3052  -4729242.1510   4072560.6293   1   8   0.0053   0.0089   0.0070  -0.0053  -0.0052   0.0008   0.00   26.3
2173  54654.000   1271652.3051  -4729242.1513   4072560.6283   1   8   0.0053   0.0091   0.0070  -0.0055  -0.0050   0.0020   0.00   26.3
2173  54655.000   1271652.3066  -4729242.1573   4072560.6287   1   8   0.0056   0.0092   0.0069  -0.0052  -0.0052   0.0002   0.00   26.2
2173  54656.000   1271652.3065  -4729242.1544   4072560.6307   1   8   0.0054   0.0089   0.0071  -0.0054  -0.0053   0.0020   0.00   26.3
2173  54657.000   1271652.3087  -4729242.1557   4072560.6306   1   8   0.0057   0.0090   0.0070  -0.0056  -0.0054   0.0011   0.00   26.2
2173  54658.000   1271652.3067  -4729242.1546   4072560.6287   1   8   0.0054   0.0088   0.0070  -0.0056  -0.0052   0.0018   0.00   26.2
2173  54659.000   1271652.3058  -4729242.1507   4072560.6298   1   8   0.0053   0.0089   0.0071  -0.0056  -0.0052   0.0020   0.00   26.2
2173  54660.000   1271652.3065  -4729242.1526   4072560.6298   1   8   0.0056   0.0090   0.0071  -0.0056  -0.0052   0.0020   0.00   26.2
2173  54661.000   1271652.3045  -4729242.1537   4072560.6281   1   8   0.0054   0.0088   0.0070  -0.0057  -0.0055   0.0016   0.00   26.2
2173  54662.000   1271652.3080  -4729242.1552   4072560.6285   1   8   0.0050   0.0088   0.0071  -0.0056  -0.0052   0.0027   0.00   26.2
2173  54663.000   1271652.3047  -4729242.1506   4072560.6266   1   8   0.0052   0.0088   0.0070  -0.0055  -0.0054   0.0024   0.00   26.2
2173  54664.000   1271652.3094  -4729242.1553   4072560.6269   1   8   0.0052   0.0089   0.0070  -0.0056  -0.0052   0.0018   0.00   26.2
2173  54665.000   1271652.3060  -4729242.1515   4072560.6269   1   8   0.0054   0.0089   0.0071  -0.0051  -0.0049   0.0021   0.00   26.2
2173  54666.000   1271652.3058  -4729242.1540   4072560.6271   1   8   0.0055   0.0089   0.0070  -0.0058  -0.0054   0.0020   0.00   26.2
2173  54667.000   1271652.3053  -4729242.1529   4072560.6272   1   8   0.0054   0.0090   0.0070  -0.0052  -0.0052   0.0014   0.00   26.2
2173  54668.000   1271652.3034  -4729242.1533   4072560.6286   1   8   0.0056   0.0091   0.0071  -0.0054  -0.0053   0.0014   0.00   26.2
2173  54669.000   1271652.3079  -4729242.1540   4072560.6291   1   8   0.0056   0.0089   0.0070  -0.0056  -0.0053   0.0012   0.00   26.2
2173  54670.000   1271652.3053  -4729242.1546   4072560.6299   1   8   0.0054   0.0088   0.0071  -0.0052  -0.0052   0.0021   0.00   26.2
2173  54671.000   1271652.3043  -4729242.1523   4072560.6276   1   8   0.0053   0.0089   0.0070  -0.0057  -0.0050   0.0022   0.00   26.1
2173  54672.000   1271652.3066  -4729242.1529   4072560.6255   1   8   0.0054   0.0090   0.0070  -0.0055  -0.0050   0.0014   0.00   26.1
2173  54673.000   1271652.3068  -4729242.1537   4072560.6258   1   8   0.0050   0.0085   0.0071  -0.0059  -0.0052   0.0025   0.00   26.1
