% program   : rnx2rtkp ver.2.4.3 b31
% inp file  : ngs/21_09_01_09_12_18_pass.obs
% inp file  : ngs/21_09_01_09_12_18_pass_VZ.obs
% inp file  : ngs/21_09_01_09_12_18_brdc.nav
% obs start : 2021/09/01 09:00:00.0 GPST (week2173 291600.0s)
% obs end   : 2021/09/01 09:59:59.0 GPST (week2173 295199.0s)
% ref pos   :  1138840.8159  -4713565.5459   4129813.2920
%
% (x/y/z-ecef=WGS84,Q=1:fix,2:float,3:sbas,4:dgps,5:single,6:ppp,ns=# of satellites)
%  GPST              x-ecef(m)      y-ecef(m)      z-ecef(m)   Q  ns   sdx(m)   sdy(m)   sdz(m)  sdxy(m)  sdyz(m)  sdzx(m) age(s)  ratio
2173 292327.000   1159577.4315  -4706155.0842   4132204.3887   2   9   0.4798   0.9463   0.7432  -0.5222  -0.6677   0.3400 -30.00    1.1
2173 292328.000   1159577.4843  -4706155.1269   4132204.4862   2   9   0.3414   0.6745   0.5294  -0.3717  -0.4763   0.2423 -29.00    1.1
2173 292329.000   1159577.4247  -4706155.0882   4132204.4491   2   9   0.2796   0.5525   0.4336  -0.3044  -0.3902   0.1985 -28.00    1.1
2173 292330.000   1159577.4038  -4706155.1912   4132204.5090   2   9   0.2426   0.4794   0.3762  -0.2642  -0.3386   0.1722 -27.00    1.1
2173 292331.000   1159577.4060  -4706155.1574   4132204.4968   2   9   0.2173   0.4293   0.3369  -0.2366  -0.3032   0.1542 -26.00    1.1
2173 292332.000   1159577.4289  -4706155.2561   4132204.5258   2   9   0.1985   0.3923   0.3078  -0.2163  -0.2770   0.1409 -25.00    1.1
2173 292333.000   1159577.4371  -4706155.2928   4132204.5180   2   9   0.1840   0.3635   0.2851  -0.2004  -0.2567   0.1306 -24.00    1.1
2173 292334.000   1159577.4442  -4706155.3197   4132204.4788   2   9   0.1722   0.3402   0.2668  -0.1876  -0.2402   0.1222 -23.00    1.1
2173 292335.000   1159577.4232  -4706155.3051   4132204.4489   2   9   0.1624   0.3209   0.2517  -0.1770  -0.2266   0.1153 -22.00    1.1
2173 292336.000   1159577.4440  -4706155.3290   4132204.4539   2   9   0.1542   0.3045   0.2388  -0.1680  -0.2150   0.1094 -21.00    1.1
2173 292337.000   1159577.4398  -4706155.3213   4132204.4201   2   9   0.1470   0.2904   0.2277  -0.1602  -0.2050   0.1044 -20.00    1.1
2173 292338.000   1159577.4239  -4706155.2960   4132204.3804   2   9   0.1408   0.2781   0.2180  -0.1534  -0.1963   0.0999 -19.00    1.1
2173 292339.000   1159577.4160  -4706155.2558   4132204.3364   2   9   0.1353   0.2672   0.2094  -0.1474  -0.1886   0.0960 -18.00    1.1
2173 292340.000   1159577.4078  -4706155.2280   4132204.3191   2   9   0.1304   0.2575   0.2018  -0.1421  -0.1817   0.0925 -17.00    1.1
2173 292341.000   1159577.4066  -4706155.2146   4132204.2951   2   9   0.1260   0.2487   0.1949  -0.1372  -0.1756   0.0894 -16.00    1.1
2173 292342.000   1159577.4005  -4706155.2080   4132204.2706   2   9   0.1219   0.2408   0.1886  -0.1329  -0.1699   0.0866 -15.00    1.1
2173 292343.000   1159577.3955  -4706155.1929   4132204.2503   2   9   0.1183   0.2336   0.1829  -0.1289  -0.1648   0.0840 -14.00    1.1
2173 292344.000   1159577.3926  -4706155.1894   4132204.2420   2   9   0.1149   0.2270   0.1777  -0.1252  -0.1601   0.0816 -13.00    1.0
2173 292345.000   1159577.3763  -4706155.1579   4132204.2188   2   9   0.1118   0.2208   0.1728  -0.1219  -0.1558   0.0794 -12.00    1.0
2173 292346.000   1159577.3614  -4706155.1347   4132204.1969   2   9   0.1090   0.2152   0.1684  -0.1187  -0.1518   0.0774 -11.00    1.0
2173 292347.000   1159577.3510  -4706155.1105   4132204.1880   2   9   0.1063   0.2099   0.1642  -0.1158  -0.1481   0.0755 -10.00    1.1
2173 292348.000   1159577.3475  -4706155.1034   4132204.1789   2   9   0.1038   0.2050   0.1603  -0.1132  -0.1446   0.0737  -9.00    1.1
2173 292349.000   1159577.3528  -4706155.0984   4132204.1705   2   9   0.1015   0.2005   0.1567  -0.1106  -0.1414   0.0721  -8.00    1.1
2173 292350.000   1159577.3432  -4706155.0878   4132204.1803   2   9   0.0994   0.1962   0.1533  -0.1083  -0.1383   0.0705  -7.00    1.1
2173 292351.000   1159577.3388  -4706155.0917   4132204.1819   2   9   0.0973   0.1921   0.1501  -0.1060  -0.1355   0.0691  -6.00    1.0
2173 292352.000   1159577.3336  -4706155.1019   4132204.1929   2   9   0.0954   0.1883   0.1470  -0.1039  -0.1328   0.0677  -5.00    1.0
2173 292353.000   1159577.3325  -4706155.1219   4132204.2110   2   9   0.0936   0.1847   0.1442  -0.1020  -0.1302   0.0664  -4.00    1.0
2173 292354.000   1159577.3296  -4706155.1242   4132204.2197   2   9   0.0919   0.1813   0.1415  -0.1001  -0.1278   0.0652  -3.00    1.1
2173 292355.000   1159577.3203  -4706155.1175   4132204.2234   2   9   0.0902   0.1781   0.1389  -0.0983  -0.1255   0.0640  -2.00    1.1
2173 292356.000   1159577.3253  -4706155.1440   4132204.2435   2   9   0.0887   0.1751   0.1364  -0.0966  -0.1233   0.0629  -1.00    1.1
2173 292357.000   1159577.3210  -4706155.1455   4132204.2440   2   9   0.0872   0.1722   0.1341  -0.0950  -0.1212   0.0619   0.00    1.1
2173 292358.000   1159577.3183  -4706155.1704   4132204.2678   2   9   0.0859   0.1694   0.1319  -0.0935  -0.1192   0.0608   0.00    1.0
2173 292359.000   1159577.3206  -4706155.1791   4132204.2748   2   9   0.0845   0.1668   0.1298  -0.0921  -0.1173   0.0599   0.00    1.0
2173 292360.000   1159577.3165  -4706155.1744   4132204.2728   2   9   0.0833   0.1643   0.1278  -0.0907  -0.1155   0.0590   0.00    1.0
2173 292361.000   1159577.3255  -4706155.1910   4132204.2825   2   9   0.0821   0.1619   0.1259  -0.0894  -0.1138   0.0581   0.00    1.0
2173 292362.000   1159577.3311  -4706155.2004   4132204.2974   2   9   0.0810   0.1595   0.1240  -0.0881  -0.1121   0.0572   0.00    1.0
2173 292363.000   1159577.3309  -4706155.2051   4132204.3041   2   9   0.0799   0.1573   0.1222  -0.0869  -0.1105   0.0564   0.00    1.1
2173 292364.000   1159577.3336  -4706155.2217   4132204.3101   2   9   0.0788   0.1552   0.1205  -0.0857  -0.1090   0.0557   0.00    1.1
2173 292365.000   1159577.3388  -4706155.2273   4132204.3144   2   9   0.0778   0.1531   0.1188  -0.0846  -0.1075   0.0549   0.00    1.1
2173 292366.000   1159577.3420  -4706155.2311   4132204.3144   2   9   0.0768   0.1512   0.1172  -0.0835  -0.1061   0.0542   0.00    1.1
2173 292367.000   1159577.3479  -4706155.2408   4132204.3190   2   9   0.0758   0.1492   0.1156  -0.0825  -0.1047   0.0535   0.00    1.1
2173 292368.000   1159577.3492  -4706155.2458   4132204.3148   2   9   0.0750   0.1474   0.1141  -0.0815  -0.1033   0.0528   0.00    1.1
2173 292369.000   1159577.3487  -4706155.2408   4132204.3090   2   9   0.0741   0.1456   0.1127  -0.0805  -0.1020   0.0522   0.00    1.1
2173 292370.000   1159577.3519  -4706155.2436   4132204.3034   2   9   0.0732   0.1439   0.1112  -0.0795  -0.1008   0.0515   0.00    1.1
2173 292371.000   1159577.3560  -4706155.2423   4132204.2980   2   9   0.0724   0.1422   0.1098  -0.0786  -0.0995   0.0509   0.00    1.1
2173 292372.000   1159577.3613  -4706155.2480   4132204.2910   2   9   0.0716   0.1405   0.1085  -0.0777  -0.0983   0.0503   0.00    1.1
2173 292373.000   1159577.3634  -4706155.2444   4132204.2903   2   9   0.0709   0.1390   0.1072  -0.0768  -0.0972   0.0497   0.00    1.1
2173 292374.000   1159577.3632  -4706155.2529   4132204.2884   2   9   0.0700   0.1374   0.1059  -0.0760  -0.0960   0.0492   0.00    1.1
2173 292375.000   1159577.3598  -4706155.2445   4132204.2869   2   9   0.0693   0.1359   0.1047  -0.0751  -0.0949   0.0486   0.00    1.2
2173 292376.000   1159577.3625  -4706155.2423   4132204.2896   2   9   0.0686   0.1345   0.1034  -0.0744  -0.0939   0.0480   0.00    1.2
2173 292377.000   1159577.3591  -4706155.2285   4132204.2779   2   9   0.0679   0.1331   0.1023  -0.0736  -0.0928   0.0476   0.00    1.2
2173 292378.000   1159577.3609  -4706155.2247   4132204.2761   2   9   0.0672   0.1317   0.1011  -0.0728  -0.0918   0.0470   0.00    1.2
2173 292379.000   1159577.3576  -4706155.2211   4132204.2721   2   9   0.0665   0.1303   0.1000  -0.0721  -0.0908   0.0466   0.00    1.2
2173 292380.000   1159577.3578  -4706155.2095   4132204.2653   2   9   0.0660   0.1290   0.0989  -0.0714  -0.0898   0.0460   0.00    1.2
2173 292381.000   1159577.3586  -4706155.2120   4132204.2623   2   9   0.0654   0.1277   0.0978  -0.0706  -0.0889   0.0455   0.00    1.2
2173 292382.000   1159577.3582  -4706155.2136   4132204.2601   2   9   0.0647   0.1265   0.0967  -0.0699  -0.0879   0.0451   0.00    1.2
2173 292383.000   1159577.3596  -4706155.2038   4132204.2533   2   9   0.0642   0.1253   0.0957  -0.0693  -0.0870   0.0447   0.00    1.2
2173 292384.000   1159577.3609  -4706155.2032   4132204.2482   2   9   0.0635   0.1241   0.0946  -0.0686  -0.0861   0.0442   0.00    1.2
2173 292385.000   1159577.3701  -4706155.2059   4132204.2450   2   9   0.0630   0.1229   0.0936  -0.0680  -0.0852   0.0438   0.00    1.2
2173 292386.000   1159577.3759  -4706155.2151   4132204.2554   2   9   0.0624   0.1217   0.0926  -0.0674  -0.0844   0.0433   0.00    1.2
2173 292387.000   1159577.3769  -4706155.2040   4132204.2478   2   9   0.0619   0.1206   0.0917  -0.0667  -0.0835   0.0430   0.00    1.2
2173 292388.000   1159577.3802  -4706155.2019   4132204.2464   2   9   0.0614   0.1195   0.0907  -0.0661  -0.0827   0.0425   0.00    1.2
2173 292389.000   1159577.3818  -4706155.2084   4132204.2461   2   9   0.0608   0.1184   0.0898  -0.0655  -0.0819   0.0420   0.00    1.2
2173 292390.000   1159577.3824  -4706155.1955   4132204.2341   2   9   0.0604   0.1174   0.0888  -0.0649  -0.0811   0.0417   0.00    1.2
2173 292391.000   1159577.3896  -4706155.2112   4132204.2432   2   9   0.0599   0.1164   0.0880  -0.0644  -0.0803   0.0413   0.00    1.2
2173 292392.000   1159577.3957  -4706155.2162   4132204.2410   2   9   0.0594   0.1157   0.0873  -0.0639  -0.0799   0.0410   0.00    1.0
2173 292393.000   1159577.3979  -4706155.2131   4132204.2415   2   9   0.0589   0.1146   0.0865  -0.0633  -0.0791   0.0407   0.00    1.0
2173 292394.000   1159577.4003  -4706155.2080   4132204.2363   2   9   0.0585   0.1136   0.0857  -0.0627  -0.0784   0.0403   0.00    1.0
2173 292395.000   1159577.4029  -4706155.2091   4132204.2367   2   9   0.0580   0.1126   0.0849  -0.0622  -0.0777   0.0399   0.00    1.1
2173 292396.000   1159577.4067  -4706155.2151   4132204.2312   2   9   0.0575   0.1117   0.0841  -0.0617  -0.0770   0.0396   0.00    1.1
2173 292397.000   1159577.4106  -4706155.2189   4132204.2312   2   9   0.0571   0.1108   0.0834  -0.0612  -0.0763   0.0392   0.00    1.1
2173 292398.000   1159577.4117  -4706155.2157   4132204.2288   2   9   0.0567   0.1098   0.0826  -0.0607  -0.0756   0.0389   0.00    1.1
2173 292399.000   1159577.4166  -4706155.2236   4132204.2239   2   9   0.0563   0.1090   0.0819  -0.0601  -0.0750   0.0386   0.00    1.1
2173 292400.000   1159577.4171  -4706155.2233   4132204.2255   2   9   0.0558   0.1081   0.0811  -0.0596  -0.0743   0.0382   0.00    1.1
2173 292401.000   1159577.4186  -4706155.2148   4132204.2178   2   9   0.0555   0.1072   0.0804  -0.0592  -0.0737   0.0379   0.00    1.1
2173 292402.000   1159577.4180  -4706155.2099   4132204.2114   2   9   0.0551   0.1064   0.0797  -0.0587  -0.0730   0.0376   0.00    1.1
2173 292403.000   1159577.4210  -4706155.2103   4132204.2100   2   9   0.0546   0.1055   0.0790  -0.0582  -0.0724   0.0372   0.00    1.1
2173 292404.000   1159577.4247  -4706155.2161   4132204.2108   2   9   0.0542   0.1047   0.0783  -0.0578  -0.0718   0.0369   0.00    1.1
2173 292405.000   1159577.4227  -4706155.1958   4132204.1994   2   9   0.0539   0.1039   0.0776  -0.0573  -0.0712   0.0367   0.00    1.1
2173 292406.000   1159577.5767  -4706157.3839   4132205.0761   1   8   0.0049   0.0119   0.0081  -0.0059  -0.0083   0.0038   0.00    3.1
2173 292407.000   1159577.4351  -4706155.2370   4132204.2170   2   8   0.0532   0.1029   0.0764  -0.0565  -0.0704   0.0361   0.00    1.1
2173 292408.000   1159577.4371  -4706155.2442   4132204.2166   2   8   0.0527   0.1021   0.0758  -0.0561  -0.0698   0.0358   0.00    1.2
2173 292409.000   1159577.4420  -4706155.2578   4132204.2246   2   8   0.0524   0.1014   0.0752  -0.0557  -0.0693   0.0355   0.00    1.3
2173 292410.000   1159577.4477  -4706155.2633   4132204.2203   2   8   0.0520   0.1007   0.0745  -0.0552  -0.0688   0.0352   0.00    1.4
2173 292411.000   1159577.4500  -4706155.2664   4132204.2213   2   9   0.0517   0.1001   0.0739  -0.0548  -0.0683   0.0350   0.00    1.0
2173 292412.000   1159577.4483  -4706155.2621   4132204.2197   2   9   0.0514   0.0992   0.0733  -0.0544  -0.0677   0.0347   0.00    1.0
2173 292413.000   1159577.4506  -4706155.2584   4132204.2177   2   9   0.0511   0.0984   0.0727  -0.0540  -0.0671   0.0344   0.00    1.0
2173 292414.000   1159577.4522  -4706155.2573   4132204.2155   2   9   0.0507   0.0977   0.0720  -0.0535  -0.0665   0.0341   0.00    1.0
2173 292415.000   1159577.4559  -4706155.2580   4132204.2168   2   9   0.0504   0.0970   0.0714  -0.0532  -0.0660   0.0339   0.00    1.1
2173 292416.000   1159577.4571  -4706155.2608   4132204.2216   2   9   0.0501   0.0963   0.0708  -0.0528  -0.0655   0.0336   0.00    1.1
2173 292417.000   1159577.4527  -4706155.2458   4132204.2124   2   9   0.0498   0.0956   0.0702  -0.0524  -0.0649   0.0333   0.00    1.1
2173 292418.000   1159577.4588  -4706155.2664   4132204.2241   2   9   0.0494   0.0949   0.0696  -0.0520  -0.0644   0.0330   0.00    1.1
2173 292419.000   1159577.4586  -4706155.2599   4132204.2179   2   9   0.0492   0.0942   0.0691  -0.0516  -0.0639   0.0328   0.00    1.1
2173 292420.000   1159577.4613  -4706155.2655   4132204.2176   2   9   0.0489   0.0935   0.0685  -0.0512  -0.0634   0.0325   0.00    1.1
2173 292421.000   1159577.4591  -4706155.2628   4132204.2175   2   9   0.0485   0.0929   0.0680  -0.0508  -0.0629   0.0323   0.00    1.1
2173 292422.000   1159577.4640  -4706155.2706   4132204.2164   2   9   0.0483   0.0922   0.0674  -0.0505  -0.0624   0.0321   0.00    1.1
2173 292423.000   1159577.4683  -4706155.2778   4132204.2204   2   9   0.0479   0.0915   0.0668  -0.0501  -0.0619   0.0318   0.00    1.1
2173 292424.000   1159577.4655  -4706155.2718   4132204.2162   2   9   0.0477   0.0909   0.0663  -0.0497  -0.0614   0.0315   0.00    1.1
2173 292425.000   1159577.4711  -4706155.2795   4132204.2180   2   9   0.0473   0.0903   0.0658  -0.0494  -0.0609   0.0314   0.00    1.1
2173 292426.000   1159577.4724  -4706155.2887   4132204.2226   2   9   0.0471   0.0897   0.0652  -0.0490  -0.0605   0.0311   0.00    1.1
2173 292427.000   1159577.4774  -4706155.2962   4132204.2254   2   9   0.0469   0.0891   0.0647  -0.0487  -0.0600   0.0308   0.00    1.1
2173 292428.000   1159577.4776  -4706155.2929   4132204.2188   2   9   0.0465   0.0884   0.0642  -0.0483  -0.0596   0.0307   0.00    1.1
2173 292429.000   1159577.4828  -4706155.3060   4132204.2208   2   9   0.0462   0.0878   0.0636  -0.0480  -0.0591   0.0304   0.00    1.1
2173 292430.000   1159577.4859  -4706155.3177   4132204.2294   2   9   0.0459   0.0872   0.0631  -0.0476  -0.0587   0.0302   0.00    1.1
2173 292431.000   1159577.4890  -4706155.3277   4132204.2322   2   9   0.0458   0.0867   0.0626  -0.0473  -0.0582   0.0299   0.00    1.1
2173 292432.000   1159577.4890  -4706155.3280   4132204.2307   2   9   0.0456   0.0861   0.0621  -0.0470  -0.0578   0.0296   0.00    1.1
2173 292433.000   1159577.4919  -4706155.3365   4132204.2373   2   9   0.0453   0.0855   0.0616  -0.0466  -0.0573   0.0294   0.00    1.1
2173 292434.000   1159577.4956  -4706155.3440   4132204.2391   2   9   0.0450   0.0849   0.0611  -0.0463  -0.0569   0.0292   0.00    1.1
2173 292435.000   1159577.4959  -4706155.3438   4132204.2391   2   9   0.0447   0.0844   0.0606  -0.0460  -0.0565   0.0290   0.00    1.1
2173 292436.000   1159577.4971  -4706155.3511   4132204.2507   2   9   0.0445   0.0838   0.0602  -0.0457  -0.0560   0.0288   0.00    1.2
2173 292437.000   1159577.5013  -4706155.3603   4132204.2485   2   9   0.0442   0.0833   0.0597  -0.0453  -0.0556   0.0287   0.00    1.2
2173 292438.000   1159577.5023  -4706155.3670   4132204.2546   2   9   0.0440   0.0827   0.0592  -0.0450  -0.0552   0.0284   0.00    1.2
2173 292439.000   1159577.5062  -4706155.3844   4132204.2641   2   9   0.0437   0.0822   0.0588  -0.0447  -0.0548   0.0282   0.00    1.2
2173 292440.000   1159577.5086  -4706155.3895   4132204.2708   2   9   0.0435   0.0816   0.0583  -0.0444  -0.0544   0.0280   0.00    1.2
2173 292441.000   1159577.5094  -4706155.3900   4132204.2717   2   9   0.0432   0.0811   0.0578  -0.0441  -0.0540   0.0278   0.00    1.2
2173 292442.000   1159577.5141  -4706155.4019   4132204.2763   2   9   0.0430   0.0806   0.0574  -0.0438  -0.0536   0.0276   0.00    1.2
2173 292443.000   1159577.5187  -4706155.4141   4132204.2826   2   9   0.0428   0.0801   0.0570  -0.0435  -0.0532   0.0274   0.00    1.2
2173 292444.000   1159577.5180  -4706155.4170   4132204.2894   2   9   0.0426   0.0796   0.0565  -0.0432  -0.0528   0.0272   0.00    1.2
2173 292445.000   1159577.5232  -4706155.4288   4132204.2980   2   9   0.0423   0.0791   0.0561  -0.0429  -0.0524   0.0270   0.00    1.2
2173 292446.000   1159577.5211  -4706155.4293   4132204.3034   2   9   0.0420   0.0786   0.0556  -0.0426  -0.0521   0.0269   0.00    1.2
2173 292447.000   1159577.5224  -4706155.4320   4132204.3060   2   9   0.0419   0.0781   0.0552  -0.0422  -0.0517   0.0267   0.00    1.2
2173 292448.000   1159577.5266  -4706155.4468   4132204.3137   2   9   0.0416   0.0776   0.0547  -0.0420  -0.0513   0.0264   0.00    1.2
2173 292449.000   1159577.5281  -4706155.4525   4132204.3174   2   9   0.0414   0.0771   0.0543  -0.0417  -0.0509   0.0263   0.00    1.2
2173 292450.000   1159577.5273  -4706155.4545   4132204.3191   2   9   0.0413   0.0766   0.0539  -0.0414  -0.0506   0.0261   0.00    1.2
2173 292451.000   1159577.5357  -4706155.4632   4132204.3270   2   9   0.0410   0.0761   0.0535  -0.0411  -0.0502   0.0259   0.00    1.2
2173 292452.000   1159577.5345  -4706155.4604   4132204.3238   2   9   0.0409   0.0756   0.0531  -0.0409  -0.0498   0.0257   0.00    1.2
2173 292453.000   1159577.5379  -4706155.4767   4132204.3330   2   9   0.0406   0.0752   0.0527  -0.0406  -0.0495   0.0255   0.00    1.2
2173 292454.000   1159577.5408  -4706155.4824   4132204.3405   2   9   0.0404   0.0747   0.0523  -0.0403  -0.0491   0.0253   0.00    1.2
2173 292455.000   1159577.5426  -4706155.4857   4132204.3434   2   9   0.0402   0.0742   0.0519  -0.0400  -0.0488   0.0252   0.00    1.2
2173 292456.000   1159577.5449  -4706155.4902   4132204.3445   2   9   0.0400   0.0738   0.0515  -0.0398  -0.0485   0.0250   0.00    1.2
2173 292457.000   1159577.5469  -4706155.4910   4132204.3449   2   9   0.0398   0.0733   0.0511  -0.0395  -0.0481   0.0248   0.00    1.2
2173 292458.000   1159577.5521  -4706155.5093   4132204.3552   2   9   0.0397   0.0729   0.0507  -0.0393  -0.0478   0.0246   0.00    1.2
2173 292459.000   1159577.5592  -4706155.5225   4132204.3593   2   9   0.0393   0.0724   0.0503  -0.0389  -0.0474   0.0246   0.00    1.2
2173 292460.000   1159577.5604  -4706155.5309   4132204.3608   2   9   0.0391   0.0720   0.0499  -0.0387  -0.0471   0.0243   0.00    1.2
2173 292461.000   1159577.5675  -4706155.5408   4132204.3676   2   9   0.0390   0.0716   0.0496  -0.0385  -0.0468   0.0242   0.00    1.2
2173 292462.000   1159577.5725  -4706155.5565   4132204.3747   2   9   0.0388   0.0711   0.0492  -0.0382  -0.0465   0.0240   0.00    1.2
2173 292463.000   1159577.5757  -4706155.5648   4132204.3806   2   9   0.0386   0.0707   0.0489  -0.0380  -0.0461   0.0239   0.00    1.2
2173 292464.000   1159577.5794  -4706155.5747   4132204.3852   2   9   0.0385   0.0703   0.0485  -0.0377  -0.0458   0.0236   0.00    1.2
2173 292465.000   1159577.5839  -4706155.5769   4132204.3854   2   9   0.0382   0.0699   0.0481  -0.0374  -0.0455   0.0236   0.00    1.2
2173 292466.000   1159577.5845  -4706155.5896   4132204.3901   2   9   0.0381   0.0695   0.0478  -0.0372  -0.0452   0.0234   0.00    1.2
2173 292467.000   1159577.5916  -4706155.6085   4132204.3981   2   9   0.0379   0.0690   0.0474  -0.0369  -0.0449   0.0232   0.00    1.2
2173 292468.000   1159577.5965  -4706155.6108   4132204.4013   2   9   0.0378   0.0686   0.0471  -0.0367  -0.0446   0.0230   0.00    1.2
2173 292469.000   1159577.5986  -4706155.6241   4132204.4090   2   9   0.0376   0.0682   0.0467  -0.0365  -0.0443   0.0228   0.00    1.2
2173 292470.000   1159577.6029  -4706155.6301   4132204.4080   2   9   0.0374   0.0678   0.0464  -0.0362  -0.0440   0.0227   0.00    1.2
2173 292471.000   1159577.6091  -4706155.6420   4132204.4116   2   9   0.0372   0.0674   0.0460  -0.0360  -0.0437   0.0226   0.00    1.2
2173 292472.000   1159577.6100  -4706155.6500   4132204.4148   2   9   0.0369   0.0670   0.0457  -0.0357  -0.0434   0.0225   0.00    1.2
2173 292473.000   1159577.6120  -4706155.6541   4132204.4140   2   9   0.0370   0.0667   0.0454  -0.0355  -0.0431   0.0222   0.00    1.2
2173 292474.000   1159577.6170  -4706155.6695   4132204.4182   2   9   0.0368   0.0663   0.0451  -0.0353  -0.0428   0.0221   0.00    1.2
2173 292475.000   1159577.6213  -4706155.6696   4132204.4172   2   9   0.0365   0.0659   0.0447  -0.0351  -0.0425   0.0220   0.00    1.2
2173 292476.000   1159577.6249  -4706155.6808   4132204.4210   2   9   0.0364   0.0655   0.0444  -0.0348  -0.0422   0.0217   0.00    1.2
2173 292477.000   1159577.6298  -4706155.6952   4132204.4264   2   9   0.0363   0.0651   0.0441  -0.0346  -0.0420   0.0216   0.00    1.2
2173 292478.000   1159577.6341  -4706155.7015   4132204.4271   2   9   0.0360   0.0648   0.0438  -0.0344  -0.0417   0.0216   0.00    1.2
2173 292479.000   1159577.6363  -4706155.7050   4132204.4289   2   9   0.0359   0.0644   0.0435  -0.0342  -0.0414   0.0214   0.00    1.1
2173 292480.000   1159577.6381  -4706155.7199   4132204.4367   2   9   0.0358   0.0640   0.0432  -0.0339  -0.0411   0.0213   0.00    1.1
2173 292481.000   1159577.6384  -4706155.7212   4132204.4363   2   9   0.0355   0.0636   0.0429  -0.0337  -0.0409   0.0211   0.00    1.1
2173 292482.000   1159577.6410  -4706155.7273   4132204.4391   2   9   0.0354   0.0633   0.0426  -0.0335  -0.0406   0.0210   0.00    1.1
2173 292483.000   1159577.6450  -4706155.7391   4132204.4440   2   9   0.0352   0.0629   0.0422  -0.0333  -0.0404   0.0208   0.00    1.1
2173 292484.000   1159577.6450  -4706155.7433   4132204.4493   2   9   0.0351   0.0626   0.0420  -0.0331  -0.0401   0.0207   0.00    1.1
2173 292485.000   1159577.6488  -4706155.7608   4132204.4539   2   9   0.0348   0.0622   0.0417  -0.0328  -0.0398   0.0206   0.00    1.1
2173 292486.000   1159577.6527  -4706155.7642   4132204.4576   2   9   0.0348   0.0619   0.0414  -0.0326  -0.0396   0.0204   0.00    1.1
2173 292487.000   1159577.6539  -4706155.7776   4132204.4645   2   9   0.0344   0.0615   0.0411  -0.0324  -0.0393   0.0204   0.00    1.1
2173 292488.000   1159577.6564  -4706155.7889   4132204.4704   2   9   0.0344   0.0612   0.0408  -0.0322  -0.0390   0.0203   0.00    1.1
2173 292489.000   1159577.6587  -4706155.8103   4132204.4818   2   8   0.0343   0.0613   0.0407  -0.0321  -0.0392   0.0201   0.00    2.9
2173 292490.000   1159577.6654  -4706155.8258   4132204.4872   2   8   0.0341   0.0610   0.0405  -0.0319  -0.0390   0.0201   0.00    1.0
2173 292491.000   1159577.6694  -4706155.8429   4132204.4993   2   8   0.0340   0.0606   0.0402  -0.0317  -0.0387   0.0198   0.00    1.0
2173 292492.000   1159577.6714  -4706155.8500   4132204.5024   2   8   0.0339   0.0602   0.0399  -0.0314  -0.0385   0.0197   0.00    1.1
2173 292493.000   1159577.6720  -4706155.8580   4132204.5101   2   8   0.0337   0.0599   0.0396  -0.0312  -0.0382   0.0196   0.00    1.1
2173 292494.000   1159577.6757  -4706155.8783   4132204.5219   2   8   0.0336   0.0598   0.0395  -0.0311  -0.0381   0.0195   0.00    2.9
2173 292495.000   1159577.6770  -4706155.8876   4132204.5298   2   8   0.0334   0.0595   0.0392  -0.0309  -0.0379   0.0193   0.00    1.0
2173 292496.000   1159577.6834  -4706155.9071   4132204.5397   2   9   0.0333   0.0592   0.0390  -0.0307  -0.0377   0.0193   0.00    1.0
2173 292497.000   1159577.6847  -4706155.9175   4132204.5488   2   8   0.0333   0.0589   0.0387  -0.0305  -0.0375   0.0192   0.00    3.0
2173 292498.000   1159577.6889  -4706155.9313   4132204.5555   2   8   0.0331   0.0586   0.0385  -0.0303  -0.0373   0.0190   0.00    1.0
2173 292499.000   1159577.6947  -4706155.9519   4132204.5724   2   8   0.0330   0.0582   0.0382  -0.0301  -0.0370   0.0189   0.00    1.0
2173 292500.000   1159577.6970  -4706155.9609   4132204.5784   2   8   0.0328   0.0579   0.0380  -0.0299  -0.0367   0.0187   0.00    1.1
2173 292501.000   1159577.7007  -4706155.9837   4132204.5924   2   9   0.0327   0.0577   0.0378  -0.0297  -0.0366   0.0187   0.00    1.0
2173 292502.000   1159577.5722  -4706157.3764   4132205.0664   1   8   0.0051   0.0119   0.0078  -0.0060  -0.0083   0.0038   0.00    3.0
2173 292503.000   1159577.7067  -4706156.0094   4132204.6076   2   8   0.0323   0.0572   0.0373  -0.0293  -0.0362   0.0185   0.00    1.0
2173 292504.000   1159577.7080  -4706156.0244   4132204.6184   2   8   0.0324   0.0568   0.0371  -0.0292  -0.0359   0.0183   0.00    1.0
2173 292505.000   1159577.5716  -4706157.3707   4132205.0596   1   8   0.0056   0.0119   0.0080  -0.0058  -0.0082   0.0039   0.00    3.1
2173 292506.000   1159577.7177  -4706156.0505   4132204.6372   2   8   0.0321   0.0563   0.0367  -0.0288  -0.0356   0.0182   0.00    1.0
2173 292507.000   1159577.5732  -4706157.3746   4132205.0639   1   8   0.0054   0.0119   0.0081  -0.0059  -0.0081   0.0042   0.00    3.1
2173 292508.000   1159577.5733  -4706157.3749   4132205.0634   1   8   0.0055   0.0119   0.0080  -0.0061  -0.0082   0.0038   0.00    3.2
2173 292509.000   1159577.5737  -4706157.3755   4132205.0618   1   8   0.0053   0.0120   0.0080  -0.0057  -0.0081   0.0037   0.00    3.2
2173 292510.000   1159577.5738  -4706157.3746   4132205.0604   1   8   0.0049   0.0119   0.0078  -0.0059  -0.0082   0.0036   0.00    3.2
2173 292511.000   1159577.5731  -4706157.3743   4132205.0619   1   8   0.0044   0.0119   0.0080  -0.0061  -0.0082   0.0035   0.00    3.3
2173 292512.000   1159577.5732  -4706157.3799   4132205.0679   1   8   0.0052   0.0119   0.0079  -0.0059  -0.0082   0.0040   0.00    3.3
2173 292513.000   1159577.5743  -4706157.3783   4132205.0647   1   8   0.0056   0.0119   0.0079  -0.0060  -0.0081   0.0036   0.00    3.3
2173 292514.000   1159577.5740  -4706157.3766   4132205.0662   1   8   0.0050   0.0119   0.0081  -0.0059  -0.0081   0.0042   0.00    3.3
2173 292515.000   1159577.5704  -4706157.3753   4132205.0682   1   8   0.0049   0.0119   0.0080  -0.0060  -0.0081   0.0034   0.00    3.4
2173 292516.000   1159577.5742  -4706157.3771   4132205.0633   1   8   0.0046   0.0119   0.0079  -0.0062  -0.0082   0.0033   0.00    3.4
2173 292517.000   1159577.5745  -4706157.3812   4132205.0677   1   8   0.0048   0.0119   0.0080  -0.0059  -0.0081   0.0037   0.00    3.4
2173 292518.000   1159577.5731  -4706157.3806   4132205.0681   1   8   0.0054   0.0119   0.0081  -0.0060  -0.0081   0.0041   0.00    3.4
2173 292519.000   1159577.5732  -4706157.3800   4132205.0666   1   8   0.0054   0.0119   0.0079  -0.0059  -0.0082   0.0041   0.00    3.5
2173 292520.000   1159577.5757  -4706157.3816   4132205.0687   1   8   0.0049   0.0119   0.0080  -0.0060  -0.0082   0.0041   0.00    3.5
2173 292521.000   1159577.5746  -4706157.3825   4132205.0664   1   8   0.0047   0.0119   0.0077  -0.0061  -0.0082   0.0037   0.00    3.5
2173 292522.000   1159577.5714  -4706157.3729   4132205.0594   1   8   0.0053   0.0119   0.0079  -0.0060  -0.0081   0.0038   0.00    3.5
2173 292523.000   1159577.5725  -4706157.3739   4132205.0609   1   8   0.0052   0.0119   0.0079  -0.0060  -0.0082   0.0036   0.00    3.6
2173 292524.000   1159577.5739  -4706157.3787   4132205.0626   1   8   0.0049   0.0119   0.0080  -0.0062  -0.0082   0.0034   0.00    3.6
2173 292525.000   1159577.5740  -4706157.3823   4132205.0672   1   8   0.0051   0.0119   0.0079  -0.0059  -0.0081   0.0039   0.00    3.6
2173 292526.000   1159577.5746  -4706157.3845   4132205.0648   1   8   0.0056   0.0119   0.0080  -0.0061  -0.0082   0.0041   0.00    3.6
2173 292527.000   1159577.5749  -4706157.3832   4132205.0655   1   8   0.0049   0.0119   0.0079  -0.0060  -0.0082   0.0037   0.00    3.7
2173 292528.000   1159577.5720  -4706157.3799   4132205.0633   1   8   0.0048   0.0119   0.0079  -0.0060  -0.0082   0.0038   0.00    3.7
2173 292529.000   1159577.5744  -4706157.3781   4132205.0622   1   8   0.0049   0.0119   0.0081  -0.0061  -0.0081   0.0038   0.00    3.7
2173 292530.000   1159577.5750  -4706157.3831   4132205.0648   1   8   0.0051   0.0119   0.0080  -0.0061  -0.0081   0.0035   0.00    3.7
2173 292531.000   1159577.5737  -4706157.3860   4132205.0659   1   8   0.0054   0.0119   0.0079  -0.0060  -0.0082   0.0039   0.00    3.8
2173 292532.000   1159577.5708  -4706157.3825   4132205.0627   1   8   0.0044   0.0119   0.0079  -0.0060  -0.0082   0.0041   0.00    3.8
2173 292533.000   1159577.5722  -4706157.3819   4132205.0643   1   8   0.0049   0.0119   0.0078  -0.0061  -0.0082   0.0034   0.00    3.8
2173 292534.000   1159577.5725  -4706157.3875   4132205.0671   1   8   0.0048   0.0119   0.0079  -0.0060  -0.0082   0.0038   0.00    3.8
2173 292535.000   1159577.5741  -4706157.3877   4132205.0680   1   8   0.0052   0.0119   0.0080  -0.0060  -0.0082   0.0040   0.00    3.9
2173 292536.000   1159577.5753  -4706157.3859   4132205.0655   1   8   0.0050   0.0119   0.0080  -0.0059  -0.0081   0.0037   0.00    3.9
2173 292537.000   1159577.5753  -4706157.3820   4132205.0638   1   8   0.0040   0.0118   0.0078  -0.0061  -0.0082   0.0033   0.00    3.9
2173 292538.000   1159577.5716  -4706157.3857   4132205.0659   1   8   0.0053   0.0119   0.0080  -0.0060  -0.0081   0.0036   0.00    3.9
2173 292539.000   1159577.5731  -4706157.3819   4132205.0615   1   8   0.0046   0.0119   0.0079  -0.0060  -0.0081   0.0036   0.00    4.0
2173 292540.000   1159577.5712  -4706157.3775   4132205.0620   1   8   0.0053   0.0119   0.0079  -0.0060  -0.0082   0.0040   0.00    4.0
2173 292541.000   1159577.5762  -4706157.3872   4132205.0679   1   8   0.0055   0.0119   0.0079  -0.0060  -0.0081   0.0040   0.00    4.0
2173 292542.000   1159577.5752  -4706157.3892   4132205.0684   1   8   0.0043   0.0119   0.0080  -0.0060  -0.0081   0.0038   0.00    4.1
2173 292543.000   1159577.5752  -4706157.3870   4132205.0661   1   8   0.0052   0.0119   0.0079  -0.0060  -0.0081   0.0033   0.00    4.1
2173 292544.000   1159577.5749  -4706157.3850   4132205.0643   1   8   0.0049   0.0119   0.0080  -0.0059  -0.0081   0.0039   0.00    4.1
2173 292545.000   1159577.5727  -4706157.3859   4132205.0671   1   8   0.0053   0.0119   0.0078  -0.0060  -0.0081   0.0037   0.00    4.1
2173 292546.000   1159577.5728  -4706157.3829   4132205.0653   1   8   0.0055   0.0119   0.0079  -0.0060  -0.0082   0.0037   0.00    4.2
2173 292547.000   1159577.5713  -4706157.3795   4132205.0602   1   8   0.0050   0.0119   0.0080  -0.0060  -0.0082   0.0039   0.00    4.2
2173 292548.000   1159577.5752  -4706157.3878   4132205.0688   1   8   0.0055   0.0119   0.0081  -0.0060  -0.0081   0.0039   0.00    4.2
2173 292549.000   1159577.5719  -4706157.3807   4132205.0626   1   8   0.0055   0.0119   0.0080  -0.0060  -0.0080   0.0039   0.00    4.3
2173 292550.000   1159577.5737  -4706157.3824   4132205.0642   1   8   0.0045   0.0119   0.0080  -0.0059  -0.0081   0.0039   0.00    4.3
2173 292551.000   1159577.5692  -4706157.3744   4132205.0606   1   8   0.0047   0.0119   0.0079  -0.0060  -0.0081   0.0036   0.00    4.3
2173 292552.000   1159577.5732  -4706157.3801   4132205.0607   1   8   0.0054   0.0119   0.0079  -0.0060  -0.0082   0.0033   0.00    4.4
2173 292553.000   1159577.5729  -4706157.3858   4132205.0679   1   8   0.0048   0.0119   0.0081  -0.0060  -0.0081   0.0043   0.00    4.4
2173 292554.000   1159577.5716  -4706157.3830   4132205.0631   1   8   0.0050   0.0119   0.0079  -0.0060  -0.0082   0.0039   0.00    4.4
2173 292555.000   1159577.5760  -4706157.3918   4132205.0696   1   8   0.0048   0.0119   0.0080  -0.0060  -0.0081   0.0037   0.00    4.5
2173 292556.000   1159577.5729  -4706157.3820   4132205.0657   1   8   0.0054   0.0119   0.0080  -0.0059  -0.0081   0.0037   0.00    4.5
2173 292557.000   1159577.5712  -4706157.3795   4132205.0632   1   8   0.0053   0.0119   0.0079  -0.0061  -0.0081   0.0037   0.00    4.5
2173 292558.000   1159577.5712  -4706157.3839   4132205.0672   1   8   0.0052   0.0119   0.0079  -0.0061  -0.0082   0.0037   0.00    4.6
2173 292559.000   1159577.5729  -4706157.3812   4132205.0644   1   8   0.0046   0.0119   0.0080  -0.0060  -0.0080   0.0036   0.00    4.6
2173 292560.000   1159577.5741  -4706157.3868   4132205.0679   1   8   0.0046   0.0119   0.0080  -0.0058  -0.0081   0.0041   0.00    4.7
2173 292561.000   1159577.5729  -4706157.3865   4132205.0683   1   8   0.0048   0.0119   0.0081  -0.0059  -0.0080   0.0043   0.00    4.7
2173 292562.000   1159577.5724  -4706157.3865   4132205.0691   1   8   0.0046   0.0119   0.0079  -0.0059  -0.0082   0.0039   0.00    4.7
2173 292563.000   1159577.5695  -4706157.3837   4132205.0667   1   8   0.0044   0.0119   0.0079  -0.0060  -0.0081   0.0043   0.00    4.8
2173 292564.000   1159577.5693  -4706157.3809   4132205.0649   1   8   0.0054   0.0119   0.0078  -0.0061  -0.0082   0.0034   0.00    4.8
2173 292565.000   1159577.5700  -4706157.3786   4132205.0644   1   8   0.0055   0.0119   0.0079  -0.0060  -0.0081   0.0040   0.00    4.9
2173 292566.000   1159577.5713  -4706157.3858   4132205.0679   1   8   0.0055   0.0119   0.0079  -0.0061  -0.0081   0.0039   0.00    4.9
2173 292567.000   1159577.5706  -4706157.3810   4132205.0641   1   8   0.0047   0.0119   0.0079  -0.0061  -0.0082   0.0039   0.00    5.0
2173 292568.000   1159577.5714  -4706157.3831   4132205.0667   1   8   0.0050   0.0119   0.0079  -0.0061  -0.0081   0.0037   0.00    5.0
2173 292569.000   1159577.5716  -4706157.3862   4132205.0723   1   8   0.0053   0.0119   0.0079  -0.0060  -0.0082   0.0037   0.00    5.0
2173 292570.000   1159577.5734  -4706157.3856   4132205.0681   1   8   0.0055   0.0119   0.0079  -0.0061  -0.0082   0.0038   0.00    5.1
2173 292571.000   1159577.5730  -4706157.3834   4132205.0697   1   8   0.0047   0.0119   0.0079  -0.0061  -0.0082   0.0041   0.00    5.1
2173 292572.000   1159577.5716  -4706157.3859   4132205.0682   1   8   0.0056   0.0119   0.0079  -0.0061  -0.0081   0.0037   0.00    5.2
2173 292573.000   1159577.5713  -4706157.3791   4132205.0647   1   8   0.0050   0.0119   0.0079  -0.0062  -0.0081   0.0035   0.00    5.2
2173 292574.000   1159577.5715  -4706157.3856   4132205.0670   1   8   0.0046   0.0119   0.0079  -0.0060  -0.0081   0.0036   0.00    5.3
2173 292575.000   1159577.5712  -4706157.3803   4132205.0642   1   8   0.0053   0.0119   0.0080  -0.0061  -0.0081   0.0037   0.00    5.3
2173 292576.000   1159577.5733  -4706157.3807   4132205.0649   1   8   0.0047   0.0119   0.0077  -0.0061  -0.0082   0.0036   0.00    5.4
2173 292577.000   1159577.5726  -4706157.3827   4132205.0651   1   8   0.0053   0.0119   0.0078  -0.0059  -0.0081   0.0040   0.00    5.4
2173 292578.000   1159577.5697  -4706157.3788   4132205.0626   1   8   0.0053   0.0119   0.0081  -0.0059  -0.0080   0.0041   0.00    5.5
2173 292579.000   1159577.5729  -4706157.3827   4132205.0677   1   8   0.0048   0.0120   0.0081  -0.0059  -0.0080   0.0042   0.00    5.5
2173 292580.000   1159577.5730  -4706157.3853   4132205.0640   1   8   0.0046   0.0119   0.0078  -0.0060  -0.0081   0.0039   0.00    5.6
2173 292581.000   1159577.5720  -4706157.3835   4132205.0657   1   8   0.0057   0.0119   0.0080  -0.0059  -0.0081   0.0040   0.00    5.7
2173 292582.000   1159577.5745  -4706157.3805   4132205.0627   1   8   0.0052   0.0119   0.0078  -0.0061  -0.0081   0.0036   0.00    5.7
2173 292583.000   1159577.5745  -4706157.3872   4132205.0642   1   8   0.0051   0.0119   0.0080  -0.0060  -0.0081   0.0039   0.00    5.8
2173 292584.000   1159577.5732  -4706157.3831   4132205.0661   1   8   0.0053   0.0119   0.0079  -0.0060  -0.0081   0.0040   0.00    5.8
2173 292585.000   1159577.5724  -4706157.3776   4132205.0622   1   8   0.0044   0.0119   0.0078  -0.0061  -0.0082   0.0037   0.00    5.8
2173 292586.000   1159577.5747  -4706157.3858   4132205.0680   1   8   0.0049   0.0119   0.0078  -0.0062  -0.0082   0.0034   0.00    5.8
2173 292587.000   1159577.5747  -4706157.3850   4132205.0653   1   8   0.0047   0.0119   0.0078  -0.0059  -0.0081   0.0044   0.00    5.9
2173 292588.000   1159577.5728  -4706157.3823   4132205.0634   1   8   0.0053   0.0119   0.0081  -0.0059  -0.0080   0.0040   0.00    5.9
2173 292589.000   1159577.5752  -4706157.3846   4132205.0646   1   8   0.0052   0.0119   0.0079  -0.0060  -0.0081   0.0035   0.00    5.9
2173 292590.000   1159577.5738  -4706157.3819   4132205.0625   1   8   0.0052   0.0119   0.0078  -0.0061  -0.0081   0.0036   0.00    5.9
2173 292591.000   1159577.5761  -4706157.3916   4132205.0677   1   8   0.0048   0.0119   0.0079  -0.0061  -0.0081   0.0040   0.00    5.9
2173 292592.000   1159577.5743  -4706157.3818   4132205.0607   1   8   0.0051   0.0119   0.0077  -0.0063  -0.0082   0.0028   0.00    5.9
2173 292593.000   1159577.5774  -4706157.3884   4132205.0693   1   8   0.0058   0.0119   0.0079  -0.0061  -0.0081   0.0037   0.00    6.0
2173 292594.000   1159577.5754  -4706157.3872   4132205.0666   1   8   0.0049   0.0119   0.0078  -0.0061  -0.0081   0.0041   0.00    6.0
2173 292595.000   1159577.5773  -4706157.3895   4132205.0674   1   8   0.0048   0.0119   0.0080  -0.0060  -0.0081   0.0035   0.00    6.0
2173 292596.000   1159577.5755  -4706157.3883   4132205.0695   1   8   0.0046   0.0119   0.0078  -0.0060  -0.0081   0.0037   0.00    6.0
2173 292597.000   1159577.5772  -4706157.3900   4132205.0682   1   8   0.0050   0.0119   0.0079  -0.0060  -0.0081   0.0039   0.00    6.0
2173 292598.000   1159577.5758  -4706157.3850   4132205.0668   1   8   0.0048   0.0119   0.0079  -0.0061  -0.0081   0.0035   0.00    6.1
2173 292599.000   1159577.5769  -4706157.3886   4132205.0658   1   8   0.0047   0.0119   0.0079  -0.0060  -0.0081   0.0037   0.00    6.1
2173 292600.000   1159577.5737  -4706157.3861   4132205.0678   1   8   0.0053   0.0119   0.0080  -0.0061  -0.0081   0.0042   0.00    6.1
2173 292601.000   1159577.5760  -4706157.3890   4132205.0680   1   8   0.0050   0.0119   0.0078  -0.0060  -0.0081   0.0040   0.00    6.1
2173 292602.000   1159577.5761  -4706157.3884   4132205.0679   1   8   0.0054   0.0119   0.0079  -0.0062  -0.0081   0.0034   0.00    6.1
2173 292603.000   1159577.5770  -4706157.3852   4132205.0652   1   8   0.0046   0.0119   0.0080  -0.0059  -0.0080   0.0041   0.00    6.1
2173 292604.000   1159577.5772  -4706157.3871   4132205.0677   1   8   0.0053   0.0119   0.0079  -0.0061  -0.0081   0.0038   0.00    6.2
2173 292605.000   1159577.5771  -4706157.3922   4132205.0689   1   8   0.0052   0.0119   0.0078  -0.0060  -0.0081   0.0034   0.00    6.2
2173 292606.000   1159577.5767  -4706157.3829   4132205.0660   1   8   0.0052   0.0119   0.0078  -0.0061  -0.0081   0.0039   0.00    6.2
2173 292607.000   1159577.5787  -4706157.3904   4132205.0683   1   8   0.0050   0.0119   0.0080  -0.0060  -0.0081   0.0039   0.00    6.2
2173 292608.000   1159577.5751  -4706157.3842   4132205.0677   1   8   0.0050   0.0119   0.0080  -0.0060  -0.0081   0.0039   0.00    6.2
2173 292609.000   1159577.5756  -4706157.3820   4132205.0635   1   8   0.0055   0.0119   0.0079  -0.0060  -0.0082   0.0042   0.00    6.3
2173 292610.000   1159577.5786  -4706157.3905   4132205.0700   1   8   0.0056   0.0119   0.0079  -0.0061  -0.0081   0.0040   0.00    6.3
2173 292611.000   1159577.5762  -4706157.3859   4132205.0660   1   8   0.0050   0.0119   0.0079  -0.0060  -0.0080   0.0039   0.00    6.3
2173 292612.000   1159577.5764  -4706157.3869   4132205.0715   1   8   0.0057   0.0119   0.0078  -0.0060  -0.0080   0.0041   0.00    6.3
2173 292613.000   1159577.5745  -4706157.3842   4132205.0668   1   8   0.0051   0.0119   0.0077  -0.0060  -0.0081   0.0038   0.00    6.4
2173 292614.000   1159577.5763  -4706157.3776   4132205.0644   1   8   0.0056   0.0119   0.0078  -0.0060  -0.0082   0.0036   0.00    6.4
2173 292615.000   1159577.5779  -4706157.3841   4132205.0657   1   8   0.0040   0.0119   0.0078  -0.0061  -0.0081   0.0038   0.00    6.4
2173 292616.000   1159577.5759  -4706157.3820   4132205.0675   1   8   0.0057   0.0119   0.0080  -0.0061  -0.0081   0.0041   0.00    6.4
2173 292617.000   1159577.5746  -4706157.3813   4132205.0679   1   8   0.0050   0.0119   0.0078  -0.0060  -0.0081   0.0041   0.00    6.4
2173 292618.000   1159577.5761  -4706157.3896   4132205.0712   1   8   0.0049   0.0119   0.0079  -0.0061  -0.0081   0.0038   0.00    6.5
2173 292619.000   1159577.5761  -4706157.3846   4132205.0673   1   8   0.0053   0.0119   0.0079  -0.0059  -0.0081   0.0041   0.00    6.5
2173 292620.000   1159577.5753  -4706157.3847   4132205.0690   1   8   0.0048   0.0119   0.0079  -0.0062  -0.0081   0.0037   0.00    6.5
2173 292621.000   1159577.5761  -4706157.3814   4132205.0667   1   8   0.0048   0.0119   0.0079  -0.0060  -0.0081   0.0038   0.00    6.5
2173 292622.000   1159577.5762  -4706157.3840   4132205.0659   1   8   0.0052   0.0119   0.0077  -0.0061  -0.0081   0.0035   0.00    6.5
2173 292623.000   1159577.5757  -4706157.3838   4132205.0666   1   8   0.0055   0.0119   0.0079  -0.0060  -0.0080   0.0041   0.00    6.6
2173 292624.000   1159577.5751  -4706157.3820   4132205.0655   1   8   0.0051   0.0119   0.0079  -0.0060  -0.0080   0.0041   0.00    6.6
2173 292625.000   1159577.5764  -4706157.3851   4132205.0685   1   8   0.0051   0.0119   0.0079  -0.0060  -0.0081   0.0042   0.00    6.6
2173 292626.000   1159577.5770  -4706157.3860   4132205.0690   1   8   0.0052   0.0119   0.0079  -0.0061  -0.0081   0.0042   0.00    6.6
2173 292627.000   1159577.5790  -4706157.3887   4132205.0679   1   8   0.0052   0.0119   0.0079  -0.0061  -0.0080   0.0039   0.00    6.6
2173 292628.000   1159577.5735  -4706157.3822   4132205.0658   1   8   0.0051   0.0119   0.0078  -0.0061  -0.0080   0.0037   0.00    6.6
2173 292629.000   1159577.5745  -4706157.3814   4132205.0653   1   8   0.0051   0.0119   0.0078  -0.0060  -0.0081   0.0041   0.00    6.6
2173 292630.000   1159577.5727  -4706157.3806   4132205.0629   1   8   0.0048   0.0119   0.0078  -0.0061  -0.0081   0.0039   0.00    6.6
2173 292631.000   1159577.5785  -4706157.3882   4132205.0672   1   8   0.0046   0.0119   0.0078  -0.0061  -0.0081   0.0039   0.00    6.6
2173 292632.000   1159577.5761  -4706157.3881   4132205.0667   1   8   0.0058   0.0119   0.0080  -0.0060  -0.0081   0.0040   0.00    6.6
2173 292633.000   1159577.5745  -4706157.3835   4132205.0656   1   8   0.0051   0.0119   0.0078  -0.0061  -0.0081   0.0034   0.00    6.6
2173 292634.000   1159577.5761  -4706157.3815   4132205.0667   1   8   0.0053   0.0119   0.0079  -0.0061  -0.0081   0.0038   0.00    6.6
2173 292635.000   1159577.5728  -4706157.3856   4132205.0669   1   8   0.0052   0.0119   0.0079  -0.0060  -0.0081   0.0040   0.00    6.6
2173 292636.000   1159577.5741  -4706157.3847   4132205.0670   1   8   0.0054   0.0119   0.0079  -0.0060  -0.0081   0.0040   0.00    6.6
2173 292637.000   1159577.5745  -4706157.3866   4132205.0702   1   8   0.0045   0.0119   0.0079  -0.0061  -0.0081   0.0040   0.00    6.6
2173 292638.000   1159577.5749  -4706157.3844   4132205.0669   1   8   0.0059   0.0119   0.0080  -0.0060  -0.0080   0.0041   0.00    6.6
2173 292639.000   1159577.5729  -4706157.3822   4132205.0666   1   8   0.0047   0.0119   0.0078  -0.0060  -0.0081   0.0037   0.00    6.6
2173 292640.000   1159577.5735  -4706157.3823   4132205.0662   1   8   0.0052   0.0119   0.0078  -0.0061  -0.0080   0.0041   0.00    6.6
2173 292641.000   1159577.5749  -4706157.3861   4132205.0703   1   8   0.0048   0.0119   0.0079  -0.0061  -0.0081   0.0040   0.00    6.6
2173 292642.000   1159577.5740  -4706157.3762   4132205.0652   1   8   0.0048   0.0119   0.0078  -0.0060  -0.0081   0.0039   0.00    6.6
2173 292643.000   1159577.5720  -4706157.3791   4132205.0679   1   8   0.0045   0.0119   0.0079  -0.0062  -0.0081   0.0037   0.00    6.6
2173 292644.000   1159577.5749  -4706157.3806   4132205.0654   1   8   0.0044   0.0119   0.0077  -0.0061  -0.0081   0.0039   0.00    6.6
2173 292645.000   1159577.5746  -4706157.3788   4132205.0670   1   8   0.0055   0.0119   0.0081  -0.0061  -0.0080   0.0041   0.00    6.6
2173 292646.000   1159577.5755  -4706157.3902   4132205.0718   1   8   0.0053   0.0119   0.0080  -0.0060  -0.0080   0.0041   0.00    6.6
2173 292647.000   1159577.5750  -4706157.3862   4132205.0728   1   8   0.0049   0.0119   0.0078  -0.0061  -0.0081   0.0035   0.00    6.6
2173 292648.000   1159577.5793  -4706157.3981   4132205.0757   1   8   0.0049   0.0119   0.0077  -0.0062  -0.0081   0.0032   0.00    6.6
2173 292649.000   1159577.5764  -4706157.3835   4132205.0678   1   8   0.0054   0.0119   0.0078  -0.0062  -0.0081   0.0039   0.00    6.6
2173 292650.000   1159577.5775  -4706157.3864   4132205.0700   1   8   0.0056   0.0119   0.0080  -0.0061  -0.0080   0.0042   0.00    6.6
2173 292651.000   1159577.5750  -4706157.3846   4132205.0695   1   8   0.0055   0.0119   0.0078  -0.0062  -0.0081   0.0035   0.00    6.6
2173 292652.000   1159577.5776  -4706157.3895   4132205.0728   1   8   0.0050   0.0119   0.0079  -0.0060  -0.0080   0.0043   0.00    6.6
2173 292653.000   1159577.5770  -4706157.3849   4132205.0708   1   8   0.0052   0.0119   0.0078  -0.0061  -0.0081   0.0035   0.00    6.6
2173 292654.000   1159577.5775  -4706157.3849   4132205.0684   1   8   0.0043   0.0119   0.0078  -0.0060  -0.0080   0.0042   0.00    6.6
2173 292655.000   1159577.5752  -4706157.3772   4132205.0624   1   8   0.0051   0.0118   0.0077  -0.0062  -0.0081   0.0036   0.00    6.6
2173 292656.000   1159577.5763  -4706157.3782   4132205.0638   1   8   0.0047   0.0118   0.0078  -0.0062  -0.0081   0.0042   0.00    6.6
2173 292657.000   1159577.5785  -4706157.3842   4132205.0696   1   8   0.0052   0.0119   0.0080  -0.0060  -0.0080   0.0043   0.00    6.6
2173 292658.000   1159577.5800  -4706157.3861   4132205.0693   1   8   0.0048   0.0119   0.0077  -0.0061  -0.0082   0.0037   0.00    6.6
2173 292659.000   1159577.5795  -4706157.3881   4132205.0684   1   8   0.0047   0.0119   0.0077  -0.0061  -0.0081   0.0039   0.00    6.6
2173 292660.000   1159577.5784  -4706157.3831   4132205.0674   1   8   0.0059   0.0119   0.0079  -0.0061  -0.0080   0.0040   0.00    6.6
2173 292661.000   1159577.5819  -4706157.3917   4132205.0719   1   8   0.0047   0.0119   0.0077  -0.0060  -0.0081   0.0037   0.00    6.6
2173 292662.000   1159577.5770  -4706157.3836   4132205.0680   1   8   0.0054   0.0119   0.0079  -0.0061  -0.0080   0.0037   0.00    6.6
2173 292663.000   1159577.5778  -4706157.3844   4132205.0665   1   8   0.0052   0.0119   0.0079  -0.0062  -0.0081   0.0037   0.00    6.6
2173 292664.000   1159577.5795  -4706157.3866   4132205.0696   1   8   0.0058   0.0119   0.0079  -0.0062  -0.0080   0.0037   0.00    6.6
2173 292665.000   1159577.5767  -4706157.3862   4132205.0708   1   8   0.0046   0.0119   0.0080  -0.0061  -0.0080   0.0038   0.00    6.6
2173 292666.000   1159577.5768  -4706157.3866   4132205.0687   1   8   0.0054   0.0119   0.0078  -0.0062  -0.0081   0.0038   0.00    6.6
2173 292667.000   1159577.5814  -4706157.3911   4132205.0732   1   8   0.0048   0.0119   0.0080  -0.0062  -0.0080   0.0043   0.00    6.6
2173 292668.000   1159577.5763  -4706157.3846   4132205.0705   1   8   0.0053   0.0119   0.0078  -0.0059  -0.0080   0.0043   0.00    6.6
2173 292669.000   1159577.5779  -4706157.3880   4132205.0724   1   8   0.0052   0.0118   0.0078  -0.0064  -0.0081   0.0037   0.00    6.6
2173 292670.000   1159577.5778  -4706157.3882   4132205.0722   1   8   0.0050   0.0119   0.0078  -0.0061  -0.0081   0.0040   0.00    6.6
2173 292671.000   1159577.5796  -4706157.3904   4132205.0732   1   8   0.0055   0.0119   0.0080  -0.0061  -0.0080   0.0042   0.00    6.6
2173 292672.000   1159577.5804  -4706157.3929   4132205.0732   1   8   0.0048   0.0119   0.0080  -0.0062  -0.0080   0.0041   0.00    6.6
2173 292673.000   1159577.5755  -4706157.3812   4132205.0698   1   8   0.0055   0.0119   0.0078  -0.0061  -0.0081   0.0039   0.00    6.6
2173 292674.000   1159577.5760  -4706157.3814   4132205.0694   1   8   0.0050   0.0118   0.0075  -0.0062  -0.0082   0.0033   0.00    6.6
2173 292675.000   1159577.5749  -4706157.3850   4132205.0723   1   8   0.0052   0.0119   0.0078  -0.0060  -0.0080   0.0040   0.00    6.6
2173 292676.000   1159577.5766  -4706157.3814   4132205.0689   1   8   0.0055   0.0119   0.0080  -0.0059  -0.0079   0.0041   0.00    6.6
2173 292677.000   1159577.5759  -4706157.3788   4132205.0691   1   8   0.0059   0.0119   0.0080  -0.0062  -0.0080   0.0040   0.00    6.6
2173 292678.000   1159577.5741  -4706157.3789   4132205.0692   1   8   0.0051   0.0119   0.0078  -0.0061  -0.0080   0.0038   0.00    6.6
2173 292679.000   1159577.5777  -4706157.3876   4132205.0743   1   8   0.0054   0.0119   0.0079  -0.0061  -0.0081   0.0040   0.00    6.6
2173 292680.000   1159577.5796  -4706157.3927   4132205.0753   1   8   0.0053   0.0118   0.0079  -0.0062  -0.0081   0.0041   0.00    6.6
2173 292681.000   1159577.5763  -4706157.3849   4132205.0734   1   8   0.0049   0.0119   0.0079  -0.0060  -0.0080   0.0040   0.00    6.6
2173 292682.000   1159577.5754  -4706157.3816   4132205.0692   1   8   0.0050   0.0119   0.0080  -0.0060  -0.0080   0.0041   0.00    6.6
2173 292683.000   1159577.5774  -4706157.3856   4132205.0717   1   8   0.0050   0.0119   0.0079  -0.0062  -0.0080   0.0040   0.00    6.6
2173 292684.000   1159577.5767  -4706157.3820   4132205.0707   1   8   0.0057   0.0119   0.0078  -0.0060  -0.0080   0.0041   0.00    6.6
2173 292685.000   1159577.5785  -4706157.3873   4132205.0725   1   8   0.0057   0.0119   0.0080  -0.0061  -0.0080   0.0042   0.00    6.6
2173 292686.000   1159577.5755  -4706157.3849   4132205.0720   1   8   0.0050   0.0119   0.0079  -0.0061  -0.0080   0.0042   0.00    6.6
2173 292687.000   1159577.5798  -4706157.3866   4132205.0720   1   8   0.0054   0.0119   0.0078  -0.0061  -0.0080   0.0040   0.00    6.6
2173 292688.000   1159577.5768  -4706157.3804   4132205.0689   1   8   0.0050   0.0119   0.0078  -0.0062  -0.0081   0.0039   0.00    6.6
2173 292689.000   1159577.5795  -4706157.3865   4132205.0735   1   8   0.0055   0.0119   0.0079  -0.0061  -0.0080   0.0040   0.00    6.6
2173 292690.000   1159577.5784  -4706157.3851   4132205.0734   1   8   0.0052   0.0119   0.0079  -0.0062  -0.0080   0.0039   0.00    6.6
2173 292691.000   1159577.5771  -4706157.3841   4132205.0728   1   8   0.0049   0.0119   0.0078  -0.0062  -0.0081   0.0039   0.00    6.6
2173 292692.000   1159577.5794  -4706157.3852   4132205.0739   1   8   0.0056   0.0119   0.0078  -0.0063  -0.0081   0.0040   0.00    6.6
2173 292693.000   1159577.5807  -4706157.3861   4132205.0745   1   8   0.0052   0.0119   0.0077  -0.0061  -0.0081   0.0037   0.00    6.6
2173 292694.000   1159577.5776  -4706157.3832   4132205.0747   1   8   0.0056   0.0119   0.0080  -0.0061  -0.0080   0.0039   0.00    6.6
2173 292695.000   1159577.5764  -4706157.3832   4132205.0757   1   8   0.0051   0.0119   0.0075  -0.0062  -0.0081   0.0036   0.00    6.6
2173 292696.000   1159577.5798  -4706157.3878   4132205.0744   1   8   0.0053   0.0119   0.0080  -0.0060  -0.0079   0.0043   0.00    6.6
2173 292697.000   1159577.5820  -4706157.3960   4132205.0802   1   8   0.0053   0.0119   0.0078  -0.0062  -0.0081   0.0035   0.00    6.6
2173 292698.000   1159577.5788  -4706157.3884   4132205.0745   1   8   0.0051   0.0119   0.0077  -0.0061  -0.0081   0.0036   0.00    6.6
2173 292699.000   1159577.5765  -4706157.3781   4132205.0674   1   8   0.0054   0.0119   0.0078  -0.0061  -0.0080   0.0040   0.00    6.6
2173 292700.000   1159577.5781  -4706157.3847   4132205.0732   1   8   0.0053   0.0119   0.0078  -0.0060  -0.0080   0.0041   0.00    6.6
2173 292701.000   1159577.5769  -4706157.3826   4132205.0695   1   8   0.0057   0.0119   0.0080  -0.0060  -0.0080   0.0043   0.00    6.7
2173 292702.000   1159577.5792  -4706157.3846   4132205.0706   1   8   0.0048   0.0119   0.0079  -0.0061  -0.0080   0.0042   0.00    6.7
2173 292703.000   1159577.5785  -4706157.3876   4132205.0748   1   8   0.0052   0.0119   0.0079  -0.0062  -0.0080   0.0040   0.00    6.7
2173 292704.000   1159577.5746  -4706157.3700   4132205.0623   1   8   0.0052   0.0119   0.0079  -0.0061  -0.0080   0.0037   0.00    6.7
2173 292705.000   1159577.5785  -4706157.3758   4132205.0657   1   8   0.0054   0.0119   0.0080  -0.0061  -0.0080   0.0043   0.00    6.7
2173 292706.000   1159577.5787  -4706157.3845   4132205.0715   1   8   0.0042   0.0119   0.0079  -0.0062  -0.0080   0.0041   0.00    6.7
2173 292707.000   1159577.5802  -4706157.3856   4132205.0721   1   8   0.0051   0.0119   0.0078  -0.0061  -0.0079   0.0042   0.00    6.7
2173 292708.000   1159577.5771  -4706157.3796   4132205.0682   1   8   0.0049   0.0119   0.0079  -0.0062  -0.0080   0.0040   0.00    6.7
2173 292709.000   1159577.5783  -4706157.3824   4132205.0706   1   8   0.0054   0.0119   0.0079  -0.0062  -0.0080   0.0041   0.00    6.7
2173 292710.000   1159577.5781  -4706157.3810   4132205.0704   1   8   0.0050   0.0119   0.0077  -0.0062  -0.0081   0.0040   0.00    6.7
2173 292711.000   1159577.5791  -4706157.3855   4132205.0719   1   8   0.0045   0.0119   0.0076  -0.0062  -0.0081   0.0038   0.00    6.7
2173 292712.000   1159577.5812  -4706157.3875   4132205.0707   1   8   0.0053   0.0119   0.0079  -0.0061  -0.0080   0.0039   0.00    6.7
2173 292713.000   1159577.5784  -4706157.3877   4132205.0729   1   8   0.0052   0.0119   0.0077  -0.0062  -0.0081   0.0038   0.00    6.7
2173 292714.000   1159577.5815  -4706157.3861   4132205.0720   1   8   0.0052   0.0119   0.0079  -0.0061  -0.0080   0.0040   0.00    6.7
2173 292715.000   1159577.5792  -4706157.3839   4132205.0679   1   8   0.0052   0.0119   0.0078  -0.0061  -0.0080   0.0035   0.00    6.7
2173 292716.000   1159577.5794  -4706157.3867   4132205.0716   1   8   0.0052   0.0119   0.0079  -0.0061  -0.0080   0.0043   0.00    6.7
2173 292717.000   1159577.8331  -4706157.2153   4132205.1958   2   9   0.0182   0.0267   0.0153  -0.0077  -0.0158   0.0066   0.00    1.0
2173 292718.000   1159577.5804  -4706157.3896   4132205.0734   1   8   0.0055   0.0119   0.0078  -0.0060  -0.0080   0.0042   0.00    6.7
2173 292719.000   1159577.5802  -4706157.3900   4132205.0740   1   8   0.0044   0.0119   0.0079  -0.0062  -0.0080   0.0041   0.00    6.7
2173 292720.000   1159577.5775  -4706157.3814   4132205.0688   1   8   0.0055   0.0119   0.0079  -0.0061  -0.0080   0.0042   0.00    6.7
2173 292721.000   1159577.5781  -4706157.3812   4132205.0696   1   8   0.0054   0.0119   0.0080  -0.0061  -0.0079   0.0041   0.00    6.7
2173 292722.000   1159577.5778  -4706157.3801   4132205.0667   1   8   0.0055   0.0119   0.0079  -0.0061  -0.0080   0.0041   0.00    6.7
2173 292723.000   1159577.5748  -4706157.3760   4132205.0655   1   8   0.0040   0.0119   0.0077  -0.0062  -0.0081   0.0037   0.00    6.7
2173 292724.000   1159577.5777  -4706157.3841   4132205.0694   1   8   0.0050   0.0119   0.0077  -0.0062  -0.0080   0.0034   0.00    6.7
2173 292725.000   1159577.5758  -4706157.3814   4132205.0703   1   8   0.0056   0.0119   0.0077  -0.0061  -0.0081   0.0040   0.00    6.7
2173 292726.000   1159577.5752  -4706157.3819   4132205.0701   1   8   0.0051   0.0119   0.0079  -0.0063  -0.0080   0.0043   0.00    6.7
2173 292727.000   1159577.5740  -4706157.3767   4132205.0693   1   8   0.0045   0.0119   0.0078  -0.0061  -0.0080   0.0040   0.00    6.7
2173 292728.000   1159577.5746  -4706157.3802   4132205.0690   1   8   0.0057   0.0119   0.0079  -0.0061  -0.0079   0.0043   0.00    6.7
2173 292729.000   1159577.5756  -4706157.3748   4132205.0664   1   8   0.0039   0.0119   0.0078  -0.0061  -0.0080   0.0036   0.00    6.7
2173 292730.000   1159577.5757  -4706157.3789   4132205.0694   1   8   0.0051   0.0119   0.0078  -0.0062  -0.0080   0.0039   0.00    6.8
2173 292731.000   1159577.5746  -4706157.3744   4132205.0658   1   8   0.0051   0.0119   0.0079  -0.0062  -0.0080   0.0033   0.00    6.8
2173 292732.000   1159577.5745  -4706157.3789   4132205.0675   1   8   0.0055   0.0119   0.0078  -0.0061  -0.0079   0.0038   0.00    6.8
2173 292733.000   1159577.5763  -4706157.3786   4132205.0672   1   8   0.0052   0.0119   0.0079  -0.0063  -0.0080   0.0038   0.00    6.8
2173 292734.000   1159577.5772  -4706157.3796   4132205.0689   1   8   0.0043   0.0119   0.0078  -0.0061  -0.0080   0.0043   0.00    6.8
2173 292735.000   1159577.5753  -4706157.3764   4132205.0659   1   8   0.0050   0.0119   0.0078  -0.0062  -0.0080   0.0040   0.00    6.8
2173 292736.000   1159577.5752  -4706157.3769   4132205.0663   1   8   0.0043   0.0119   0.0078  -0.0062  -0.0080   0.0042   0.00    6.8
2173 292737.000   1159577.5770  -4706157.3795   4132205.0685   1   8   0.0045   0.0118   0.0077  -0.0063  -0.0081   0.0037   0.00    6.8
2173 292738.000   1159577.5784  -4706157.3820   4132205.0673   1   8   0.0056   0.0119   0.0078  -0.0062  -0.0080   0.0040   0.00    6.8
2173 292739.000   1159577.5756  -4706157.3791   4132205.0661   1   8   0.0051   0.0119   0.0080  -0.0061  -0.0080   0.0042   0.00    6.8
2173 292740.000   1159577.5728  -4706157.3731   4132205.0652   1   8   0.0053   0.0118   0.0076  -0.0063  -0.0081   0.0036   0.00    6.9
2173 292741.000   1159577.5756  -4706157.3750   4132205.0654   1   8   0.0052   0.0119   0.0077  -0.0061  -0.0080   0.0042   0.00    6.9
2173 292742.000   1159577.5776  -4706157.3829   4132205.0686   1   8   0.0053   0.0119   0.0077  -0.0063  -0.0081   0.0038   0.00    6.9
2173 292743.000   1159577.5752  -4706157.3768   4132205.0698   1   8   0.0050   0.0119   0.0077  -0.0062  -0.0080   0.0039   0.00    6.9
2173 292744.000   1159577.5767  -4706157.3788   4132205.0708   1   8   0.0049   0.0119   0.0078  -0.0061  -0.0080   0.0041   0.00    6.9
2173 292745.000   1159577.5771  -4706157.3769   4132205.0678   1   8   0.0048   0.0119   0.0077  -0.0062  -0.0080   0.0039   0.00    6.9
2173 292746.000   1159577.5788  -4706157.3809   4132205.0723   1   8   0.0052   0.0119   0.0079  -0.0062  -0.0080   0.0040   0.00    6.9
2173 292747.000   1159577.5783  -4706157.3807   4132205.0691   1   8   0.0056   0.0119   0.0080  -0.0061  -0.0080   0.0043   0.00    6.9
2173 292748.000   1159577.5773  -4706157.3733   4132205.0670   1   8   0.0057   0.0119   0.0077  -0.0061  -0.0080   0.0038   0.00    7.0
2173 292749.000   1159577.5765  -4706157.3726   4132205.0674   1   8   0.0054   0.0119   0.0078  -0.0062  -0.0080   0.0040   0.00    7.0
2173 292750.000   1159577.5751  -4706157.3755   4132205.0672   1   8   0.0052   0.0119   0.0078  -0.0062  -0.0080   0.0036   0.00    7.0
2173 292751.000   1159577.5768  -4706157.3719   4132205.0665   1   8   0.0049   0.0119   0.0081  -0.0061  -0.0079   0.0039   0.00    7.0
2173 292752.000   1159577.5740  -4706157.3694   4132205.0650   1   8   0.0046   0.0119   0.0076  -0.0062  -0.0081   0.0039   0.00    7.0
2173 292753.000   1159577.5748  -4706157.3701   4132205.0676   1   8   0.0050   0.0119   0.0076  -0.0063  -0.0081   0.0039   0.00    7.0
2173 292754.000   1159577.5750  -4706157.3699   4132205.0689   1   8   0.0052   0.0119   0.0078  -0.0063  -0.0080   0.0040   0.00    7.0
2173 292755.000   1159577.5750  -4706157.3682   4132205.0666   1   8   0.0049   0.0119   0.0078  -0.0063  -0.0081   0.0043   0.00    7.0
2173 292756.000   1159577.5756  -4706157.3728   4132205.0692   1   8   0.0048   0.0118   0.0077  -0.0064  -0.0081   0.0035   0.00    7.1
2173 292757.000   1159577.5749  -4706157.3746   4132205.0712   1   8   0.0055   0.0119   0.0076  -0.0064  -0.0081   0.0036   0.00    7.1
2173 292758.000   1159577.5752  -4706157.3726   4132205.0687   1   8   0.0049   0.0119   0.0077  -0.0063  -0.0080   0.0034   0.00    7.1
2173 292759.000   1159577.5726  -4706157.3734   4132205.0694   1   8   0.0055   0.0119   0.0077  -0.0063  -0.0081   0.0033   0.00    7.1
