% program   : rnx2rtkp ver.2.4.3 b31
% inp file  : ngs/21_09_01_09_12_20_pass.obs
% inp file  : ngs/21_09_01_09_12_20_pass_P1.obs
% inp file  : ngs/21_09_01_09_12_20_brdc.nav
% obs start : 2021/09/01 09:00:00.0 GPST (week2173 291600.0s)
% obs end   : 2021/09/01 09:59:59.0 GPST (week2173 295199.0s)
% ref pos   :  1183742.9550  -4722539.4330   4106668.7800
%
% (x/y/z-ecef=WGS84,Q=1:fix,2:float,3:sbas,4:dgps,5:single,6:ppp,ns=# of satellites)
%  GPST              x-ecef(m)      y-ecef(m)      z-ecef(m)   Q  ns   sdx(m)   sdy(m)   sdz(m)  sdxy(m)  sdyz(m)  sdzx(m) age(s)  ratio
2173 292315.000   1159577.1232  -4706157.4844   4132205.5537   2   9   0.4792   0.9456   0.7442  -0.5211  -0.6681   0.3399 -30.00    2.5
2173 292316.000   1159577.1676  -4706157.4837   4132205.5560   2   9   0.3410   0.6739   0.5302  -0.3710  -0.4766   0.2422 -29.00    2.8
2173 292317.000   1159577.1350  -4706157.4470   4132205.5592   2   9   0.2792   0.5520   0.4342  -0.3038  -0.3905   0.1984 -28.00    2.8
2173 292318.000   1159577.1440  -4706157.4854   4132205.6036   2   9   0.2423   0.4790   0.3767  -0.2636  -0.3388   0.1722 -27.00    2.9
2173 292319.000   1159577.4048  -4706157.4474   4132205.1370   1   9   0.0218   0.0374   0.0303  -0.0231  -0.0231   0.0128 -26.00    3.1
2173 292320.000   1159577.4052  -4706157.4430   4132205.1331   1   9   0.0210   0.0361   0.0292  -0.0223  -0.0223   0.0124 -25.00    3.2
2173 292321.000   1159577.4045  -4706157.4426   4132205.1338   1   9   0.0203   0.0348   0.0281  -0.0215  -0.0215   0.0119 -24.00    3.3
2173 292322.000   1159577.4075  -4706157.4425   4132205.1323   1   9   0.0195   0.0335   0.0270  -0.0207  -0.0207   0.0115 -23.00    3.6
2173 292323.000   1159577.4063  -4706157.4417   4132205.1345   1   9   0.0187   0.0322   0.0260  -0.0198  -0.0199   0.0110 -22.00    3.8
2173 292324.000   1159577.4089  -4706157.4425   4132205.1304   1   9   0.0180   0.0309   0.0249  -0.0190  -0.0191   0.0106 -21.00    3.9
2173 292325.000   1159577.4088  -4706157.4453   4132205.1307   1   9   0.0172   0.0296   0.0239  -0.0182  -0.0183   0.0102 -20.00    4.1
2173 292326.000   1159577.4088  -4706157.4429   4132205.1286   1   9   0.0164   0.0283   0.0228  -0.0174  -0.0176   0.0097 -19.00    4.4
2173 292327.000   1159577.4056  -4706157.4392   4132205.1267   1   9   0.0157   0.0270   0.0218  -0.0166  -0.0168   0.0093 -18.00    4.6
2173 292328.000   1159577.4075  -4706157.4390   4132205.1261   1   9   0.0149   0.0257   0.0207  -0.0158  -0.0160   0.0088 -17.00    4.7
2173 292329.000   1159577.4083  -4706157.4347   4132205.1237   1   9   0.0142   0.0245   0.0197  -0.0150  -0.0153   0.0084 -16.00    4.8
2173 292330.000   1159577.4097  -4706157.4369   4132205.1270   1   9   0.0135   0.0232   0.0187  -0.0142  -0.0145   0.0080 -15.00    4.9
2173 292331.000   1159577.4079  -4706157.4311   4132205.1250   1   9   0.0127   0.0220   0.0177  -0.0134  -0.0138   0.0076 -14.00    5.0
2173 292332.000   1159577.4069  -4706157.4255   4132205.1230   1   9   0.0120   0.0208   0.0167  -0.0127  -0.0131   0.0072 -13.00    5.3
2173 292333.000   1159577.4077  -4706157.4264   4132205.1242   1   9   0.0113   0.0196   0.0157  -0.0119  -0.0124   0.0068 -12.00    5.8
2173 292334.000   1159577.4075  -4706157.4243   4132205.1231   1   9   0.0106   0.0184   0.0147  -0.0112  -0.0117   0.0064 -11.00    6.4
2173 292335.000   1159577.4078  -4706157.4262   4132205.1210   1   9   0.0099   0.0173   0.0138  -0.0104  -0.0110   0.0060 -10.00    6.9
2173 292336.000   1159577.4103  -4706157.4315   4132205.1245   1   9   0.0092   0.0162   0.0129  -0.0097  -0.0104   0.0056  -9.00    7.5
2173 292337.000   1159577.4097  -4706157.4322   4132205.1261   1   9   0.0085   0.0151   0.0120  -0.0090  -0.0098   0.0053  -8.00    8.2
2173 292338.000   1159577.4093  -4706157.4324   4132205.1264   1   9   0.0079   0.0141   0.0112  -0.0083  -0.0092   0.0050  -7.00    8.7
2173 292339.000   1159577.4104  -4706157.4295   4132205.1247   1   9   0.0072   0.0131   0.0103  -0.0077  -0.0087   0.0046  -6.00    9.2
2173 292340.000   1159577.4108  -4706157.4323   4132205.1267   1   9   0.0066   0.0122   0.0096  -0.0071  -0.0082   0.0042  -5.00    9.7
2173 292341.000   1159577.4111  -4706157.4337   4132205.1278   1   9   0.0061   0.0114   0.0089  -0.0065  -0.0077   0.0042  -4.00   10.2
2173 292342.000   1159577.4096  -4706157.4295   4132205.1271   1   9   0.0060   0.0107   0.0084  -0.0060  -0.0073   0.0039  -3.00   10.7
2173 292343.000   1159577.4114  -4706157.4301   4132205.1259   1   9   0.0053   0.0101   0.0081  -0.0056  -0.0070   0.0039  -2.00   10.9
2173 292344.000   1159577.4117  -4706157.4298   4132205.1256   1   9   0.0038   0.0097   0.0076  -0.0052  -0.0069   0.0038  -1.00   11.6
2173 292345.000   1159577.4091  -4706157.4267   4132205.1226   1   9   0.0045   0.0096   0.0075  -0.0053  -0.0068   0.0038   0.00   12.2
2173 292346.000   1159577.4128  -4706157.4311   4132205.1244   1   9   0.0048   0.0096   0.0075  -0.0053  -0.0068   0.0034   0.00   10.0
2173 292347.000   1159577.4090  -4706157.4271   4132205.1242   1   9   0.0048   0.0096   0.0075  -0.0053  -0.0068   0.0034   0.00   10.9
2173 292348.000   1159577.4115  -4706157.4316   4132205.1258   1   9   0.0048   0.0096   0.0075  -0.0053  -0.0068   0.0034   0.00    9.0
2173 292349.000   1159577.4120  -4706157.4286   4132205.1228   1   9   0.0049   0.0096   0.0075  -0.0053  -0.0068   0.0034   0.00   10.2
2173 292350.000   1159577.4104  -4706157.4277   4132205.1259   1   9   0.0049   0.0096   0.0075  -0.0053  -0.0068   0.0034   0.00    9.6
2173 292351.000   1159577.4104  -4706157.4293   4132205.1231   1   9   0.0049   0.0096   0.0075  -0.0053  -0.0068   0.0034   0.00   10.7
2173 292352.000   1159577.4116  -4706157.4308   4132205.1266   1   9   0.0049   0.0096   0.0075  -0.0053  -0.0068   0.0034   0.00    8.5
2173 292353.000   1159577.4124  -4706157.4346   4132205.1276   1   9   0.0049   0.0096   0.0075  -0.0053  -0.0068   0.0034   0.00    9.2
2173 292354.000   1159577.4112  -4706157.4283   4132205.1231   1   9   0.0049   0.0096   0.0075  -0.0053  -0.0068   0.0034   0.00    9.1
2173 292355.000   1159577.4099  -4706157.4277   4132205.1251   1   9   0.0049   0.0096   0.0075  -0.0053  -0.0068   0.0034   0.00    8.9
2173 292356.000   1159577.4106  -4706157.4333   4132205.1281   1   9   0.0049   0.0096   0.0075  -0.0053  -0.0068   0.0034   0.00   11.4
2173 292357.000   1159577.4100  -4706157.4310   4132205.1257   1   9   0.0049   0.0096   0.0075  -0.0053  -0.0068   0.0034   0.00    9.5
2173 292358.000   1159577.4102  -4706157.4308   4132205.1259   1   9   0.0049   0.0096   0.0075  -0.0053  -0.0068   0.0034   0.00    9.2
2173 292359.000   1159577.4080  -4706157.4285   4132205.1261   1   9   0.0049   0.0096   0.0075  -0.0053  -0.0068   0.0034   0.00    9.5
2173 292360.000   1159577.4098  -4706157.4282   4132205.1279   1   9   0.0049   0.0096   0.0075  -0.0053  -0.0068   0.0035   0.00    8.9
2173 292361.000   1159577.4088  -4706157.4291   4132205.1256   1   9   0.0049   0.0096   0.0075  -0.0053  -0.0068   0.0035   0.00   10.8
2173 292362.000   1159577.4105  -4706157.4300   4132205.1282   1   9   0.0049   0.0096   0.0075  -0.0053  -0.0068   0.0035   0.00    9.2
2173 292363.000   1159577.4104  -4706157.4314   4132205.1293   1   9   0.0049   0.0096   0.0075  -0.0053  -0.0068   0.0035   0.00   10.4
2173 292364.000   1159577.4102  -4706157.4347   4132205.1319   1   9   0.0049   0.0096   0.0075  -0.0053  -0.0068   0.0035   0.00    9.5
2173 292365.000   1159577.4114  -4706157.4324   4132205.1258   1   9   0.0049   0.0096   0.0075  -0.0053  -0.0068   0.0035   0.00   10.2
2173 292366.000   1159577.4105  -4706157.4342   4132205.1277   1   9   0.0049   0.0096   0.0075  -0.0053  -0.0068   0.0035   0.00    8.6
2173 292367.000   1159577.4093  -4706157.4306   4132205.1277   1   9   0.0049   0.0096   0.0075  -0.0053  -0.0068   0.0035   0.00    9.1
2173 292368.000   1159577.4105  -4706157.4338   4132205.1293   1   9   0.0049   0.0096   0.0075  -0.0053  -0.0068   0.0035   0.00    9.1
2173 292369.000   1159577.4082  -4706157.4288   4132205.1264   1   9   0.0049   0.0096   0.0075  -0.0053  -0.0068   0.0035   0.00    8.6
2173 292370.000   1159577.4100  -4706157.4349   4132205.1306   1   9   0.0049   0.0096   0.0075  -0.0053  -0.0068   0.0035   0.00    9.2
2173 292371.000   1159577.4106  -4706157.4323   4132205.1296   1   9   0.0049   0.0096   0.0075  -0.0053  -0.0068   0.0035   0.00    8.3
2173 292372.000   1159577.4101  -4706157.4354   4132205.1302   1   9   0.0049   0.0096   0.0075  -0.0053  -0.0068   0.0035   0.00    8.0
2173 292373.000   1159577.4093  -4706157.4362   4132205.1324   1   9   0.0049   0.0096   0.0075  -0.0053  -0.0068   0.0035   0.00    8.8
2173 292374.000   1159577.4099  -4706157.4302   4132205.1292   1   9   0.0049   0.0096   0.0075  -0.0053  -0.0068   0.0035   0.00    8.2
2173 292375.000   1159577.4095  -4706157.4329   4132205.1297   1   9   0.0049   0.0096   0.0075  -0.0053  -0.0068   0.0035   0.00    7.1
2173 292376.000   1159577.4103  -4706157.4327   4132205.1301   1   9   0.0049   0.0096   0.0075  -0.0053  -0.0068   0.0035   0.00    8.2
2173 292377.000   1159577.4090  -4706157.4291   4132205.1273   1   9   0.0049   0.0096   0.0075  -0.0053  -0.0068   0.0035   0.00    9.2
2173 292378.000   1159577.4100  -4706157.4337   4132205.1313   1   9   0.0049   0.0096   0.0075  -0.0053  -0.0068   0.0035   0.00    9.1
2173 292379.000   1159577.4094  -4706157.4331   4132205.1326   1   9   0.0049   0.0096   0.0075  -0.0053  -0.0068   0.0035   0.00    9.8
2173 292380.000   1159577.4107  -4706157.4362   4132205.1333   1   9   0.0049   0.0096   0.0075  -0.0053  -0.0068   0.0035   0.00    8.4
2173 292381.000   1159577.4081  -4706157.4341   4132205.1313   1   9   0.0049   0.0096   0.0075  -0.0053  -0.0068   0.0035   0.00   10.6
2173 292382.000   1159577.4099  -4706157.4362   4132205.1313   1   9   0.0049   0.0096   0.0075  -0.0053  -0.0068   0.0035   0.00    7.6
2173 292383.000   1159577.4093  -4706157.4344   4132205.1309   1   9   0.0049   0.0096   0.0075  -0.0053  -0.0068   0.0035   0.00    8.0
2173 292384.000   1159577.4085  -4706157.4334   4132205.1291   1   9   0.0049   0.0096   0.0075  -0.0053  -0.0068   0.0035   0.00    7.9
2173 292385.000   1159577.4097  -4706157.4332   4132205.1302   1   9   0.0049   0.0096   0.0075  -0.0053  -0.0068   0.0035   0.00    8.0
2173 292386.000   1159577.4096  -4706157.4342   4132205.1315   1   9   0.0049   0.0096   0.0075  -0.0053  -0.0068   0.0035   0.00    5.0
2173 292387.000   1159577.4089  -4706157.4309   4132205.1303   1   9   0.0049   0.0096   0.0075  -0.0053  -0.0068   0.0035   0.00    7.3
2173 292388.000   1159577.4101  -4706157.4314   4132205.1275   1   9   0.0049   0.0096   0.0075  -0.0053  -0.0068   0.0035   0.00    7.0
2173 292389.000   1159577.4076  -4706157.4302   4132205.1289   1   9   0.0049   0.0096   0.0075  -0.0053  -0.0068   0.0035   0.00    5.9
2173 292390.000   1159577.4092  -4706157.4297   4132205.1265   1   9   0.0049   0.0096   0.0075  -0.0053  -0.0068   0.0035   0.00    6.1
2173 292391.000   1159577.4103  -4706157.4345   4132205.1306   1   9   0.0049   0.0096   0.0075  -0.0053  -0.0068   0.0035   0.00    7.9
2173 292392.000   1159577.4106  -4706157.4343   4132205.1274   1   9   0.0049   0.0096   0.0075  -0.0053  -0.0068   0.0035   0.00    6.5
2173 292393.000   1159577.4068  -4706157.4294   4132205.1249   1   9   0.0049   0.0096   0.0075  -0.0053  -0.0068   0.0035   0.00    6.6
2173 292394.000   1159577.4070  -4706157.4294   4132205.1239   1   9   0.0049   0.0096   0.0075  -0.0053  -0.0068   0.0035   0.00    5.5
2173 292395.000   1159577.4083  -4706157.4320   4132205.1261   1   9   0.0049   0.0096   0.0075  -0.0053  -0.0068   0.0035   0.00    6.2
2173 292396.000   1159577.4070  -4706157.4311   4132205.1270   1   9   0.0049   0.0096   0.0075  -0.0053  -0.0068   0.0035   0.00    6.3
2173 292397.000   1159577.4078  -4706157.4322   4132205.1295   1   9   0.0049   0.0096   0.0075  -0.0053  -0.0068   0.0035   0.00    6.5
2173 292398.000   1159577.4068  -4706157.4274   4132205.1280   1   9   0.0049   0.0096   0.0075  -0.0053  -0.0068   0.0035   0.00    6.2
2173 292399.000   1159577.4089  -4706157.4342   4132205.1264   1   9   0.0049   0.0096   0.0075  -0.0053  -0.0068   0.0035   0.00    6.1
2173 292400.000   1159577.4080  -4706157.4325   4132205.1291   1   9   0.0049   0.0096   0.0075  -0.0053  -0.0068   0.0035   0.00    4.9
2173 292401.000   1159577.4078  -4706157.4326   4132205.1301   1   9   0.0049   0.0096   0.0075  -0.0053  -0.0068   0.0035   0.00    5.4
2173 292402.000   1159577.4072  -4706157.4291   4132205.1265   1   9   0.0049   0.0096   0.0075  -0.0053  -0.0068   0.0035   0.00    5.6
2173 292403.000   1159577.4090  -4706157.4321   4132205.1268   1   9   0.0049   0.0096   0.0075  -0.0053  -0.0068   0.0035   0.00    6.4
2173 292404.000   1159577.4094  -4706157.4330   4132205.1305   1   9   0.0049   0.0096   0.0075  -0.0053  -0.0068   0.0035   0.00    5.5
2173 292405.000   1159577.4070  -4706157.4265   4132205.1262   1   9   0.0049   0.0096   0.0075  -0.0053  -0.0068   0.0035   0.00    6.3
2173 292406.000   1159577.4069  -4706157.4295   4132205.1274   1   9   0.0049   0.0096   0.0075  -0.0053  -0.0068   0.0035   0.00    6.4
2173 292407.000   1159577.4091  -4706157.4309   4132205.1305   1   9   0.0049   0.0096   0.0075  -0.0053  -0.0068   0.0035   0.00    5.7
2173 292408.000   1159577.4079  -4706157.4305   4132205.1262   1   9   0.0049   0.0096   0.0075  -0.0053  -0.0068   0.0035   0.00    6.3
2173 292409.000   1159577.4075  -4706157.4326   4132205.1295   1   9   0.0049   0.0096   0.0075  -0.0053  -0.0068   0.0035   0.00    6.3
2173 292410.000   1159577.4088  -4706157.4317   4132205.1292   1   9   0.0049   0.0096   0.0075  -0.0053  -0.0068   0.0035   0.00    6.6
2173 292411.000   1159577.4095  -4706157.4365   4132205.1316   1   9   0.0049   0.0096   0.0075  -0.0053  -0.0068   0.0035   0.00    6.8
2173 292412.000   1159577.4085  -4706157.4332   4132205.1297   1   9   0.0049   0.0096   0.0074  -0.0053  -0.0068   0.0035   0.00    5.0
2173 292413.000   1159577.4096  -4706157.4349   4132205.1301   1   9   0.0049   0.0096   0.0074  -0.0054  -0.0068   0.0035   0.00    5.4
2173 292414.000   1159577.4111  -4706157.4381   4132205.1305   1   9   0.0049   0.0096   0.0074  -0.0054  -0.0068   0.0035   0.00    4.7
2173 292415.000   1159577.4116  -4706157.4378   4132205.1311   1   9   0.0049   0.0096   0.0074  -0.0054  -0.0068   0.0035   0.00    5.4
2173 292416.000   1159577.4104  -4706157.4374   4132205.1327   1   9   0.0049   0.0096   0.0074  -0.0054  -0.0068   0.0035   0.00    6.6
2173 292417.000   1159577.4086  -4706157.4325   4132205.1289   1   9   0.0049   0.0096   0.0074  -0.0054  -0.0068   0.0035   0.00    5.4
2173 292418.000   1159577.4096  -4706157.4373   4132205.1335   1   9   0.0049   0.0097   0.0074  -0.0054  -0.0068   0.0035   0.00    5.6
2173 292419.000   1159577.4090  -4706157.4341   4132205.1303   1   9   0.0049   0.0097   0.0074  -0.0054  -0.0068   0.0035   0.00    5.7
2173 292420.000   1159577.4093  -4706157.4333   4132205.1285   1   9   0.0049   0.0097   0.0074  -0.0054  -0.0068   0.0035   0.00    6.1
2173 292421.000   1159577.4075  -4706157.4343   4132205.1305   1   9   0.0049   0.0097   0.0074  -0.0054  -0.0068   0.0035   0.00    5.5
2173 292422.000   1159577.4095  -4706157.4366   4132205.1301   1   9   0.0049   0.0097   0.0074  -0.0054  -0.0068   0.0035   0.00    5.8
2173 292423.000   1159577.4109  -4706157.4428   4132205.1332   1   9   0.0049   0.0097   0.0074  -0.0054  -0.0068   0.0035   0.00    5.1
2173 292424.000   1159577.4091  -4706157.4370   4132205.1302   1   9   0.0049   0.0097   0.0074  -0.0054  -0.0068   0.0035   0.00    6.2
2173 292425.000   1159577.4099  -4706157.4382   4132205.1323   1   9   0.0049   0.0097   0.0074  -0.0054  -0.0068   0.0035   0.00    5.3
2173 292426.000   1159577.4082  -4706157.4350   4132205.1297   1   9   0.0049   0.0097   0.0074  -0.0054  -0.0068   0.0035   0.00    5.7
2173 292427.000   1159577.4099  -4706157.4376   4132205.1321   1   9   0.0049   0.0097   0.0074  -0.0054  -0.0068   0.0035   0.00    6.1
2173 292428.000   1159577.4087  -4706157.4329   4132205.1288   1   9   0.0049   0.0097   0.0074  -0.0054  -0.0068   0.0035   0.00    5.3
2173 292429.000   1159577.4116  -4706157.4374   4132205.1292   1   9   0.0049   0.0097   0.0074  -0.0054  -0.0068   0.0035   0.00    6.8
2173 292430.000   1159577.4115  -4706157.4380   4132205.1342   1   9   0.0049   0.0097   0.0074  -0.0054  -0.0068   0.0035   0.00    6.7
2173 292431.000   1159577.4106  -4706157.4392   4132205.1349   1   9   0.0049   0.0097   0.0074  -0.0054  -0.0068   0.0035   0.00    6.0
2173 292432.000   1159577.4102  -4706157.4380   4132205.1326   1   9   0.0049   0.0097   0.0074  -0.0054  -0.0068   0.0035   0.00    6.8
2173 292433.000   1159577.4091  -4706157.4326   4132205.1325   1   9   0.0049   0.0097   0.0074  -0.0054  -0.0068   0.0035   0.00    8.8
2173 292434.000   1159577.4111  -4706157.4393   4132205.1335   1   9   0.0049   0.0097   0.0074  -0.0054  -0.0068   0.0035   0.00    7.3
2173 292435.000   1159577.4116  -4706157.4387   4132205.1325   1   9   0.0049   0.0097   0.0074  -0.0054  -0.0068   0.0035   0.00    7.1
2173 292436.000   1159577.4108  -4706157.4381   4132205.1361   1   9   0.0049   0.0097   0.0074  -0.0054  -0.0068   0.0035   0.00    8.5
2173 292437.000   1159577.4119  -4706157.4391   4132205.1351   1   9   0.0049   0.0097   0.0074  -0.0054  -0.0068   0.0035   0.00    6.8
2173 292438.000   1159577.4101  -4706157.4362   4132205.1330   1   9   0.0049   0.0097   0.0074  -0.0054  -0.0068   0.0035   0.00    9.1
2173 292439.000   1159577.4109  -4706157.4417   4132205.1328   1   9   0.0049   0.0097   0.0074  -0.0054  -0.0068   0.0035   0.00    9.4
2173 292440.000   1159577.4101  -4706157.4388   4132205.1349   1   9   0.0049   0.0097   0.0074  -0.0054  -0.0068   0.0035   0.00    7.9
2173 292441.000   1159577.4086  -4706157.4366   4132205.1349   1   9   0.0049   0.0097   0.0074  -0.0054  -0.0067   0.0035   0.00    8.4
2173 292442.000   1159577.4111  -4706157.4394   4132205.1343   1   9   0.0049   0.0097   0.0074  -0.0054  -0.0067   0.0035   0.00    8.9
2173 292443.000   1159577.4101  -4706157.4413   4132205.1348   1   9   0.0049   0.0097   0.0074  -0.0054  -0.0067   0.0035   0.00    8.8
2173 292444.000   1159577.4076  -4706157.4361   4132205.1323   1   9   0.0049   0.0097   0.0074  -0.0054  -0.0067   0.0035   0.00    7.4
2173 292445.000   1159577.4114  -4706157.4431   4132205.1367   1   9   0.0049   0.0097   0.0074  -0.0054  -0.0067   0.0035   0.00    7.9
2173 292446.000   1159577.4091  -4706157.4422   4132205.1375   1   9   0.0049   0.0097   0.0074  -0.0054  -0.0067   0.0035   0.00    4.7
2173 292447.000   1159577.4073  -4706157.4374   4132205.1335   1   9   0.0049   0.0097   0.0074  -0.0054  -0.0067   0.0035   0.00    8.5
2173 292448.000   1159577.4099  -4706157.4418   4132205.1343   1   9   0.0049   0.0097   0.0074  -0.0054  -0.0067   0.0035   0.00    8.1
2173 292449.000   1159577.4083  -4706157.4385   4132205.1340   1   9   0.0049   0.0097   0.0074  -0.0054  -0.0067   0.0035   0.00    7.1
2173 292450.000   1159577.4080  -4706157.4389   4132205.1346   1   9   0.0049   0.0097   0.0074  -0.0054  -0.0067   0.0035   0.00    6.2
2173 292451.000   1159577.4093  -4706157.4368   4132205.1340   1   9   0.0049   0.0097   0.0074  -0.0054  -0.0067   0.0035   0.00    8.2
2173 292452.000   1159577.4072  -4706157.4351   4132205.1318   1   9   0.0049   0.0097   0.0074  -0.0054  -0.0067   0.0035   0.00    9.5
2173 292453.000   1159577.4087  -4706157.4389   4132205.1322   1   9   0.0049   0.0097   0.0074  -0.0054  -0.0067   0.0035   0.00    7.6
2173 292454.000   1159577.4079  -4706157.4368   4132205.1315   1   9   0.0049   0.0097   0.0074  -0.0054  -0.0067   0.0035   0.00    8.2
2173 292455.000   1159577.4091  -4706157.4386   4132205.1341   1   9   0.0049   0.0097   0.0074  -0.0054  -0.0067   0.0035   0.00    7.2
2173 292456.000   1159577.4069  -4706157.4367   4132205.1336   1   9   0.0049   0.0097   0.0074  -0.0054  -0.0067   0.0035   0.00    9.6
2173 292457.000   1159577.4081  -4706157.4362   4132205.1338   1   9   0.0049   0.0097   0.0074  -0.0054  -0.0067   0.0035   0.00    8.1
2173 292458.000   1159577.4066  -4706157.4356   4132205.1342   1   9   0.0049   0.0097   0.0074  -0.0054  -0.0067   0.0035   0.00   11.3
2173 292459.000   1159577.4090  -4706157.4378   4132205.1366   1   9   0.0049   0.0097   0.0074  -0.0054  -0.0067   0.0035   0.00   11.4
2173 292460.000   1159577.4066  -4706157.4359   4132205.1334   1   9   0.0049   0.0097   0.0074  -0.0054  -0.0067   0.0035   0.00   11.0
2173 292461.000   1159577.4074  -4706157.4361   4132205.1374   1   9   0.0049   0.0097   0.0074  -0.0054  -0.0067   0.0035   0.00   12.5
2173 292462.000   1159577.4073  -4706157.4342   4132205.1343   1   9   0.0049   0.0097   0.0074  -0.0054  -0.0067   0.0035   0.00    9.4
2173 292463.000   1159577.4075  -4706157.4362   4132205.1363   1   9   0.0049   0.0097   0.0074  -0.0054  -0.0067   0.0035   0.00   13.2
2173 292464.000   1159577.4079  -4706157.4380   4132205.1373   1   9   0.0049   0.0097   0.0074  -0.0054  -0.0067   0.0035   0.00   11.4
2173 292465.000   1159577.4070  -4706157.4337   4132205.1344   1   9   0.0049   0.0097   0.0074  -0.0054  -0.0067   0.0035   0.00   13.4
2173 292466.000   1159577.4059  -4706157.4330   4132205.1340   1   9   0.0049   0.0097   0.0074  -0.0054  -0.0067   0.0035   0.00   13.8
2173 292467.000   1159577.4070  -4706157.4392   4132205.1376   1   9   0.0049   0.0097   0.0074  -0.0054  -0.0067   0.0035   0.00   13.8
2173 292468.000   1159577.4071  -4706157.4327   4132205.1346   1   9   0.0049   0.0097   0.0074  -0.0054  -0.0067   0.0035   0.00   12.0
2173 292469.000   1159577.4066  -4706157.4372   4132205.1377   1   9   0.0049   0.0097   0.0074  -0.0054  -0.0067   0.0035   0.00   12.1
2173 292470.000   1159577.4072  -4706157.4363   4132205.1352   1   9   0.0049   0.0097   0.0074  -0.0054  -0.0067   0.0035   0.00   13.2
2173 292471.000   1159577.4070  -4706157.4337   4132205.1355   1   9   0.0049   0.0097   0.0074  -0.0054  -0.0067   0.0035   0.00   11.6
2173 292472.000   1159577.4076  -4706157.4372   4132205.1380   1   9   0.0049   0.0097   0.0074  -0.0054  -0.0067   0.0035   0.00   10.2
2173 292473.000   1159577.4051  -4706157.4298   4132205.1339   1   9   0.0049   0.0097   0.0074  -0.0054  -0.0067   0.0035   0.00   11.8
2173 292474.000   1159577.4081  -4706157.4391   4132205.1361   1   9   0.0049   0.0097   0.0074  -0.0054  -0.0067   0.0035   0.00   13.1
2173 292475.000   1159577.4078  -4706157.4398   4132205.1381   1   9   0.0049   0.0097   0.0074  -0.0054  -0.0067   0.0035   0.00   10.9
2173 292476.000   1159577.4075  -4706157.4394   4132205.1363   1   9   0.0049   0.0097   0.0074  -0.0054  -0.0067   0.0035   0.00   10.9
2173 292477.000   1159577.4090  -4706157.4417   4132205.1364   1   9   0.0049   0.0097   0.0074  -0.0054  -0.0067   0.0035   0.00   12.5
2173 292478.000   1159577.4082  -4706157.4376   4132205.1340   1   9   0.0049   0.0097   0.0074  -0.0054  -0.0067   0.0035   0.00   11.9
2173 292479.000   1159577.4064  -4706157.4390   4132205.1353   1   9   0.0049   0.0097   0.0074  -0.0054  -0.0067   0.0035   0.00   11.9
2173 292480.000   1159577.4065  -4706157.4387   4132205.1370   1   9   0.0049   0.0097   0.0074  -0.0054  -0.0067   0.0035   0.00   10.4
2173 292481.000   1159577.4064  -4706157.4377   4132205.1359   1   9   0.0049   0.0097   0.0074  -0.0054  -0.0067   0.0035   0.00   10.5
2173 292482.000   1159577.4069  -4706157.4428   4132205.1353   1   9   0.0049   0.0097   0.0074  -0.0054  -0.0067   0.0035   0.00   11.2
2173 292483.000   1159577.4065  -4706157.4368   4132205.1348   1   9   0.0049   0.0097   0.0074  -0.0054  -0.0067   0.0035   0.00   10.8
2173 292484.000   1159577.4054  -4706157.4393   4132205.1393   1   9   0.0049   0.0097   0.0074  -0.0054  -0.0067   0.0035   0.00   10.0
2173 292485.000   1159577.4067  -4706157.4422   4132205.1372   1   9   0.0049   0.0097   0.0074  -0.0054  -0.0067   0.0035   0.00   13.2
2173 292486.000   1159577.4058  -4706157.4377   4132205.1376   1   9   0.0049   0.0097   0.0074  -0.0054  -0.0067   0.0035   0.00   10.2
2173 292487.000   1159577.4052  -4706157.4407   4132205.1366   1   9   0.0049   0.0097   0.0074  -0.0054  -0.0067   0.0035   0.00   11.9
2173 292488.000   1159577.4047  -4706157.4396   4132205.1375   1   9   0.0049   0.0097   0.0074  -0.0054  -0.0067   0.0035   0.00    9.2
2173 292489.000   1159577.4059  -4706157.4407   4132205.1373   1   9   0.0049   0.0097   0.0074  -0.0054  -0.0067   0.0035   0.00    8.8
2173 292490.000   1159577.4056  -4706157.4401   4132205.1356   1   9   0.0049   0.0097   0.0074  -0.0054  -0.0067   0.0035   0.00   10.5
2173 292491.000   1159577.4060  -4706157.4405   4132205.1361   1   9   0.0049   0.0097   0.0074  -0.0054  -0.0067   0.0035   0.00   11.9
2173 292492.000   1159577.4043  -4706157.4343   4132205.1325   1   9   0.0049   0.0097   0.0074  -0.0054  -0.0067   0.0035   0.00   13.2
2173 292493.000   1159577.4040  -4706157.4366   4132205.1336   1   9   0.0049   0.0097   0.0074  -0.0054  -0.0067   0.0035   0.00   12.0
2173 292494.000   1159577.4034  -4706157.4368   4132205.1334   1   9   0.0049   0.0097   0.0074  -0.0054  -0.0067   0.0035   0.00   13.5
2173 292495.000   1159577.4008  -4706157.4351   4132205.1335   1   9   0.0049   0.0097   0.0074  -0.0054  -0.0067   0.0035   0.00   11.3
2173 292496.000   1159577.4043  -4706157.4378   4132205.1341   1   9   0.0049   0.0097   0.0074  -0.0054  -0.0067   0.0035   0.00   13.6
2173 292497.000   1159577.4050  -4706157.4380   4132205.1321   1   9   0.0049   0.0097   0.0074  -0.0054  -0.0067   0.0035   0.00   11.7
2173 292498.000   1159577.4049  -4706157.4385   4132205.1316   1   9   0.0049   0.0097   0.0074  -0.0054  -0.0067   0.0035   0.00   10.6
2173 292499.000   1159577.4054  -4706157.4390   4132205.1353   1   9   0.0049   0.0097   0.0074  -0.0054  -0.0067   0.0035   0.00   12.8
2173 292500.000   1159577.4059  -4706157.4373   4132205.1346   1   9   0.0049   0.0097   0.0074  -0.0054  -0.0067   0.0035   0.00   10.4
2173 292501.000   1159577.4055  -4706157.4393   4132205.1341   1   9   0.0049   0.0097   0.0074  -0.0054  -0.0067   0.0035   0.00   12.0
2173 292502.000   1159577.4052  -4706157.4388   4132205.1339   1   9   0.0049   0.0097   0.0074  -0.0054  -0.0067   0.0035   0.00    9.2
2173 292503.000   1159577.4053  -4706157.4386   4132205.1343   1   9   0.0049   0.0097   0.0074  -0.0054  -0.0067   0.0035   0.00   11.7
2173 292504.000   1159577.4030  -4706157.4325   4132205.1305   1   9   0.0049   0.0097   0.0074  -0.0054  -0.0067   0.0035   0.00   10.0
2173 292505.000   1159577.4056  -4706157.4372   4132205.1315   1   9   0.0049   0.0097   0.0074  -0.0054  -0.0067   0.0035   0.00    8.5
2173 292506.000   1159577.4045  -4706157.4366   4132205.1358   1   9   0.0049   0.0097   0.0074  -0.0054  -0.0067   0.0035   0.00    9.5
2173 292507.000   1159577.4064  -4706157.4397   4132205.1349   1   9   0.0049   0.0097   0.0074  -0.0054  -0.0067   0.0035   0.00    7.8
2173 292508.000   1159577.4055  -4706157.4403   4132205.1368   1   9   0.0049   0.0097   0.0074  -0.0054  -0.0067   0.0035   0.00    9.0
2173 292509.000   1159577.4039  -4706157.4353   4132205.1326   1   9   0.0049   0.0097   0.0074  -0.0054  -0.0067   0.0035   0.00    8.6
2173 292510.000   1159577.4056  -4706157.4359   4132205.1314   1   9   0.0049   0.0097   0.0074  -0.0054  -0.0067   0.0035   0.00    9.8
2173 292511.000   1159577.4049  -4706157.4374   4132205.1334   1   9   0.0049   0.0097   0.0074  -0.0054  -0.0067   0.0035   0.00   10.0
2173 292512.000   1159577.4051  -4706157.4387   4132205.1364   1   9   0.0049   0.0097   0.0074  -0.0054  -0.0067   0.0035   0.00    7.6
2173 292513.000   1159577.4058  -4706157.4383   4132205.1344   1   9   0.0049   0.0097   0.0074  -0.0054  -0.0067   0.0035   0.00    8.3
2173 292514.000   1159577.4068  -4706157.4367   4132205.1354   1   9   0.0049   0.0097   0.0074  -0.0054  -0.0067   0.0035   0.00    6.8
2173 292515.000   1159577.4032  -4706157.4355   4132205.1353   1   9   0.0049   0.0097   0.0074  -0.0054  -0.0067   0.0035   0.00    9.8
2173 292516.000   1159577.4047  -4706157.4355   4132205.1305   1   9   0.0049   0.0097   0.0074  -0.0054  -0.0067   0.0035   0.00    9.6
2173 292517.000   1159577.4062  -4706157.4415   4132205.1369   1   9   0.0049   0.0097   0.0074  -0.0054  -0.0067   0.0035   0.00    7.6
2173 292518.000   1159577.4038  -4706157.4371   4132205.1345   1   9   0.0049   0.0097   0.0074  -0.0054  -0.0067   0.0035   0.00    9.6
2173 292519.000   1159577.4059  -4706157.4439   4132205.1368   1   9   0.0049   0.0097   0.0074  -0.0054  -0.0067   0.0035   0.00    7.8
2173 292520.000   1159577.4050  -4706157.4421   4132205.1367   1   9   0.0049   0.0097   0.0074  -0.0054  -0.0067   0.0035   0.00    8.8
2173 292521.000   1159577.4063  -4706157.4426   4132205.1354   1   9   0.0049   0.0097   0.0074  -0.0055  -0.0067   0.0035   0.00    9.4
2173 292522.000   1159577.4044  -4706157.4415   4132205.1339   1   9   0.0049   0.0097   0.0074  -0.0055  -0.0067   0.0035   0.00    9.0
2173 292523.000   1159577.4047  -4706157.4399   4132205.1313   1   9   0.0049   0.0097   0.0074  -0.0055  -0.0067   0.0035   0.00    8.0
2173 292524.000   1159577.4048  -4706157.4437   4132205.1352   1   9   0.0049   0.0097   0.0074  -0.0055  -0.0067   0.0035   0.00    7.5
2173 292525.000   1159577.4043  -4706157.4411   4132205.1356   1   9   0.0049   0.0097   0.0074  -0.0055  -0.0067   0.0035   0.00   10.4
2173 292526.000   1159577.4066  -4706157.4450   4132205.1331   1   9   0.0049   0.0097   0.0074  -0.0055  -0.0067   0.0035   0.00   10.2
2173 292527.000   1159577.4067  -4706157.4444   4132205.1344   1   9   0.0049   0.0097   0.0074  -0.0055  -0.0067   0.0035   0.00    8.1
2173 292528.000   1159577.4050  -4706157.4426   4132205.1343   1   9   0.0049   0.0097   0.0074  -0.0055  -0.0067   0.0035   0.00   10.3
2173 292529.000   1159577.4066  -4706157.4451   4132205.1347   1   9   0.0049   0.0097   0.0074  -0.0055  -0.0067   0.0035   0.00   11.4
2173 292530.000   1159577.4079  -4706157.4455   4132205.1347   1   9   0.0049   0.0097   0.0074  -0.0055  -0.0067   0.0035   0.00   12.7
2173 292531.000   1159577.4059  -4706157.4451   4132205.1337   1   9   0.0049   0.0097   0.0074  -0.0055  -0.0067   0.0035   0.00   11.6
2173 292532.000   1159577.4035  -4706157.4441   4132205.1325   1   9   0.0050   0.0097   0.0074  -0.0055  -0.0067   0.0035   0.00   11.4
2173 292533.000   1159577.4047  -4706157.4460   4132205.1323   1   9   0.0050   0.0097   0.0074  -0.0055  -0.0067   0.0035   0.00   10.4
2173 292534.000   1159577.4050  -4706157.4469   4132205.1357   1   9   0.0050   0.0097   0.0074  -0.0055  -0.0067   0.0035   0.00    9.5
2173 292535.000   1159577.4049  -4706157.4462   4132205.1347   1   9   0.0050   0.0097   0.0073  -0.0055  -0.0067   0.0035   0.00   10.9
2173 292536.000   1159577.4074  -4706157.4459   4132205.1321   1   9   0.0050   0.0097   0.0073  -0.0055  -0.0067   0.0035   0.00   12.3
2173 292537.000   1159577.4082  -4706157.4479   4132205.1329   1   9   0.0050   0.0097   0.0073  -0.0055  -0.0067   0.0035   0.00    9.7
2173 292538.000   1159577.4047  -4706157.4450   4132205.1321   1   9   0.0050   0.0097   0.0073  -0.0055  -0.0067   0.0035   0.00   10.0
2173 292539.000   1159577.4061  -4706157.4442   4132205.1294   1   9   0.0050   0.0097   0.0073  -0.0055  -0.0067   0.0035   0.00   11.6
2173 292540.000   1159577.4055  -4706157.4443   4132205.1309   1   9   0.0050   0.0097   0.0073  -0.0055  -0.0067   0.0035   0.00   10.3
2173 292541.000   1159577.4078  -4706157.4446   4132205.1311   1   9   0.0050   0.0097   0.0073  -0.0055  -0.0067   0.0035   0.00   10.0
2173 292542.000   1159577.4064  -4706157.4432   4132205.1290   1   9   0.0050   0.0097   0.0073  -0.0055  -0.0067   0.0035   0.00   11.3
2173 292543.000   1159577.4063  -4706157.4453   4132205.1309   1   9   0.0050   0.0097   0.0073  -0.0055  -0.0067   0.0035   0.00   12.0
2173 292544.000   1159577.4080  -4706157.4479   4132205.1310   1   9   0.0050   0.0097   0.0073  -0.0055  -0.0067   0.0035   0.00   10.1
2173 292545.000   1159577.4060  -4706157.4445   4132205.1312   1   9   0.0050   0.0097   0.0073  -0.0055  -0.0067   0.0035   0.00   10.7
2173 292546.000   1159577.4060  -4706157.4433   4132205.1305   1   9   0.0050   0.0097   0.0073  -0.0055  -0.0067   0.0035   0.00   11.4
2173 292547.000   1159577.4061  -4706157.4433   4132205.1267   1   9   0.0050   0.0097   0.0073  -0.0055  -0.0067   0.0035   0.00   13.0
2173 292548.000   1159577.4071  -4706157.4451   4132205.1305   1   9   0.0050   0.0097   0.0073  -0.0055  -0.0067   0.0035   0.00   11.3
2173 292549.000   1159577.4059  -4706157.4427   4132205.1279   1   9   0.0050   0.0097   0.0073  -0.0055  -0.0067   0.0035   0.00   11.2
2173 292550.000   1159577.4063  -4706157.4440   4132205.1295   1   9   0.0050   0.0097   0.0073  -0.0055  -0.0067   0.0035   0.00   13.5
2173 292551.000   1159577.4033  -4706157.4376   4132205.1253   1   9   0.0050   0.0097   0.0073  -0.0055  -0.0067   0.0035   0.00   11.3
2173 292552.000   1159577.4056  -4706157.4405   4132205.1256   1   9   0.0050   0.0097   0.0073  -0.0055  -0.0067   0.0035   0.00    9.8
2173 292553.000   1159577.4062  -4706157.4439   4132205.1293   1   9   0.0050   0.0097   0.0073  -0.0055  -0.0067   0.0035   0.00   10.7
2173 292554.000   1159577.4055  -4706157.4465   4132205.1291   1   9   0.0050   0.0098   0.0073  -0.0055  -0.0067   0.0035   0.00   15.2
2173 292555.000   1159577.4080  -4706157.4511   4132205.1318   1   9   0.0050   0.0098   0.0073  -0.0055  -0.0067   0.0035   0.00   11.5
2173 292556.000   1159577.4064  -4706157.4484   4132205.1321   1   9   0.0050   0.0098   0.0073  -0.0055  -0.0067   0.0035   0.00   12.2
2173 292557.000   1159577.4057  -4706157.4448   4132205.1296   1   9   0.0050   0.0098   0.0073  -0.0055  -0.0067   0.0035   0.00   10.7
2173 292558.000   1159577.4042  -4706157.4447   4132205.1307   1   9   0.0050   0.0098   0.0073  -0.0055  -0.0067   0.0035   0.00   12.8
2173 292559.000   1159577.4073  -4706157.4451   4132205.1286   1   9   0.0050   0.0098   0.0073  -0.0055  -0.0067   0.0035   0.00   11.5
2173 292560.000   1159577.4057  -4706157.4425   4132205.1283   1   9   0.0050   0.0098   0.0073  -0.0055  -0.0067   0.0035   0.00   11.1
2173 292561.000   1159577.4059  -4706157.4438   4132205.1297   1   9   0.0050   0.0098   0.0073  -0.0055  -0.0067   0.0035   0.00   10.0
2173 292562.000   1159577.4055  -4706157.4446   4132205.1312   1   9   0.0050   0.0098   0.0073  -0.0055  -0.0067   0.0035   0.00   13.1
2173 292563.000   1159577.4032  -4706157.4412   4132205.1284   1   9   0.0050   0.0098   0.0073  -0.0055  -0.0067   0.0035   0.00   12.6
2173 292564.000   1159577.4031  -4706157.4401   4132205.1259   1   9   0.0050   0.0098   0.0073  -0.0055  -0.0067   0.0035   0.00   12.0
2173 292565.000   1159577.4055  -4706157.4407   4132205.1277   1   9   0.0050   0.0098   0.0073  -0.0055  -0.0067   0.0035   0.00   14.2
2173 292566.000   1159577.4048  -4706157.4425   4132205.1286   1   9   0.0050   0.0098   0.0073  -0.0055  -0.0067   0.0035   0.00   14.7
2173 292567.000   1159577.4035  -4706157.4398   4132205.1272   1   9   0.0050   0.0098   0.0073  -0.0055  -0.0067   0.0035   0.00   12.5
2173 292568.000   1159577.4051  -4706157.4425   4132205.1303   1   9   0.0050   0.0098   0.0073  -0.0055  -0.0067   0.0035   0.00   10.5
2173 292569.000   1159577.4046  -4706157.4440   4132205.1351   1   9   0.0050   0.0098   0.0073  -0.0055  -0.0067   0.0035   0.00    9.0
2173 292570.000   1159577.4068  -4706157.4442   4132205.1292   1   9   0.0050   0.0098   0.0073  -0.0055  -0.0067   0.0035   0.00    9.5
2173 292571.000   1159577.4064  -4706157.4425   4132205.1306   1   9   0.0050   0.0098   0.0073  -0.0055  -0.0067   0.0035   0.00    8.8
2173 292572.000   1159577.4042  -4706157.4395   4132205.1260   1   9   0.0050   0.0098   0.0073  -0.0055  -0.0067   0.0035   0.00    8.2
2173 292573.000   1159577.4056  -4706157.4407   4132205.1266   1   9   0.0050   0.0098   0.0073  -0.0055  -0.0067   0.0035   0.00    9.5
2173 292574.000   1159577.4043  -4706157.4411   4132205.1270   1   9   0.0050   0.0098   0.0073  -0.0055  -0.0067   0.0035   0.00    9.5
2173 292575.000   1159577.4050  -4706157.4414   4132205.1262   1   9   0.0050   0.0098   0.0073  -0.0055  -0.0067   0.0035   0.00    9.9
2173 292576.000   1159577.4069  -4706157.4442   4132205.1288   1   9   0.0050   0.0098   0.0073  -0.0055  -0.0067   0.0035   0.00   10.2
2173 292577.000   1159577.4046  -4706157.4420   4132205.1255   1   9   0.0050   0.0098   0.0073  -0.0055  -0.0067   0.0035   0.00   10.8
2173 292578.000   1159577.4034  -4706157.4415   4132205.1242   1   9   0.0050   0.0098   0.0073  -0.0055  -0.0067   0.0035   0.00    8.6
2173 292579.000   1159577.4045  -4706157.4420   4132205.1300   1   9   0.0050   0.0098   0.0073  -0.0055  -0.0067   0.0035   0.00   10.2
2173 292580.000   1159577.4044  -4706157.4425   4132205.1262   1   9   0.0050   0.0098   0.0073  -0.0055  -0.0067   0.0035   0.00    9.9
2173 292581.000   1159577.4036  -4706157.4404   4132205.1262   1   9   0.0050   0.0098   0.0073  -0.0055  -0.0067   0.0035   0.00    9.8
2173 292582.000   1159577.4063  -4706157.4423   4132205.1269   1   9   0.0050   0.0098   0.0073  -0.0055  -0.0067   0.0035   0.00   10.8
2173 292583.000   1159577.4077  -4706157.4438   4132205.1244   1   9   0.0050   0.0098   0.0073  -0.0055  -0.0067   0.0035   0.00    9.8
2173 292584.000   1159577.4050  -4706157.4407   4132205.1272   1   9   0.0050   0.0098   0.0073  -0.0055  -0.0067   0.0035   0.00   11.0
2173 292585.000   1159577.4052  -4706157.4410   4132205.1268   1   9   0.0050   0.0098   0.0073  -0.0055  -0.0067   0.0035   0.00    9.3
2173 292586.000   1159577.4068  -4706157.4433   4132205.1276   1   9   0.0050   0.0098   0.0073  -0.0055  -0.0067   0.0035   0.00    9.4
2173 292587.000   1159577.4071  -4706157.4437   4132205.1263   1   9   0.0050   0.0098   0.0073  -0.0055  -0.0067   0.0035   0.00   10.3
2173 292588.000   1159577.4062  -4706157.4429   4132205.1260   1   9   0.0050   0.0098   0.0073  -0.0055  -0.0067   0.0035   0.00    9.5
2173 292589.000   1159577.4077  -4706157.4442   4132205.1255   1   9   0.0050   0.0098   0.0073  -0.0055  -0.0067   0.0035   0.00    9.2
2173 292590.000   1159577.4072  -4706157.4440   4132205.1256   1   9   0.0050   0.0098   0.0073  -0.0055  -0.0067   0.0035   0.00    8.9
2173 292591.000   1159577.4075  -4706157.4454   4132205.1268   1   9   0.0050   0.0098   0.0073  -0.0055  -0.0067   0.0035   0.00   13.0
2173 292592.000   1159577.4079  -4706157.4448   4132205.1233   1   9   0.0050   0.0098   0.0073  -0.0055  -0.0067   0.0035   0.00   11.5
2173 292593.000   1159577.4080  -4706157.4443   4132205.1271   1   9   0.0050   0.0098   0.0073  -0.0055  -0.0067   0.0035   0.00    9.0
2173 292594.000   1159577.4084  -4706157.4459   4132205.1251   1   9   0.0050   0.0098   0.0073  -0.0055  -0.0067   0.0035   0.00   12.9
2173 292595.000   1159577.4095  -4706157.4475   4132205.1264   1   9   0.0050   0.0098   0.0073  -0.0055  -0.0067   0.0035   0.00   12.5
2173 292596.000   1159577.4080  -4706157.4471   4132205.1273   1   9   0.0050   0.0098   0.0073  -0.0055  -0.0067   0.0035   0.00    9.9
2173 292597.000   1159577.4092  -4706157.4465   4132205.1275   1   9   0.0050   0.0098   0.0073  -0.0055  -0.0067   0.0035   0.00   11.5
2173 292598.000   1159577.4074  -4706157.4409   4132205.1246   1   9   0.0050   0.0098   0.0073  -0.0055  -0.0067   0.0035   0.00   12.8
2173 292599.000   1159577.4087  -4706157.4469   4132205.1258   1   9   0.0050   0.0098   0.0073  -0.0055  -0.0067   0.0035   0.00   10.4
2173 292600.000   1159577.4085  -4706157.4446   4132205.1257   1   9   0.0050   0.0098   0.0073  -0.0055  -0.0067   0.0035   0.00    8.7
2173 292601.000   1159577.4081  -4706157.4412   4132205.1252   1   9   0.0050   0.0098   0.0073  -0.0055  -0.0067   0.0035   0.00   10.5
2173 292602.000   1159577.4092  -4706157.4469   4132205.1279   1   9   0.0050   0.0098   0.0073  -0.0055  -0.0067   0.0035   0.00    9.5
2173 292603.000   1159577.4097  -4706157.4437   4132205.1246   1   9   0.0050   0.0098   0.0073  -0.0055  -0.0067   0.0035   0.00    8.6
2173 292604.000   1159577.4108  -4706157.4457   4132205.1275   1   9   0.0050   0.0098   0.0073  -0.0055  -0.0067   0.0035   0.00   11.2
2173 292605.000   1159577.4105  -4706157.4451   4132205.1241   1   9   0.0050   0.0098   0.0073  -0.0055  -0.0067   0.0035   0.00    9.3
2173 292606.000   1159577.4093  -4706157.4420   4132205.1242   1   9   0.0050   0.0098   0.0073  -0.0055  -0.0067   0.0035   0.00   10.2
2173 292607.000   1159577.4108  -4706157.4467   4132205.1253   1   9   0.0050   0.0098   0.0073  -0.0055  -0.0067   0.0035   0.00    8.3
2173 292608.000   1159577.4086  -4706157.4428   4132205.1242   1   9   0.0050   0.0098   0.0073  -0.0055  -0.0067   0.0035   0.00    9.5
2173 292609.000   1159577.4095  -4706157.4438   4132205.1233   1   9   0.0050   0.0098   0.0073  -0.0055  -0.0067   0.0035   0.00   10.1
2173 292610.000   1159577.4096  -4706157.4445   4132205.1250   1   9   0.0050   0.0098   0.0073  -0.0055  -0.0067   0.0035   0.00   12.4
2173 292611.000   1159577.4078  -4706157.4435   4132205.1224   1   9   0.0050   0.0098   0.0073  -0.0055  -0.0067   0.0035   0.00   13.6
2173 292612.000   1159577.4085  -4706157.4425   4132205.1252   1   9   0.0050   0.0098   0.0073  -0.0055  -0.0067   0.0035   0.00   11.7
2173 292613.000   1159577.4068  -4706157.4396   4132205.1246   1   9   0.0050   0.0098   0.0073  -0.0055  -0.0067   0.0035   0.00   12.8
2173 292614.000   1159577.4076  -4706157.4385   4132205.1229   1   9   0.0050   0.0098   0.0073  -0.0055  -0.0067   0.0035   0.00   14.1
2173 292615.000   1159577.4084  -4706157.4412   4132205.1225   1   9   0.0050   0.0098   0.0073  -0.0055  -0.0067   0.0035   0.00   14.9
2173 292616.000   1159577.4080  -4706157.4427   4132205.1260   1   9   0.0050   0.0098   0.0073  -0.0055  -0.0067   0.0035   0.00   14.3
2173 292617.000   1159577.4064  -4706157.4399   4132205.1246   1   9   0.0050   0.0098   0.0073  -0.0055  -0.0067   0.0035   0.00   13.9
2173 292618.000   1159577.4064  -4706157.4406   4132205.1235   1   9   0.0050   0.0098   0.0073  -0.0055  -0.0067   0.0035   0.00   18.4
2173 292619.000   1159577.4075  -4706157.4429   4132205.1241   1   9   0.0050   0.0098   0.0073  -0.0055  -0.0067   0.0035   0.00   17.0
2173 292620.000   1159577.4075  -4706157.4388   4132205.1240   1   9   0.0050   0.0098   0.0073  -0.0055  -0.0067   0.0035   0.00   16.3
2173 292621.000   1159577.4084  -4706157.4416   4132205.1233   1   9   0.0050   0.0098   0.0073  -0.0055  -0.0067   0.0035   0.00   17.0
2173 292622.000   1159577.4100  -4706157.4440   4132205.1245   1   9   0.0050   0.0098   0.0073  -0.0055  -0.0067   0.0035   0.00   15.2
2173 292623.000   1159577.4094  -4706157.4431   4132205.1234   1   9   0.0050   0.0098   0.0073  -0.0055  -0.0067   0.0035   0.00   21.2
2173 292624.000   1159577.4090  -4706157.4439   4132205.1251   1   9   0.0050   0.0098   0.0073  -0.0055  -0.0067   0.0035   0.00   17.7
2173 292625.000   1159577.4107  -4706157.4461   4132205.1257   1   9   0.0050   0.0098   0.0073  -0.0056  -0.0067   0.0035   0.00   12.6
2173 292626.000   1159577.4088  -4706157.4382   4132205.1234   1   9   0.0050   0.0098   0.0073  -0.0056  -0.0067   0.0035   0.00   18.5
2173 292627.000   1159577.4111  -4706157.4453   4132205.1245   1   9   0.0050   0.0098   0.0073  -0.0056  -0.0067   0.0035   0.00   12.7
2173 292628.000   1159577.4068  -4706157.4404   4132205.1228   1   9   0.0050   0.0098   0.0073  -0.0056  -0.0067   0.0035   0.00   12.3
2173 292629.000   1159577.4117  -4706157.4504   4132205.1279   1   9   0.0050   0.0098   0.0073  -0.0056  -0.0067   0.0035   0.00   12.3
2173 292630.000   1159577.4080  -4706157.4465   4132205.1250   1   9   0.0050   0.0098   0.0073  -0.0056  -0.0067   0.0035   0.00   10.6
2173 292631.000   1159577.4114  -4706157.4456   4132205.1246   1   9   0.0050   0.0098   0.0073  -0.0056  -0.0067   0.0035   0.00   11.7
2173 292632.000   1159577.4107  -4706157.4475   4132205.1253   1   9   0.0050   0.0098   0.0073  -0.0056  -0.0067   0.0035   0.00    9.0
2173 292633.000   1159577.4092  -4706157.4454   4132205.1265   1   9   0.0050   0.0098   0.0073  -0.0056  -0.0067   0.0035   0.00    9.2
2173 292634.000   1159577.4093  -4706157.4405   4132205.1239   1   9   0.0050   0.0098   0.0073  -0.0056  -0.0067   0.0035   0.00   12.2
2173 292635.000   1159577.4082  -4706157.4420   4132205.1234   1   9   0.0050   0.0098   0.0073  -0.0056  -0.0067   0.0035   0.00   10.3
2173 292636.000   1159577.4105  -4706157.4457   4132205.1268   1   9   0.0050   0.0098   0.0073  -0.0056  -0.0067   0.0035   0.00    9.1
2173 292637.000   1159577.4083  -4706157.4428   4132205.1280   1   9   0.0050   0.0098   0.0073  -0.0056  -0.0067   0.0035   0.00   11.1
2173 292638.000   1159577.4111  -4706157.4464   4132205.1267   1   9   0.0050   0.0098   0.0073  -0.0056  -0.0067   0.0035   0.00    9.8
2173 292639.000   1159577.4076  -4706157.4433   4132205.1239   1   9   0.0050   0.0098   0.0073  -0.0056  -0.0067   0.0035   0.00    8.0
2173 292640.000   1159577.4093  -4706157.4423   4132205.1247   1   9   0.0050   0.0098   0.0073  -0.0056  -0.0067   0.0035   0.00   12.4
2173 292641.000   1159577.4086  -4706157.4428   4132205.1249   1   9   0.0050   0.0098   0.0073  -0.0056  -0.0067   0.0035   0.00    9.5
2173 292642.000   1159577.4087  -4706157.4381   4132205.1240   1   9   0.0050   0.0098   0.0073  -0.0056  -0.0067   0.0035   0.00    9.5
2173 292643.000   1159577.4082  -4706157.4438   4132205.1267   1   9   0.0050   0.0098   0.0073  -0.0056  -0.0067   0.0035   0.00   10.6
2173 292644.000   1159577.4088  -4706157.4395   4132205.1228   1   9   0.0050   0.0098   0.0073  -0.0056  -0.0067   0.0035   0.00   14.6
2173 292645.000   1159577.4096  -4706157.4384   4132205.1239   1   9   0.0050   0.0098   0.0073  -0.0056  -0.0067   0.0035   0.00   11.0
2173 292646.000   1159577.4105  -4706157.4457   4132205.1280   1   9   0.0050   0.0098   0.0073  -0.0056  -0.0067   0.0035   0.00   17.9
2173 292647.000   1159577.4123  -4706157.4485   4132205.1309   1   9   0.0050   0.0098   0.0073  -0.0056  -0.0067   0.0035   0.00   10.3
2173 292648.000   1159577.4120  -4706157.4485   4132205.1272   1   9   0.0050   0.0098   0.0073  -0.0056  -0.0067   0.0035   0.00   12.1
2173 292649.000   1159577.4114  -4706157.4449   4132205.1267   1   9   0.0050   0.0098   0.0073  -0.0056  -0.0067   0.0035   0.00   13.9
2173 292650.000   1159577.4112  -4706157.4479   4132205.1280   1   9   0.0050   0.0098   0.0073  -0.0056  -0.0067   0.0035   0.00   12.8
2173 292651.000   1159577.4099  -4706157.4416   4132205.1263   1   9   0.0050   0.0098   0.0073  -0.0056  -0.0067   0.0035   0.00   15.1
2173 292652.000   1159577.4124  -4706157.4477   4132205.1290   1   9   0.0050   0.0098   0.0073  -0.0056  -0.0067   0.0035   0.00   18.0
2173 292653.000   1159577.4117  -4706157.4455   4132205.1283   1   9   0.0050   0.0098   0.0073  -0.0056  -0.0067   0.0035   0.00   10.9
2173 292654.000   1159577.4140  -4706157.4487   4132205.1275   1   9   0.0050   0.0098   0.0073  -0.0056  -0.0067   0.0035   0.00   12.4
2173 292655.000   1159577.4124  -4706157.4482   4132205.1259   1   9   0.0050   0.0098   0.0073  -0.0056  -0.0067   0.0035   0.00   12.1
2173 292656.000   1159577.4125  -4706157.4452   4132205.1251   1   9   0.0050   0.0098   0.0073  -0.0056  -0.0067   0.0035   0.00   11.9
2173 292657.000   1159577.4118  -4706157.4434   4132205.1236   1   9   0.0050   0.0098   0.0073  -0.0056  -0.0067   0.0035   0.00   13.7
2173 292658.000   1159577.4147  -4706157.4512   4132205.1272   1   9   0.0050   0.0098   0.0073  -0.0056  -0.0067   0.0035   0.00   11.9
2173 292659.000   1159577.4155  -4706157.4549   4132205.1290   1   9   0.0050   0.0098   0.0073  -0.0056  -0.0067   0.0035   0.00    9.3
2173 292660.000   1159577.4141  -4706157.4488   4132205.1283   1   9   0.0050   0.0098   0.0073  -0.0056  -0.0067   0.0035   0.00   10.0
2173 292661.000   1159577.4170  -4706157.4553   4132205.1308   1   9   0.0050   0.0098   0.0073  -0.0056  -0.0067   0.0035   0.00   13.1
2173 292662.000   1159577.4122  -4706157.4515   4132205.1294   1   9   0.0050   0.0098   0.0073  -0.0056  -0.0067   0.0035   0.00    8.7
2173 292663.000   1159577.4129  -4706157.4512   4132205.1273   1   9   0.0050   0.0098   0.0073  -0.0056  -0.0067   0.0035   0.00   11.2
2173 292664.000   1159577.4137  -4706157.4524   4132205.1289   1   9   0.0050   0.0098   0.0073  -0.0056  -0.0067   0.0035   0.00   10.7
2173 292665.000   1159577.4137  -4706157.4536   4132205.1312   1   9   0.0050   0.0098   0.0073  -0.0056  -0.0067   0.0035   0.00   15.7
2173 292666.000   1159577.4139  -4706157.4551   4132205.1289   1   9   0.0050   0.0098   0.0073  -0.0056  -0.0067   0.0035   0.00   11.3
2173 292667.000   1159577.4143  -4706157.4513   4132205.1291   1   9   0.0050   0.0098   0.0073  -0.0056  -0.0067   0.0035   0.00   14.0
2173 292668.000   1159577.4125  -4706157.4506   4132205.1292   1   9   0.0050   0.0098   0.0073  -0.0056  -0.0067   0.0035   0.00    9.2
2173 292669.000   1159577.4121  -4706157.4522   4132205.1274   1   9   0.0050   0.0098   0.0073  -0.0056  -0.0067   0.0035   0.00   10.5
2173 292670.000   1159577.4136  -4706157.4550   4132205.1287   1   9   0.0050   0.0098   0.0073  -0.0056  -0.0067   0.0035   0.00   10.0
2173 292671.000   1159577.4156  -4706157.4568   4132205.1305   1   9   0.0050   0.0098   0.0073  -0.0056  -0.0067   0.0035   0.00   13.0
2173 292672.000   1159577.4153  -4706157.4595   4132205.1327   1   9   0.0050   0.0098   0.0073  -0.0056  -0.0067   0.0035   0.00    9.6
2173 292673.000   1159577.4121  -4706157.4535   4132205.1295   1   9   0.0050   0.0098   0.0073  -0.0056  -0.0067   0.0035   0.00   11.0
2173 292674.000   1159577.4125  -4706157.4562   4132205.1296   1   9   0.0050   0.0098   0.0072  -0.0056  -0.0067   0.0035   0.00    9.0
2173 292675.000   1159577.4119  -4706157.4560   4132205.1301   1   9   0.0050   0.0098   0.0072  -0.0056  -0.0067   0.0035   0.00   10.7
2173 292676.000   1159577.4128  -4706157.4533   4132205.1277   1   9   0.0050   0.0099   0.0072  -0.0056  -0.0067   0.0035   0.00    8.3
2173 292677.000   1159577.4134  -4706157.4535   4132205.1298   1   9   0.0050   0.0099   0.0072  -0.0056  -0.0067   0.0035   0.00    8.1
2173 292678.000   1159577.4102  -4706157.4496   4132205.1252   1   9   0.0050   0.0099   0.0072  -0.0056  -0.0067   0.0035   0.00    8.6
2173 292679.000   1159577.4127  -4706157.4534   4132205.1264   1   9   0.0050   0.0099   0.0072  -0.0056  -0.0067   0.0035   0.00    8.4
2173 292680.000   1159577.4148  -4706157.4562   4132205.1264   1   9   0.0050   0.0099   0.0072  -0.0056  -0.0067   0.0035   0.00    9.5
2173 292681.000   1159577.4133  -4706157.4582   4132205.1309   1   9   0.0050   0.0099   0.0072  -0.0056  -0.0067   0.0035   0.00   10.3
2173 292682.000   1159577.4149  -4706157.4576   4132205.1296   1   9   0.0050   0.0099   0.0072  -0.0056  -0.0067   0.0035   0.00   13.4
2173 292683.000   1159577.4132  -4706157.4543   4132205.1264   1   9   0.0050   0.0099   0.0072  -0.0056  -0.0067   0.0035   0.00   12.7
2173 292684.000   1159577.4145  -4706157.4584   4132205.1287   1   9   0.0050   0.0099   0.0072  -0.0056  -0.0067   0.0035   0.00   11.9
2173 292685.000   1159577.4177  -4706157.4626   4132205.1298   1   9   0.0050   0.0099   0.0072  -0.0056  -0.0067   0.0035   0.00   11.1
2173 292686.000   1159577.4129  -4706157.4590   4132205.1275   1   9   0.0050   0.0099   0.0072  -0.0056  -0.0067   0.0035   0.00   11.6
2173 292687.000   1159577.4127  -4706157.4534   4132205.1246   1   9   0.0050   0.0099   0.0072  -0.0056  -0.0067   0.0035   0.00   12.3
2173 292688.000   1159577.4139  -4706157.4581   4132205.1280   1   9   0.0050   0.0099   0.0072  -0.0056  -0.0067   0.0035   0.00   12.6
2173 292689.000   1159577.4163  -4706157.4590   4132205.1284   1   9   0.0050   0.0099   0.0072  -0.0056  -0.0067   0.0035   0.00   10.4
2173 292690.000   1159577.4142  -4706157.4605   4132205.1308   1   9   0.0050   0.0099   0.0072  -0.0056  -0.0067   0.0035   0.00   10.2
2173 292691.000   1159577.4144  -4706157.4571   4132205.1281   1   9   0.0050   0.0099   0.0072  -0.0056  -0.0067   0.0035   0.00   10.4
2173 292692.000   1159577.4132  -4706157.4567   4132205.1259   1   9   0.0050   0.0099   0.0072  -0.0056  -0.0067   0.0035   0.00    9.3
2173 292693.000   1159577.4146  -4706157.4540   4132205.1268   1   9   0.0050   0.0099   0.0072  -0.0056  -0.0067   0.0035   0.00    9.1
2173 292694.000   1159577.4127  -4706157.4521   4132205.1259   1   9   0.0050   0.0099   0.0072  -0.0056  -0.0067   0.0035   0.00   10.3
2173 292695.000   1159577.4113  -4706157.4541   4132205.1291   1   9   0.0050   0.0099   0.0072  -0.0056  -0.0067   0.0035   0.00    9.5
2173 292696.000   1159577.4134  -4706157.4521   4132205.1234   1   9   0.0050   0.0099   0.0072  -0.0056  -0.0067   0.0035   0.00   10.2
2173 292697.000   1159577.4133  -4706157.4550   4132205.1276   1   9   0.0050   0.0099   0.0072  -0.0056  -0.0067   0.0035   0.00   10.0
2173 292698.000   1159577.4113  -4706157.4524   4132205.1242   1   9   0.0050   0.0099   0.0072  -0.0056  -0.0067   0.0035   0.00    8.8
2173 292699.000   1159577.4105  -4706157.4470   4132205.1200   1   9   0.0050   0.0099   0.0072  -0.0056  -0.0067   0.0035   0.00    8.7
2173 292700.000   1159577.4120  -4706157.4520   4132205.1227   1   9   0.0050   0.0099   0.0072  -0.0056  -0.0067   0.0035   0.00    8.5
2173 292701.000   1159577.4099  -4706157.4504   4132205.1215   1   9   0.0050   0.0099   0.0072  -0.0056  -0.0067   0.0035   0.00    8.4
2173 292702.000   1159577.4134  -4706157.4538   4132205.1222   1   9   0.0051   0.0099   0.0072  -0.0056  -0.0067   0.0035   0.00    8.2
2173 292703.000   1159577.4136  -4706157.4518   4132205.1217   1   9   0.0051   0.0099   0.0072  -0.0056  -0.0067   0.0035   0.00   10.5
2173 292704.000   1159577.4104  -4706157.4478   4132205.1189   1   9   0.0051   0.0099   0.0072  -0.0056  -0.0067   0.0035   0.00    7.2
2173 292705.000   1159577.4131  -4706157.4497   4132205.1187   1   9   0.0051   0.0099   0.0072  -0.0056  -0.0067   0.0035   0.00    7.2
2173 292706.000   1159577.4113  -4706157.4524   4132205.1235   1   9   0.0051   0.0099   0.0072  -0.0056  -0.0067   0.0035   0.00   10.1
2173 292707.000   1159577.4118  -4706157.4522   4132205.1223   1   9   0.0051   0.0099   0.0072  -0.0056  -0.0067   0.0035   0.00    9.2
2173 292708.000   1159577.4107  -4706157.4531   4132205.1242   1   9   0.0051   0.0099   0.0072  -0.0056  -0.0067   0.0035   0.00    9.5
2173 292709.000   1159577.4115  -4706157.4518   4132205.1238   1   9   0.0051   0.0099   0.0072  -0.0056  -0.0067   0.0035   0.00    8.1
2173 292710.000   1159577.4112  -4706157.4526   4132205.1249   1   9   0.0051   0.0099   0.0072  -0.0056  -0.0067   0.0035   0.00    8.9
2173 292711.000   1159577.4115  -4706157.4539   4132205.1240   1   9   0.0051   0.0099   0.0072  -0.0056  -0.0067   0.0035   0.00    9.2
2173 292712.000   1159577.4141  -4706157.4579   4132205.1260   1   9   0.0051   0.0099   0.0072  -0.0056  -0.0067   0.0035   0.00    6.8
2173 292713.000   1159577.4121  -4706157.4582   4132205.1279   1   9   0.0051   0.0099   0.0072  -0.0056  -0.0067   0.0035   0.00   10.3
2173 292714.000   1159577.4144  -4706157.4589   4132205.1279   1   9   0.0051   0.0099   0.0072  -0.0056  -0.0067   0.0035   0.00    8.5
2173 292715.000   1159577.4133  -4706157.4593   4132205.1253   1   9   0.0051   0.0099   0.0072  -0.0056  -0.0067   0.0035   0.00    7.2
2173 292716.000   1159577.4136  -4706157.4595   4132205.1284   1   9   0.0051   0.0099   0.0072  -0.0056  -0.0067   0.0035   0.00   10.1
2173 292717.000   1159577.4123  -4706157.4554   4132205.1219   1   9   0.0051   0.0099   0.0072  -0.0056  -0.0067   0.0035   0.00    6.8
2173 292718.000   1159577.4137  -4706157.4606   4132205.1280   1   9   0.0051   0.0099   0.0072  -0.0056  -0.0067   0.0035   0.00    7.8
2173 292719.000   1159577.4120  -4706157.4579   4132205.1272   1   9   0.0051   0.0099   0.0072  -0.0056  -0.0067   0.0035   0.00    8.5
2173 292720.000   1159577.4119  -4706157.4566   4132205.1250   1   9   0.0051   0.0099   0.0072  -0.0056  -0.0067   0.0035   0.00    6.7
2173 292721.000   1159577.4131  -4706157.4572   4132205.1242   1   9   0.0051   0.0099   0.0072  -0.0056  -0.0067   0.0035   0.00    5.7
2173 292722.000   1159577.4135  -4706157.4555   4132205.1231   1   9   0.0051   0.0099   0.0072  -0.0056  -0.0067   0.0035   0.00    6.0
2173 292723.000   1159577.4122  -4706157.4536   4132205.1242   1   9   0.0051   0.0099   0.0072  -0.0056  -0.0067   0.0035   0.00    5.7
2173 292724.000   1159577.4134  -4706157.4573   4132205.1244   1   9   0.0051   0.0099   0.0072  -0.0056  -0.0067   0.0035   0.00    7.1
2173 292725.000   1159577.4113  -4706157.4562   4132205.1277   1   9   0.0051   0.0099   0.0072  -0.0056  -0.0067   0.0035   0.00    7.2
2173 292726.000   1159577.4104  -4706157.4523   4132205.1259   1   9   0.0051   0.0099   0.0072  -0.0057  -0.0067   0.0035   0.00    7.7
2173 292727.000   1159577.4107  -4706157.4557   4132205.1261   1   9   0.0051   0.0099   0.0072  -0.0057  -0.0067   0.0035   0.00    5.4
2173 292728.000   1159577.4114  -4706157.4563   4132205.1263   1   9   0.0051   0.0099   0.0072  -0.0057  -0.0067   0.0035   0.00    6.0
2173 292729.000   1159577.4133  -4706157.4530   4132205.1226   1   9   0.0051   0.0099   0.0072  -0.0057  -0.0067   0.0035   0.00    7.8
2173 292730.000   1159577.4112  -4706157.4536   4132205.1238   1   9   0.0051   0.0099   0.0072  -0.0057  -0.0067   0.0035   0.00    5.9
2173 292731.000   1159577.4128  -4706157.4529   4132205.1245   1   9   0.0051   0.0099   0.0072  -0.0057  -0.0067   0.0035   0.00    6.1
2173 292732.000   1159577.4116  -4706157.4536   4132205.1228   1   9   0.0051   0.0099   0.0072  -0.0057  -0.0067   0.0035   0.00    6.1
2173 292733.000   1159577.4100  -4706157.4496   4132205.1220   1   9   0.0051   0.0099   0.0072  -0.0057  -0.0067   0.0035   0.00    6.3
2173 292734.000   1159577.4142  -4706157.4566   4132205.1267   1   9   0.0051   0.0099   0.0072  -0.0057  -0.0067   0.0035   0.00    5.7
2173 292735.000   1159577.4132  -4706157.4542   4132205.1254   1   9   0.0051   0.0099   0.0072  -0.0057  -0.0067   0.0035   0.00    6.6
2173 292736.000   1159577.4105  -4706157.4511   4132205.1236   1   9   0.0051   0.0099   0.0072  -0.0057  -0.0067   0.0035   0.00    6.5
2173 292737.000   1159577.4123  -4706157.4515   4132205.1250   1   9   0.0051   0.0099   0.0072  -0.0057  -0.0067   0.0035   0.00    5.5
2173 292738.000   1159577.4119  -4706157.4529   4132205.1221   1   9   0.0051   0.0099   0.0072  -0.0057  -0.0067   0.0035   0.00    7.5
2173 292739.000   1159577.4113  -4706157.4545   4132205.1229   1   9   0.0051   0.0099   0.0072  -0.0057  -0.0067   0.0035   0.00    6.3
2173 292740.000   1159577.4105  -4706157.4509   4132205.1229   1   9   0.0051   0.0099   0.0072  -0.0057  -0.0067   0.0035   0.00    7.9
2173 292741.000   1159577.4128  -4706157.4564   4132205.1268   1   9   0.0051   0.0099   0.0072  -0.0057  -0.0067   0.0035   0.00    6.3
2173 292742.000   1159577.4124  -4706157.4560   4132205.1264   1   9   0.0051   0.0099   0.0072  -0.0057  -0.0067   0.0035   0.00    7.6
2173 292743.000   1159577.4115  -4706157.4520   4132205.1293   1   9   0.0051   0.0099   0.0072  -0.0057  -0.0067   0.0035   0.00    8.1
2173 292744.000   1159577.4132  -4706157.4545   4132205.1287   1   9   0.0051   0.0099   0.0072  -0.0057  -0.0067   0.0035   0.00   10.0
2173 292745.000   1159577.4131  -4706157.4542   4132205.1271   1   9   0.0051   0.0099   0.0072  -0.0057  -0.0067   0.0035   0.00    8.9
2173 292746.000   1159577.4149  -4706157.4540   4132205.1266   1   9   0.0051   0.0099   0.0072  -0.0057  -0.0067   0.0035   0.00    7.7
2173 292747.000   1159577.4141  -4706157.4553   4132205.1262   1   9   0.0051   0.0099   0.0072  -0.0057  -0.0067   0.0035   0.00    8.9
