     2.11           OBSERVATION DATA    M (MIXED)           RINEX VERSION / TYPE
CONVBIN 2.4.3                           20210831 165258 UTC PGM / RUN BY / DATE 
log: logs/21_08_31_07_48_00_txan_SNTX.rtcm                  COMMENT             
format: RTCM 3, station ID: 3933                            COMMENT             
3933                                                        MARKER NAME         
                                                            MARKER NUMBER       
                                                            OBSERVER / AGENCY   
495901              LEICA GRX1200+GNSS  9.20                REC # / TYPE / VERS 
                    GPPNULLANTENNA                          ANT # / TYPE        
  -828613.5211 -5494104.9796  3121406.3469                  APPROX POSITION XYZ 
        0.0000        0.0000        0.0000                  ANTENNA: DELTA H/E/N
     1     1                                                WAVELENGTH FACT L1/2
     7    C1    L1    C2    L2    P2    C5    L5            # / TYPES OF OBSERV 
  2021     8    31     7    48    7.0000000     GPS         TIME OF FIRST OBS   
  2021     8    31     8    18    4.0000000     GPS         TIME OF LAST OBS    
                                                            END OF HEADER       
 21  8 31  7 48  7.0000000  0 17G 1G 7G 8G 9G13G14G17G21G30R 2R 3R12
                                R21R22E 4E31E33
  22641508.994   118981932.399    22641508.155    92713189.397    22641507.851  
  22641506.832    88850135.5461 
  20312836.952   106744678.897    20312831.984    83177649.038    20312831.538  
                                
  22901323.016   120347265.239    22901321.283    93777075.510    22901319.728  
  22901319.942    89869698.334  
  23016318.827   120951571.646    23016316.236    94247965.186    23016315.825  
  23016316.576    90320969.549  
  24244919.405   127407910.978                    99278874.986    24244915.241  
                                
  21982926.533   115521058.427    21982921.440    90016385.432    21982920.868  
  21982925.264    86265720.015  
  22095520.783   116112744.746    22095516.245    90477442.215    22095515.619  
                                
  22611808.194   118825853.894                    92591552.313    22611802.869  
                                
  21113497.069   110952175.822    21113495.157    86456230.638    21113494.550  
  21113494.478    82853886.731  
  21852551.836   116609404.029                    90696209.099    21852553.337  
                                
  23076415.925   123529861.108                    96078770.553    23076413.495  
                                
  20539119.823   109716291.308                    85334897.548    20539120.806  
                                
  21637169.641   115784864.756                    90054900.295    21637170.749  
                                
  19848706.771   105953744.246                    82408463.447    19848705.645  
                                
  25650373.723   134793623.526                                                  
  25650373.687   100657575.764  
  24571363.868   129123389.522                                                  
  24571365.494    96423315.663  
  25389745.178   133424011.635                                                  
  25389744.731    99634812.071  
 21  8 31  7 48  8.0000000  0 17G 1G 7G 8G 9G13G14G17G21G30R 2R 3R12
                                R21R22E 4E31E33
  22641040.486   118979470.429    22641039.682    92711270.978    22641039.361  
  22641038.342    88848297.0721 
  20312808.058   106744527.036    20312803.090    83177530.703    20312802.626  
                                
  22901931.331   120350462.001    22901929.651    93779566.482    22901928.079  
  22901928.240    89872085.531  
  23016953.928   120954909.012    23016951.337    94250565.733    23016950.890  
  23016951.659    90323461.740  
  24244380.832   127405080.685                    99276669.565    24244376.597  
                                
  21982675.008   115519736.811    21982669.952    90015355.596    21982669.380  
  21982673.775    86264733.086  
  22094990.055   116109955.850    22094985.552    90475269.055    22094984.909  
                                
  22611750.692   118825551.749                    92591316.870    22611745.367  
                                
  21113134.525   110950270.520    21113132.577    86454745.985    21113131.987  
  21113131.880    82852463.936  
  21852968.595   116611627.876                    90697938.763    21852970.096  
                                
  23076264.378   123529049.849                    96078139.574    23076261.948  
                                
  20538934.718   109715302.467                    85334128.450    20538935.683  
                                
  21637637.023   115787365.830                    90056845.573    21637638.149  
                                
  19848478.548   105952526.047                    82407515.956    19848477.422  
                                
  25650829.722   134796019.740                                                  
  25650829.687   100659365.150  
  24571256.529   129122825.419                                                  
  24571258.172    96422894.421  
  25389327.025   133421814.238                                                  
  25389326.542    99633171.155  
 21  8 31  7 48  9.0000000  0 17G 1G 7G 8G 9G13G14G17G21G30R 2R 3R12
                                R21R22E 4E31E33
  22640572.032   118977008.667    22640571.210    92709352.720    22640570.871  
  22640569.852    88846458.7291 
  20312779.217   106744375.469    20312774.232    83177412.599    20312773.803  
                                
  22902539.646   120353658.830    22902537.966    93782057.515    22902536.448  
  22902536.555    89874472.778  
  23017589.029   120958246.372    23017586.402    94253166.273    23017585.955  
  23017586.724    90325953.933  
  24243842.331   127402250.639                    99274464.321    24243838.043  
                                
  21982423.502   115518415.211    21982418.463    90014325.776    21982417.891  
  21982422.287    86263746.171  
  22094459.399   116107167.202    22094454.878    90473096.081    22094454.253  
                                
  22611693.279   118825249.999                    92591081.743    22611687.936  
                                
  21112771.962   110948365.353    21112770.050    86453261.439    21112769.443  
  21112769.336    82851041.235  
  21853385.408   116613852.111                    90699668.721    21853386.927  
                                
  23076112.938   123528239.212                    96077509.078    23076110.526  
                                
  20538749.577   109714313.585                    85333359.319    20538750.560  
                                
  21638104.530   115789867.481                    90058791.301    21638105.674  
                                
  19848250.450   105951308.635                    82406569.078    19848249.377  
                                
  25651285.722   134798416.008                                                  
  25651285.686   100661154.568  
  24571149.154   129122261.198                                                  
  24571150.798    96422473.085  
  25388908.925   133419616.949                                                  
  25388908.407    99631530.332  
 21  8 31  7 48 10.0000000  0 17G 1G 7G 8G 9G13G14G17G21G30R 2R 3R12
                                R21R22E 4E31E33
  22640103.631   118974547.029    22640102.792    92707434.561    22640102.434  
  22640101.398    88844620.4921 
  20312750.412   106744224.180    20312745.463    83177294.712    20312744.998  
                                
  22903147.979   120356855.718    22903146.335    93784548.597    22903144.816  
  22903144.870    89876860.062  
  23018224.094   120961583.705    23018221.467    94255766.797    23018221.038  
  23018221.771    90328446.104  
  24243303.831   127399420.756                    99272259.218    24243299.578  
                                
  21982171.995   115517093.574    21982166.956    90013295.931    21982166.420  
  21982170.798    86262759.245  
  22093928.778   116104378.734    22093924.240    90470923.251    22093923.632  
                                
  22611635.937   118824948.585                    92590846.870    22611630.594  
                                
  21112409.436   110946460.276    21112407.524    86451776.966    21112406.934  
  21112406.809    82849618.615  
  21853802.293   116616076.683                    90701398.943    21853803.829  
                                
  23075961.605   123527429.146                    96076879.027    23075959.193  
                                
  20538564.436   109713324.625                    85332590.130    20538565.419  
                                
  21638572.145   115792369.670                    90060737.450    21638573.252  
                                
  19848022.530   105950091.867                    82405622.700    19848021.422  
                                
  25651741.722   134800812.252                                                  
  25651741.704   100662943.975  
  24571041.743   129121696.795                                                  
  24571043.405    96422051.622  
  25388490.808   133417419.746                                                  
  25388490.254    99629889.565  
 21  8 31  7 48 11.0000000  0 17G 1G 7G 8G 9G13G14G17G21G30R 2R 3R12
                                R21R22E 4E31E33
  22639635.213   118972085.581    22639634.409    92705516.549    22639634.051  
  22639632.979    88842782.4051 
  20312721.679   106744073.206    20312716.711    83177177.074    20312716.265  
                                
  22903756.312   120360052.705    22903754.722    93787039.760    22903753.203  
  22903753.221    89879247.432  
  23018859.195   120964921.077    23018856.550    94258367.349    23018856.103  
  23018856.836    90330938.295  
  24242765.383   127396591.150                    99270054.339    24242761.041  
                                
  21981920.489   115515771.980    21981915.468    90012266.120    21981914.932  
  21981919.310    86261772.339  
  22093398.211   116101590.550    22093393.690    90468750.640    22093393.065  
                                
  22611578.667   118824647.589                    92590612.333    22611573.306  
                                
  21112046.945   110944555.365    21112045.033    86450292.622    21112044.443  
  21112044.300    82848196.123  
  21854219.248   116618301.683                    90703129.502    21854220.803  
                                
  23075810.398   123526619.722                    96076249.475    23075808.021  
                                
  20538379.277   109712335.641                    85331820.923    20538380.278  
                                
  21639039.866   115794872.480                    90062684.081    21639040.992  
                                
  19847794.754   105948875.900                    82404676.953    19847793.628  
                                
  25652197.739   134803208.579                                                  
  25652197.739   100664733.436  
  24570934.314   129121132.295                                                  
  24570935.976    96421630.082  
  25388072.744   133415222.686                                                  
  25388072.155    99628248.906  
 21  8 31  7 48 12.0000000  0 17G 1G 7G 8G 9G13G14G17G21G30R 2R 3R12
                                R21R22E 4E31E33
  22639166.866   118969624.465    22639166.062    92703598.792    22639165.704  
  22639164.650    88840944.5611 
  20312693.035   106743922.704    20312688.085    83177059.795    20312687.621  
                                
  22904364.717   120363249.948    22904363.126    93789531.116    22904361.625  
  22904361.607    89881634.975  
  23019494.313   120968258.607    23019491.651    94260968.024    23019491.186  
  23019491.955    90333430.604  
  24242227.007   127393761.928                    99267849.748    24242222.647  
                                
  21981669.018   115514450.551    21981664.015    90011236.437    21981663.479  
  21981667.857    86260785.562  
  22092867.716   116098802.748    22092863.195    90466578.329    22092862.552  
                                
  22611521.486   118824347.134                    92590378.205    22611516.107  
                                
  21111684.507   110942650.740    21111682.595    86448808.499    21111682.006  
  21111681.863    82846773.841  
  21854636.293   116620527.244                    90704860.489    21854637.884  
                                
  23075659.351   123525811.082                    96075620.530    23075656.974  
                                
  20538194.154   109711346.729                    85331051.771    20538195.137  
                                
  21639507.713   115797375.981                    90064631.250    21639508.839  
                                
  19847567.120   105947660.828                    82403731.901    19847565.995  
                                
  25652653.774   134805605.104                                                  
  25652653.792   100666523.047  
  24570826.904   129120567.821                                                  
  24570828.565    96421208.555  
  25387654.716   133413025.890                                                  
  25387654.091    99626608.435  
 21  8 31  7 48 13.0000000  0 17G 1G 7G 8G 9G13G14G17G21G30R 2R 3R12
                                R21R22E 4E31E33
  22638698.662   118967163.922    22638697.858    92701681.485    22638697.500  
  22638696.410    88839107.1421 
  20312664.516   106743772.874    20312659.566    83176943.044    20312659.120  
                                
  22904973.210   120366447.626    22904971.620    93792022.804    22904970.119  
  22904970.066    89884022.851  
  23020129.521   120971596.542    23020126.841    94263569.015    23020126.394  
  23020127.127    90335923.211  
  24241688.721   127390933.305                    99265645.632    24241684.361  
                                
  21981417.619   115513129.536    21981412.651    90010207.073    21981412.097  
  21981416.493    86259799.087  
  22092337.345   116096015.553    22092332.807    90464406.486    22092332.163  
                                
  22611464.484   118824047.456                    92590144.688    22611459.069  
                                
  21111322.177   110940746.641    21111320.247    86447324.785    21111319.675  
  21111319.497    82845351.946  
  21855053.517   116622753.583                    90706592.083    21855055.090  
                                
  23075508.465   123525003.437                    96074992.360    23075506.106  
                                
  20538009.085   109710358.154                    85330282.875    20538010.086  
                                
  21639975.774   115799880.447                    90066579.170    21639976.864  
                                
  19847339.755   105946446.909                    82402787.737    19847338.611  
                                
  25653109.917   134808002.038                                                  
  25653109.935   100668312.967  
  24570719.547   129120003.606                                                  
  24570721.190    96420787.221  
  25387236.796   133410829.594                                                  
  25387236.135    99624968.348  
 21  8 31  7 48 14.0000000  0 17G 1G 7G 8G 9G13G14G17G21G30R 2R 3R12
                                R21R22E 4E31E33
  22638230.511   118964703.833    22638229.725    92699764.540    22638229.385  
  22638228.260    88837270.0731 
  20312636.122   106743623.637    20312631.154    83176826.758    20312630.726  
                                
  22905581.776   120369645.667    22905580.185    93794514.784    22905578.702  
  22905578.613    89886411.002  
  23020764.783   120974934.756    23020762.103    94266170.216    23020761.602  
  23020762.353    90338416.034  
  24241150.560   127388105.171                    99263441.878    24241146.182  
                                
  21981166.291   115511808.805    21981161.324    90009177.934    21981160.787  
  21981165.183    86258812.825  
  22091807.046   116093228.883    22091802.508    90462235.055    22091801.864  
                                
  22611407.607   118823748.448                    92589911.692    22611402.174  
                                
  21110959.918   110938842.968    21110958.006    86445841.401    21110957.417  
  21110957.238    82843930.367  
  21855470.848   116624980.610                    90708324.213    21855472.439  
                                
  23075357.722   123524196.698                    96074364.896    23075355.417  
                                
  20537824.033   109709369.836                    85329514.187    20537825.070  
                                
  21640443.978   115802385.794                    90068527.779    21640445.068  
                                
  19847112.514   105945234.001                    82401844.367    19847111.389  
                                
  25653566.095   134810399.295                                                  
  25653566.113   100670103.133  
  24570612.189   129119439.532                                                  
  24570613.869    96420366.003  
  25386818.929   133408633.696                                                  
  25386818.250    99623328.552  
 21  8 31  7 48 15.0000000  0 17G 1G 7G 8G 9G13G14G17G21G30R 2R 3R12
                                R21R22E 4E31E33
  22637762.486   118962244.213    22637761.682    92697847.960    22637761.324  
  22637760.198    88835433.3441 
  20312607.853   106743474.989    20312602.886    83176710.926    20312602.421  
                                
  22906190.395   120372844.057    22906188.858    93797007.038    22906187.357  
  22906187.214    89888799.420  
  23021400.063   120978273.263    23021397.400    94268771.645    23021396.882  
  23021397.650    90340909.081  
  24240612.488   127385277.581                    99261238.557    24240608.145  
                                
  21980914.999   115510488.380    21980910.067    90008149.029    21980909.513  
  21980913.909    86257826.799  
  22091276.872   116090442.751    22091272.334    90460064.043    22091271.690  
                                
  22611350.855   118823450.105                    92589679.217    22611345.387  
                                
  21110597.731   110936939.705    21110595.837    86444358.337    21110595.247  
  21110595.051    82842509.106  
  21855888.304   116627208.310                    90710056.866    21855889.930  
                                
  23075207.175   123523390.870                    96073738.139    23075204.906  
                                
  20537639.089   109708381.759                    85328745.681    20537640.090  
                                
  21640912.325   115804892.011                    90070477.058    21640913.451  
                                
  19846885.471   105944022.139                    82400901.807    19846884.381  
                                
  25654022.345   134812796.892                                                  
  25654022.399   100671893.546  
  24570504.886   129118875.625                                                  
  24570506.566    96419944.904  
  25386401.151   133406438.206                                                  
  25386400.436    99621689.065  
 21  8 31  7 48 16.0000000  0 17G 1G 7G 8G 9G13G14G17G21G30R 2R 3R12
                                R21R22E 4E31E33
  22637294.496   118959784.972    22637293.710    92695931.671    22637293.334  
  22637292.209    88833596.8961 
  20312579.638   106743326.850    20312574.706    83176595.493    20312574.224  
                                
  22906799.103   120376042.750    22906797.531    93799499.533    22906796.083  
  22906795.869    89891188.041  
  23022035.431   120981611.991    23022032.733    94271373.244    23022032.215  
  23022032.983    90343402.274  
  24240074.505   127382450.433                    99259035.585    24240070.109  
                                
  21980663.761   115509168.175    21980658.847    90007120.300    21980658.311  
  21980662.706    86256840.932  
  22090746.752   116087657.055    22090742.231    90457893.369    22090741.588  
                                
  22611294.210   118823152.373                    92589447.218    22611288.742  
                                
  21110235.615   110935036.803    21110233.721    86442875.556    21110233.114  
  21110232.917    82841088.100  
  21856305.886   116629436.624                    90711789.997    21856307.512  
                                
  23075056.789   123522585.847                    96073112.010    23075054.538  
                                
  20537454.127   109707393.849                    85327977.306    20537455.145  
                                
  21641380.815   115807398.972                    90072426.917    21641381.941  
                                
  19846658.588   105942811.266                    82399960.018    19846657.569  
                                
  25654478.666   134815194.741                                                  
  25654478.702   100673684.139  
  24570397.600   129118311.800                                                  
  24570399.280    96419523.864  
  25385983.427   133404243.045                                                  
  25385982.712    99620049.821  
 21  8 31  7 48 17.0000000  0 17G 1G 7G 8G 9G13G14G17G21G30R 2R 3R12
                                R21R22E 4E31E33
  22636826.578   118957325.990    22636825.791    92694015.580    22636825.398  
  22636824.273    88831759.6391 
  20312551.530   106743179.077    20312546.580    83176480.345    20312546.116  
                                
  22907407.811   120379241.562    22907406.275    93801992.110    22907404.809  
  22907404.541    89893576.762  
  23022670.782   120984950.797    23022668.102    94273974.907    23022667.548  
  23022668.316    90345895.525  
  24239536.576   127379623.568                    99256832.850    24239532.162  
                                
  21980412.540   115507848.063    21980407.644    90006091.637    21980407.090  
  21980411.504    86255855.126  
  22090216.703   116084871.647    22090212.218    90455722.924    22090211.539  
                                
  22611237.672   118822855.087                    92589215.567    22611232.186  
                                
  21109873.553   110933134.101    21109871.659    86441392.933    21109871.052  
  21109870.837    82839667.251  
  21856723.556   116631665.400                    90713523.490    21856725.182  
                                
  23074906.493   123521781.520                    96072486.422    23074904.313  
                                
  20537269.182   109706405.960                    85327208.944    20537270.219  
                                
  21641849.448   115809906.528                    90074377.238    21641850.574  
                                
  19846431.919   105941601.172                    82399018.831    19846430.883  
                                
  25654934.970   134817592.687                                                  
  25654935.023   100675474.811  
  24570290.279   129117747.910                                                  
  24570291.977    96419102.773  
  25385565.756   133402048.066                                                  
  25385565.006    99618410.702  
 21  8 31  7 48 18.0000000  0 17G 1G 7G 8G 9G13G14G17G21G30R 2R 3R12
                                R21R22E 4E31E33
  22636358.659   118954867.224    22636357.909    92692099.659    22636357.516  
  22636356.372    88829923.5481 
  20312523.476   106743031.644    20312518.526    83176365.460    20312518.061  
                                
  22908016.555   120382440.478    22908015.001    93804484.767    22908013.535  
  22908013.249    89895965.567  
  23023306.151   120988289.648    23023303.471    94276576.598    23023302.917  
  23023303.685    90348388.825  
  24238998.700   127376796.949                    99254630.304    24238994.305  
                                
  21980161.301   115506528.001    21980156.423    90005063.015    21980155.905  
  21980160.319    86254869.367  
  22089686.708   116082086.524    22089682.241    90453552.698    22089681.544  
                                
  22611181.170   118822558.236                    92588984.251    22611175.720  
                                
  21109511.527   110931231.578    21109509.597    86439910.445    21109509.025  
  21109508.793    82838246.533  
  21857141.316   116633894.662                    90715257.358    21857142.942  
                                
  23074756.375   123520977.866                    96071861.355    23074754.213  
                                
  20537084.256   109705418.053                    85326440.569    20537085.274  
                                
  21642318.153   115812414.714                    90076328.049    21642319.296  
                                
  19846205.340   105940391.859                    82398078.249    19846204.321  
                                
  25655391.327   134819990.724                                                  
  25655391.380   100677265.540  
  24570182.958   129117183.927                                                  
  24570184.655    96418681.616  
  25385148.104   133399853.245                                                  
  25385147.335    99616771.709  
 21  8 31  7 48 19.0000000  0 17G 1G 7G 8G 9G13G14G17G21G30R 2R 3R12
                                R21R22E 4E31E33
  22635890.866   118952408.905    22635890.116    92690184.076    22635889.705  
  22635888.561    88828087.7721 
  20312495.511   106742884.796    20312490.597    83176251.031    20312490.114  
                                
  22908625.371   120385639.763    22908623.834    93806977.702    22908622.351  
  22908622.011    89898354.635  
  23023941.574   120991628.754    23023938.893    94279178.498    23023938.304  
  23023939.072    90350882.322  
  24238460.914   127373970.849                    99252428.150    24238456.501  
                                
  21979910.170   115505208.227    21979905.310    90004034.615    21979904.756  
  21979909.170    86253883.817  
  22089156.820   116079301.897    22089152.353    90451382.854    22089151.656  
                                
  22611124.829   118822262.029                    92588753.441    22611119.344  
                                
  21109149.554   110929329.474    21109147.642    86438428.282    21109147.052  
  21109146.820    82836826.122  
  21857559.183   116636124.567                    90716991.728    21857560.827  
                                
  23074606.437   123520175.093                    96071236.977    23074604.256  
                                
  20536899.347   109704430.340                    85325672.348    20536900.383  
                                
  21642787.072   115814923.793                    90078279.553    21642788.180  
                                
  19845978.993   105939183.586                    82397138.481    19845977.992  
                                
  25655847.719   134822389.061                                                  
  25655847.773   100679056.510  
  24570075.672   129116620.087                                                  
  24570077.370    96418260.570  
  25384730.540   133397658.809                                                  
  25384729.718    99615133.008  
 21  8 31  7 48 20.0000000  0 17G 1G 7G 8G 9G13G14G17G21G30R 2R 3R12
                                R21R22E 4E31E33
  22635423.180   118949951.193    22635422.394    92688268.980    22635422.037  
  22635420.875    88826252.4741 
  20312467.707   106742738.669    20312462.775    83176137.161    20312462.310  
                                
  22909234.293   120388839.530    22909232.721    93809471.025    22909231.238  
  22909230.880    89900744.080  
  23024577.068   120994968.312    23024574.387    94281780.749    23024573.798  
  23024574.584    90353376.154  
  24237923.235   127371145.386                    99250226.489    24237918.822  
                                
  21979659.075   115503888.896    21979654.250    90003006.567    21979653.714  
  21979658.110    86252898.612  
  22088627.039   116076517.933    22088622.572    90449213.529    22088621.893  
                                
  22611068.613   118821966.633                    92588523.262    22611063.128  
                                
  21108787.688   110927427.908    21108785.794    86436946.542    21108785.223  
  21108784.955    82835406.141  
  21857977.211   116638355.334                    90718726.767    21857978.891  
                                
  23074456.658   123519373.400                    96070613.435    23074454.514  
                                
  20536714.528   109703443.003                    85324904.417    20536715.564  
                                
  21643256.152   115817433.874                    90080231.836    21643257.259  
                                
  19845752.843   105937976.481                    82396199.620    19845751.860  
                                
  25656304.184   134824787.864                                                  
  25656304.255   100680847.830  
  24569968.422   129116056.544                                                  
  24569970.138    96417839.748  
  25384313.066   133395464.901                                                  
  25384312.226    99613494.716  
 21  8 31  7 48 21.0000000  0 17G 1G 7G 8G 9G13G14G17G21G30R 2R 3R12
                                R21R22E 4E31E33
  22634955.530   118947493.704    22634954.780    92686354.056    22634954.387  
  22634953.207    88824417.3471 
  20312439.974   106742592.903    20312435.060    83176023.582    20312434.577  
                                
  22909843.216   120392039.426    22909841.644    93811964.452    22909840.178  
  22909839.767    89903133.623  
  23025212.579   120998307.946    23025209.917    94284383.066    23025209.309  
  23025210.078    90355870.024  
  24237385.646   127368320.213                    99248025.049    24237381.232  
                                
  21979408.033   115502569.633    21979403.208    90001978.577    21979402.672  
  21979407.068    86251913.447  
  22088097.312   116073734.271    22088092.881    90447044.449    22088092.202  
                                
  22611012.523   118821671.695                    92588293.442    22611007.001  
                                
  21108425.894   110925526.561    21108423.965    86435464.976    21108423.411  
  21108423.125    82833986.304  
  21858395.328   116640586.586                    90720462.185    21858397.008  
                                
  23074307.005   123518572.349                    96069990.398    23074304.879  
                                
  20536529.691   109702455.680                    85324136.500    20536530.745  
                                
  21643725.356   115819944.558                    90082184.593    21643726.446  
                                
  19845526.889   105936770.196                    82395261.398    19845525.888  
                                
  25656760.683   134827186.775                                                  
  25656760.773   100682639.223  
  24569861.154   129115492.928                                                  
  24569862.888    96417418.868  
  25383895.628   133393271.181                                                  
  25383894.770    99611856.544  
 21  8 31  7 48 22.0000000  0 17G 1G 7G 8G 9G13G14G17G21G30R 2R 3R12
                                R21R22E 4E31E33
  22634487.934   118945036.505    22634487.183    92684439.356    22634486.808  
  22634485.611    88822582.4221 
  20312412.295   106742447.539    20312407.399    83175910.314    20312406.916  
                                
  22910452.192   120395239.503    22910450.602    93814458.024    22910449.155  
  22910448.690    89905523.292  
  23025848.109   121001647.651    23025845.447    94286985.433    23025844.821  
  23025845.607    90358363.968  
  24236848.092   127365495.369                    99245823.874    24236843.714  
                                
  21979157.009   115501250.469    21979152.202    90000950.657    21979151.666  
  21979156.062    86250928.366  
  22087567.656   116070950.935    22087563.207    90444875.620    22087562.528  
                                
  22610956.485   118821377.223                    92588063.986    22610950.964  
                                
  21108064.118   110923625.438    21108062.206    86433983.578    21108061.616  
  21108061.348    82832566.632  
  21858813.535   116642818.315                    90722197.977    21858815.232  
                                
  23074157.477   123517772.003                    96069367.909    23074155.405  
                                
  20536344.871   109701468.406                    85323368.617    20536345.926  
                                
  21644194.668   115822455.876                    90084137.840    21644195.776  
                                
  19845301.024   105935564.722                    82394323.810    19845300.095  
                                
  25657217.219   134829585.798                                                  
  25657217.326   100684430.706  
  24569753.905   129114929.285                                                  
  24569755.620    96416997.959  
  25383478.243   133391077.672                                                  
  25383477.350    99610218.534  
 21  8 31  7 48 23.0000000  0 17G 1G 7G 8G 9G13G14G17G21G30R 2R 3R12
                                R21R22E 4E31E33
  22634020.391   118942579.582    22634019.640    92682524.873    22634019.301  
  22634018.086    88820747.7071 
  20312384.705   106742302.601    20312379.809    83175797.372    20312379.326  
                                
  22911061.187   120398439.763    22911059.596    93816951.737    22911058.149  
  22911057.631    89907913.094  
  23026483.657   121004987.502    23026480.994    94289587.921    23026480.387  
  23026481.155    90360858.008  
  24236310.592   127362670.872                    99243622.976    24236306.250  
                                
  21978906.003   115499931.452    21978901.196    89999922.854    21978900.678  
  21978905.056    86249943.380  
  22087038.054   116068167.948    22087033.623    90442707.061    22087032.979  
                                
  22610900.537   118821083.264                    92587834.925    22610895.034  
                                
  21107702.396   110921724.578    21107700.484    86432502.392    21107699.912  
  21107699.626    82831147.157  
  21859231.849   116645050.574                    90723934.178    21859233.564  
                                
  23074008.110   123516972.420                    96068746.014    23074006.073  
                                
  20536160.052   109700481.233                    85322600.818    20536161.124  
                                
  21644664.105   115824967.902                    90086091.640    21644665.213  
                                
  19845075.374   105934360.154                    82393386.928    19845074.445  
                                
  25657673.773   134831984.995                                                  
  25657673.880   100686222.316  
  24569646.637   129114365.624                                                  
  24569648.370    96416577.046  
  25383060.894   133388884.400                                                  
  25383059.983    99608580.701  
 21  8 31  7 48 24.0000000  0 17G 1G 7G 8G 9G13G14G17G21G30R 2R 3R12
                                R21R22E 4E31E33
  22633552.937   118940123.135    22633552.204    92680610.763    22633551.847  
  22633550.632    88818913.3541 
  20312357.240   106742158.261    20312352.326    83175684.905    20312351.880  
                                
  22911670.252   120401640.389    22911668.662    93819445.732    22911667.232  
  22911666.661    89910303.174  
  23027119.258   121008327.652    23027116.595    94292190.641    23027116.006  
  23027116.756    90363352.267  
  24235773.199   127359846.873                    99241422.444    24235768.839  
                                
  21978655.032   115498612.732    21978650.261    89998895.279    21978649.743  
  21978654.121    86248958.614  
  22086508.559   116065385.504    22086504.128    90440538.925    22086503.502  
                                
  22610844.732   118820790.002                    92587606.411    22610839.247  
                                
  21107340.780   110919824.153    21107338.850    86431021.545    21107338.278  
  21107337.957    82829727.997  
  21859650.288   116647283.516                    90725670.908    21859652.039  
                                
  23073858.904   123516173.797                    96068124.862    23073856.902  
                                
  20535975.286   109699494.271                    85321833.184    20535976.394  
                                
  21645133.721   115827480.812                    90088046.133    21645134.829  
                                
  19844849.885   105933156.588                    82392450.823    19844848.974  
                                
  25658130.380   134834384.514                                                  
  25658130.505   100688014.160  
  24569539.405   129113802.119                                                  
  24569541.138    96416156.243  
  25382643.599   133386691.522                                                  
  25382642.670    99606943.160  
 21  8 31  7 48 25.0000000  0 17G 1G 7G 8G 9G13G14G17G21G30R 2R 3R12
                                R21R22E 4E31E33
  22633085.537   118937667.081    22633084.840    92678696.957    22633084.501  
  22633083.268    88817079.2921 
  20312329.883   106742014.429    20312324.951    83175572.828    20312324.504  
                                
  22912279.407   120404841.306    22912277.799    93821939.953    22912276.370  
  22912275.744    89912693.476  
  23027754.913   121011668.011    23027752.250    94294793.515    23027751.660  
  23027752.411    90365846.696  
  24235235.913   127357023.317                    99239222.268    24235231.482  
                                
  21978404.133   115497294.249    21978399.362    89997867.892    21978398.862  
  21978403.240    86247974.039  
  22085979.136   116062603.498    22085974.758    90438371.128    22085974.115  
                                
  22610789.035   118820497.317                    92587378.340    22610783.549  
                                
  21106979.200   110917924.060    21106977.271    86429540.955    21106976.681  
  21106976.359    82828309.103  
  21860068.870   116649517.077                    90727408.128    21860070.603  
                                
  23073709.840   123515375.965                    96067504.324    23073707.911  
                                
  20535790.556   109698507.474                    85321065.672    20535791.664  
                                
  21645603.480   115829994.493                    90090001.220    21645604.570  
                                
  19844624.557   105931953.969                    82391515.453    19844623.699  
                                
  25658587.058   134836784.297                                                  
  25658587.166   100689806.203  
  24569432.191   129113238.699                                                  
  24569433.942    96415735.513  
  25382226.411   133384498.993                                                  
  25382225.446    99605305.878  
 21  8 31  7 48 26.0000000  0 17G 1G 7G 8G 9G13G14G17G21G30R 2R 3R12
                                R21R22E 4E31E33
  22632618.137   118935211.094    22632617.476    92676783.201    22632617.136  
  22632615.903    88815245.2651 
  20312302.507   106741870.768    20312297.629    83175460.879    20312297.165  
                                
  22912888.527   120408042.158    22912886.936    93824434.123    22912885.471  
  22912884.810    89915083.718  
  23028390.532   121015008.229    23028387.869    94297396.281    23028387.279  
  23028388.048    90368341.014  
  24234698.627   127354199.865                    99237022.184    24234694.160  
                                
  21978153.199   115495975.643    21978148.463    89996840.402    21978147.927  
  21978152.323    86246989.361  
  22085449.748   116059821.593    22085445.370    90436203.413    22085444.727  
                                
  22610733.391   118820204.876                    92587150.462    22610727.905  
                                
  21106617.639   110916023.984    21106615.709    86428060.374    21106615.119  
  21106614.797    82826890.208  
  21860487.469   116651750.880                    90729145.530    21860489.238  
                                
  23073560.866   123514578.606                    96066884.154    23073559.008  
                                
  20535605.773   109697520.459                    85320297.996    20535606.899  
                                
  21646073.292   115832508.572                    90091956.615    21646074.400  
                                
  19844399.407   105930751.965                    82390580.561    19844398.514  
                                
  25659043.683   134839183.965                                                  
  25659043.826   100691598.170  
  24569324.923   129112675.021                                                  
  24569326.674    96415314.581  
  25381809.169   133382306.435                                                  
  25381808.222    99603668.578  
 21  8 31  7 48 27.0000000  0 17G 1G 7G 8G 9G13G14G17G21G30R 2R 3R12
                                R21R22E 4E31E33
  22632150.808   118932755.228    22632150.165    92674869.539    22632149.790  
  22632148.557    88813411.343  
  20312275.239   106741727.390    20312270.361    83175349.154    20312269.879  
                                
  22913497.664   120411243.040    22913496.055    93826928.319    22913494.608  
  22913493.875    89917473.994  
  23029026.133   121018348.433    23029023.488    94299999.032    23029022.916  
  23029023.649    90370835.318  
  24234161.395   127351376.611                    99234822.242    24234156.874  
                                
  21977902.264   115494657.019    21977897.529    89995812.906    21977897.028  
  21977901.406    86246004.675  
  22084920.396   116057039.904    22084916.036    90434035.864    22084915.411  
                                
  22610677.836   118819912.804                    92586922.876    22610672.332  
                                
  21106256.077   110914124.002    21106254.165    86426579.869    21106253.575  
  21106253.236    82825471.399  
  21860906.158   116653985.047                    90730883.215    21860907.945  
                                
  23073412.000   123513781.824                    96066264.432    23073410.231  
                                
  20535421.007   109696533.393                    85319530.281    20535422.151  
                                
  21646543.212   115835023.189                    90093912.428    21646544.356  
                                
  19844174.365   105929550.688                    82389646.232    19844173.489  
                                
  25659500.326   134841583.655                                                  
  25659500.469   100693390.139  
  24569217.619   129112111.178                                                  
  24569219.388    96414893.529  
  25381391.981   133380113.953                                                  
  25381391.016    99602031.339  
 21  8 31  7 48 28.0000000  0 17G 1G 7G 8G 9G13G14G17G21G30R 2R 3R12
                                R21R22E 4E31E33
  22631683.462   118930299.482    22631682.819    92672955.968    22631682.479  
  22631681.246    88811577.500  
  20312247.989   106741584.222    20312243.093    83175237.594    20312242.664  
                                
  22914106.783   120414443.913    22914105.157    93829422.503    22914103.709  
  22914102.941    89919864.258  
  23029661.716   121021688.557    23029659.089    94302601.721    23029658.500  
  23029659.268    90373329.566  
  24233624.181   127348553.502                    99232622.416    24233619.624  
                                
  21977651.329   115493338.322    21977646.612    89994785.350    21977646.076  
  21977650.489    86245019.940  
  22084391.098   116054258.358    22084386.738    90431868.426    22084386.113  
                                
  22610622.299   118819621.029                    92586695.514    22610616.813  
                                
  21105894.551   110912224.102    21105892.603    86425099.423    21105892.031  
  21105891.692    82824052.639  
  21861324.901   116656219.505                    90732621.125    21861326.688  
                                
  23073263.240   123512985.565                    96065645.119    23073261.524  
                                
  20535236.206   109695546.199                    85318762.461    20535237.349  
                                
  21647013.239   115837538.304                    90095868.627    21647014.364  
                                
  19843949.447   105928350.069                    82388712.415    19843948.572  
                                
  25659956.987   134843983.294                                                  
  25659957.094   100695182.082  
  24569110.298   129111547.122                                                  
  24569112.049    96414472.320  
  25380974.775   133377921.521                                                  
  25380973.793    99600394.131  
 21  8 31  7 48 29.0000000  0 18G 1G 7G 8G 9G13G14G17G21G30R 2R 3R12
                                R21R22E 1E 4E31E33
  22631216.169   118927843.915    22631215.544    92671042.537    22631215.186  
  22631213.989    88809743.806  
  20312220.810   106741441.396    20312215.932    83175126.301    20312215.485  
                                
  22914715.938   120417644.915    22914714.294    93831916.782    22914712.847  
  22914712.025    89922254.614  
  23030297.335   121025028.708    23030294.690    94305204.441    23030294.119  
  23030294.869    90375823.843  
  24233087.020   127345730.641                    99230422.785    24233082.410  
                                
  21977400.377   115492019.675    21977395.677    89993757.830    21977395.159  
  21977399.555    86244035.238  
  22083861.835   116051477.076    22083857.475    90429701.189    22083856.850  
                                
  22610566.869   118819329.670                    92586468.479    22610561.365  
                                
  21105533.043   110910324.352    21105531.113    86423619.096    21105530.505  
  21105530.166    82822633.992  
  21861743.715   116658454.393                    90734359.373    21861745.538  
                                
  23073114.605   123512189.960                    96065026.316    23073112.961  
                                
  20535051.386   109694558.999                    85317994.634    20535052.548  
                                
  21647483.355   115840054.017                    90097825.285    21647484.498  
                                
  19843724.744   105927150.259                    82387779.229    19843723.815  
                                
  25285295.664   132875125.951                                                  
  25285291.822    99224919.890  
  25660413.630   134846383.004                                                  
  25660413.755   100696974.076  
  24569002.941   129110982.974                                                  
  24569004.710    96414051.039  
  25380557.605   133375729.215                                                  
  25380556.605    99598757.026  
 21  8 31  7 48 30.0000000  0 18G 1G 7G 8G 9G13G14G17G21G30R 2R 3R12
                                R21R22E 1E 4E31E33
  22630748.948   118925388.732    22630748.340    92669129.406    22630747.983  
  22630746.786    88807910.389  
  20312193.739   106741299.049    20312188.843    83175015.382    20312188.396  
                                
  22915325.146   120420846.154    22915323.485    93834411.259    22915322.037  
  22915321.180    89924645.155  
  23030932.972   121028369.061    23030930.345    94307807.313    23030929.755  
  23030930.506    90378318.256  
  24232549.949   127342908.207                    99228223.478    24232545.356  
                                
  21977149.460   115490701.224    21977144.778    89992730.466    21977144.296  
  21977148.674    86243050.677  
  22083332.626   116048696.225    22083328.284    90427534.294    22083327.695  
                                
  22610511.529   118819038.884                    92586241.897    22610506.043  
                                
  21105171.606   110908424.918    21105169.640    86422139.018    21105169.068  
  21105168.693    82821215.588  
  21862162.637   116660689.858                    90736098.066    21862164.459  
                                
  23072966.132   123511395.145                    96064408.124    23072964.523  
                                
  20534866.621   109693571.913                    85317226.903    20534867.782  
                                
  21647953.614   115842570.475                    90099782.528    21647954.793  
                                
  19843500.131   105925951.360                    82386846.750    19843499.237  
                                
  25285472.692   132876056.283                                                  
  25285468.832    99225614.623  
  25660870.326   134848782.942                                                  
  25660870.469   100698766.227  
  24568895.602   129110418.870                                                  
  24568897.371    96413629.791  
  25380140.506   133373537.226                                                  
  25380139.488    99597120.145  
 21  8 31  7 48 31.0000000  0 17G 1G 7G 8G 9G13G14G17G21G30R 2R 3R12
                                R21R22E 1E31E33
  22630281.762   118922933.846    22630281.190    92667216.512    22630280.851  
  22630279.636    88806077.196  
  20312166.721   106741157.121    20312161.842    83174904.786    20312161.396  
                                
  22915934.391   120424047.611    22915932.711    93836905.898    22915931.264  
  22915930.370    89927035.849  
  23031568.627   121031709.528    23031566.036    94310410.277    23031565.428  
  23031566.179    90380812.768  
  24232012.931   127340086.080                    99226024.419    24232008.303  
                                
  21976898.597   115489382.905    21976893.933    89991703.207    21976893.432  
  21976897.810    86242066.218  
  22082803.507   116045915.715    22082799.165    90425367.663    22082798.593  
                                
  22610456.278   118818748.597                    92586015.704    22610450.846  
                                
  21104810.205   110906525.752    21104808.239    86420659.148    21104807.632  
  21104807.292    82819797.375  
  21862581.647   116662925.836                    90737837.155    21862583.506  
                                
  23072817.783   123510601.059                    96063790.501    23072816.246  
                                
  20534681.837   109692584.874                    85316459.206    20534683.016  
                                
  21648423.980   115845087.589                    90101740.284    21648425.213  
                                
  19843275.731   105924753.362                    82385914.974    19843274.838  
                                
  25285649.721   132876986.576                                                  
  25285645.843    99226309.320  
  24568788.263   129109854.755                                                  
  24568790.014    96413208.535  
  25379723.426   133371345.463                                                  
  25379722.407    99595483.439  
 21  8 31  7 48 32.0000000  0 17G 1G 7G 8G 9G13G14G17G21G30R 2R 3R12
                                R21R22E 1E31E33
  22629814.648   118920479.277    22629814.094    92665303.858    22629813.737  
  22629812.557    88804244.250  
  20312139.792   106741015.652    20312134.914    83174794.550    20312134.485  
                                
  22916543.671   120427249.282    22916541.973    93839400.711    22916540.526  
  22916539.597    89929426.714  
  23032204.353   121035050.172    23032201.726    94313013.376    23032201.119  
  23032201.869    90383307.396  
  24231476.003   127337264.370                    99223825.693    24231471.410  
                                
  21976647.751   115488064.751    21976643.087    89990676.076    21976642.605  
  21976646.983    86241081.886  
  22082274.459   116043135.589    22082270.152    90423201.333    22082269.580  
                                
  22610401.134   118818458.861                    92585789.940    22610395.702  
                                
  21104448.857   110904626.868    21104446.892    86419179.498    21104446.284  
  21104445.945    82818379.384  
  21863000.801   116665162.381                    90739576.692    21863002.641  
                                
  23072669.560   123509807.786                    96063173.516    23072668.094  
                                
  20534497.089   109691597.942                    85315691.592    20534498.269  
                                
  21648894.525   115847605.448                    90103698.618    21648895.740  
                                
  19843051.475   105923556.246                    82384983.884    19843050.582  
                                
  25285826.749   132877916.896                                                  
  25285822.836    99227004.038  
  24568680.923   129109290.657                                                  
  24568682.692    96412787.300  
  25379306.416   133369153.973                                                  
  25379305.380    99593846.938  
 21  8 31  7 48 33.0000000  0 17G 1G 7G 8G 9G13G14G17G21G30R 2R 3R12
                                R21R22E 1E31E33
  22629347.588   118918024.987    22629347.069    92663391.429    22629346.748  
  22629345.550    88802411.492  
  20312112.953   106740874.552    20312108.075    83174684.604    20312107.628  
                                
  22917153.005   120430451.077    22917151.236    93841895.616    22917149.842  
  22917148.841    89931817.677  
  23032840.026   121038390.862    23032837.435    94315616.512    23032836.827  
  23032837.577    90385802.076  
  24230939.128   127334442.957                    99221627.193    24230934.482  
                                
  21976396.942   115486746.697    21976392.278    89989649.023    21976391.795  
  21976396.155    86240097.625  
  22081745.464   116040355.789    22081741.176    90421035.258    22081740.604  
                                
  22610346.097   118818169.574                    92585564.527    22610340.629  
                                
  21104087.546   110902728.197    21104085.580    86417700.019    21104084.990  
  21104084.651    82816961.552  
  21863420.008   116667399.390                    90741316.590    21863421.867  
                                
  23072521.497   123509015.222                    96062557.077    23072520.067  
                                
  20534312.341   109690611.053                    85314924.014    20534313.539  
                                
  21649365.159   115850123.952                    90105657.455    21649366.392  
                                
  19842827.362   105922359.956                    82384053.445    19842826.469  
                                
  25286003.742   132878847.146                                                  
  25285999.828    99227698.711  
  24568573.584   129108726.518                                                  
  24568575.317    96412366.025  
  25378889.425   133366962.671                                                  
  25378888.388    99592210.589  
 21  8 31  7 48 34.0000000  0 17G 1G 7G 8G 9G13G14G17G21G30R 2R 3R12
                                R21R22E 1E31E33
  22628880.616   118915571.236    22628880.116    92661479.418    22628879.794  
  22628878.597    88800579.150  
  20312086.239   106740734.141    20312081.360    83174575.194    20312080.914  
                                
  22917762.392   120433653.326    22917760.605    93844390.877    22917759.193  
  22917758.175    89934208.963  
  23033475.823   121041731.961    23033473.232    94318219.965    23033472.607  
  23033473.357    90388297.043  
  24230402.342   127331622.130                    99219429.154    24230397.750  
                                
  21976146.168   115485429.027    21976141.540    89988622.267    21976141.075  
  21976145.435    86239113.648  
  22081216.595   116037576.599    22081212.306    90418869.658    22081211.752  
                                
  22610291.168   118817881.068                    92585339.719    22610285.754  
                                
  21103726.359   110900830.061    21103724.376    86416220.950    21103723.786  
  21103723.447    82815544.102  
  21863839.394   116669637.194                    90743057.100    21863841.235  
                                
  23072373.613   123508223.662                    96061941.417    23072372.237  
                                
  20534127.665   109689624.482                    85314156.681    20534128.862  
                                
  21649835.972   115852643.407                    90107617.028    21649837.223  
                                
  19842603.445   105921164.778                    82383123.860    19842602.570  
                                
  25286180.824   132879777.621                                                  
  25286176.857    99228393.538  
  24568466.281   129108162.611                                                  
  24568468.014    96411944.928  
  25378472.558   133364771.876                                                  
  25378471.504    99590574.589  
 21  8 31  7 48 35.0000000  0 17G 1G 7G 8G 9G13G14G17G21G30R 2R 3R12
                                R21R22E 1E31E33
  22628413.752   118913117.899    22628413.288    92659567.729    22628412.948  
  22628411.769    88798747.121  
  20312059.614   106740594.277    20312054.736    83174466.206    20312054.307  
                                
  22918371.833   120436855.909    22918370.010    93846886.404    22918368.616  
  22918367.580    89936600.494  
  23034111.657   121045073.294    23034109.066    94320823.599    23034108.458  
  23034109.173    90390792.190  
  24229865.682   127328801.800                    99217231.505    24229861.090  
                                
  21975895.465   115484111.624    21975890.855    89987595.712    21975890.391  
  21975894.751    86238129.865  
  22080687.832   116034797.885    22080683.544    90416704.428    22080682.990  
                                
