% program   : rnx2rtkp ver.2.4.3 b31
% inp file  : ngs/21_08_31_07_48_00_txan.obs
% inp file  : ngs/21_08_31_07_48_00_txan_SNTX.obs
% inp file  : ngs/21_08_31_07_48_00_brdc.nav
% obs start : 2021/08/31 07:00:00.0 GPST (week2173 198000.0s)
% obs end   : 2021/08/31 07:59:59.0 GPST (week2173 201599.0s)
% ref pos   :  -828613.5211  -5494104.9796   3121406.3469
%
% (x/y/z-ecef=WGS84,Q=1:fix,2:float,3:sbas,4:dgps,5:single,6:ppp,ns=# of satellites)
%  GPST              x-ecef(m)      y-ecef(m)      z-ecef(m)   Q  ns   sdx(m)   sdy(m)   sdz(m)  sdxy(m)  sdyz(m)  sdzx(m) age(s)  ratio
2173 200857.000   -828648.1676  -5494334.3842   3121536.7966   2   8   0.4004   1.1662   0.5507   0.2771  -0.6324  -0.1492 -30.00    1.1
2173 200858.000   -828648.1307  -5494334.0813   3121536.8175   2   8   0.2848   0.8288   0.3914   0.1974  -0.4492  -0.1060 -29.00    1.2
2173 200859.000   -828648.1636  -5494333.9033   3121536.7751   2   8   0.2332   0.6785   0.3204   0.1615  -0.3677  -0.0868 -28.00    1.3
2173 200860.000   -828648.1817  -5494333.9282   3121536.7981   2   8   0.2023   0.5886   0.2780   0.1400  -0.3191  -0.0752 -27.00    1.3
2173 200861.000   -828648.1797  -5494333.9414   3121536.7928   2   8   0.1812   0.5272   0.2490   0.1253  -0.2858  -0.0673 -26.00    1.3
2173 200862.000   -828648.1768  -5494333.9006   3121536.8006   2   8   0.1655   0.4817   0.2276   0.1144  -0.2612  -0.0615 -25.00    1.4
2173 200863.000   -828648.1878  -5494333.9012   3121536.8299   2   8   0.1534   0.4463   0.2109   0.1059  -0.2420  -0.0569 -24.00    1.4
2173 200864.000   -828648.1942  -5494333.8970   3121536.8441   2   8   0.1436   0.4177   0.1974   0.0991  -0.2265  -0.0532 -23.00    1.5
2173 200865.000   -828648.1809  -5494333.8626   3121536.8545   2   8   0.1354   0.3939   0.1862   0.0934  -0.2136  -0.0502 -22.00    1.6
2173 200866.000   -828648.1822  -5494333.8392   3121536.8547   2   8   0.1285   0.3737   0.1767   0.0886  -0.2027  -0.0476 -21.00    1.7
2173 200867.000   -828648.1684  -5494333.8577   3121536.8723   2   8   0.1225   0.3563   0.1685   0.0844  -0.1932  -0.0454 -20.00    1.7
2173 200868.000   -828648.1655  -5494333.8059   3121536.8583   2   8   0.1173   0.3411   0.1613   0.0808  -0.1850  -0.0434 -19.00    1.8
2173 200869.000   -828648.1674  -5494333.8212   3121536.8728   2   8   0.1127   0.3276   0.1550   0.0776  -0.1776  -0.0417 -18.00    1.9
2173 200870.000   -828648.1502  -5494333.7877   3121536.8687   2   8   0.1086   0.3155   0.1493   0.0747  -0.1711  -0.0401 -17.00    2.1
2173 200871.000   -828648.1417  -5494333.7799   3121536.8664   2   8   0.1049   0.3047   0.1442   0.0722  -0.1652  -0.0388 -16.00    2.2
2173 200872.000   -828648.1405  -5494333.7674   3121536.8712   2   8   0.1015   0.2948   0.1395   0.0698  -0.1598  -0.0375 -15.00    2.3
2173 200873.000   -828648.1326  -5494333.7691   3121536.8746   2   8   0.0985   0.2858   0.1353   0.0677  -0.1549  -0.0363 -14.00    2.5
2173 200874.000   -828648.1351  -5494333.7419   3121536.8778   2   8   0.0957   0.2775   0.1314   0.0657  -0.1504  -0.0353 -13.00    2.7
2173 200875.000   -828648.1377  -5494333.7263   3121536.8795   2   8   0.0931   0.2699   0.1278   0.0639  -0.1462  -0.0343 -12.00    2.9
2173 200876.000   -828647.9459  -5494333.0974   3121536.8424   1   8   0.0086   0.0292   0.0137   0.0040  -0.0170  -0.0030 -11.00    3.2
2173 200877.000   -828647.9459  -5494333.0960   3121536.8419   1   8   0.0080   0.0270   0.0127   0.0038  -0.0157  -0.0026 -10.00    3.5
2173 200878.000   -828647.9424  -5494333.0972   3121536.8442   1   8   0.0074   0.0249   0.0116   0.0037  -0.0144  -0.0027  -9.00    3.9
2173 200879.000   -828647.9436  -5494333.1043   3121536.8482   1   8   0.0068   0.0228   0.0107   0.0035  -0.0131  -0.0026  -8.00    4.4
2173 200880.000   -828647.9409  -5494333.1042   3121536.8464   1   8   0.0063   0.0207   0.0097   0.0033  -0.0119  -0.0022  -7.00    5.0
2173 200881.000   -828647.9400  -5494333.1076   3121536.8486   1   8   0.0057   0.0188   0.0087   0.0031  -0.0107  -0.0020  -6.00    5.6
2173 200882.000   -828647.9397  -5494333.1059   3121536.8504   1   8   0.0054   0.0169   0.0079   0.0030  -0.0096  -0.0018  -5.00    6.4
2173 200883.000   -828647.9396  -5494333.1120   3121536.8514   1   8   0.0051   0.0153   0.0071   0.0029  -0.0085  -0.0022  -4.00    7.6
2173 200884.000   -828647.9381  -5494333.1120   3121536.8524   1   8   0.0046   0.0138   0.0063   0.0029  -0.0077  -0.0019  -3.00    8.8
2173 200885.000   -828647.9360  -5494333.1081   3121536.8526   1   8   0.0042   0.0127   0.0061   0.0028  -0.0070  -0.0020  -2.00   10.1
2173 200886.000   -828647.9333  -5494333.1089   3121536.8527   1   8   0.0043   0.0119   0.0059   0.0029  -0.0064  -0.0014  -1.00   11.6
2173 200887.000   -828647.9339  -5494333.1117   3121536.8533   1   8   0.0040   0.0117   0.0056   0.0030  -0.0062  -0.0018   0.00   12.9
2173 200888.000   -828647.9363  -5494333.1104   3121536.8553   1   8   0.0038   0.0117   0.0055   0.0029  -0.0064  -0.0015   0.00   14.2
2173 200889.000   -828647.9356  -5494333.1141   3121536.8572   1   8   0.0038   0.0117   0.0052   0.0029  -0.0062  -0.0023   0.00   15.7
2173 200890.000   -828647.9340  -5494333.1153   3121536.8583   1   8   0.0041   0.0117   0.0056   0.0026  -0.0065   0.0009   0.00   16.9
2173 200891.000   -828647.9375  -5494333.1139   3121536.8562   1   8   0.0041   0.0117   0.0054   0.0031  -0.0061  -0.0024   0.00   17.8
2173 200892.000   -828647.9361  -5494333.1163   3121536.8565   1   8   0.0041   0.0117   0.0056   0.0023  -0.0064   0.0011   0.00   18.1
2173 200893.000   -828647.9369  -5494333.1093   3121536.8540   1   8   0.0042   0.0117   0.0057   0.0029  -0.0064  -0.0015   0.00   18.2
2173 200894.000   -828647.9371  -5494333.1116   3121536.8564   1   8   0.0042   0.0117   0.0055   0.0027  -0.0063  -0.0006   0.00   18.6
2173 200895.000   -828647.9380  -5494333.1118   3121536.8542   1   8   0.0041   0.0117   0.0055   0.0027  -0.0063  -0.0016   0.00   19.1
2173 200896.000   -828647.9353  -5494333.1094   3121536.8538   1   8   0.0040   0.0117   0.0059   0.0032  -0.0063  -0.0020   0.00   19.3
2173 200897.000   -828647.9353  -5494333.1078   3121536.8536   1   8   0.0038   0.0117   0.0052   0.0030  -0.0063  -0.0015   0.00   19.5
2173 200898.000   -828647.9354  -5494333.1092   3121536.8537   1   8   0.0041   0.0117   0.0057   0.0030  -0.0062   0.0008   0.00   20.0
2173 200899.000   -828647.9344  -5494333.1078   3121536.8556   1   8   0.0043   0.0117   0.0056   0.0024  -0.0065  -0.0012   0.00   20.3
2173 200900.000   -828647.9344  -5494333.1114   3121536.8550   1   8   0.0039   0.0116   0.0055   0.0029  -0.0063  -0.0016   0.00   20.8
2173 200901.000   -828647.9366  -5494333.1082   3121536.8528   1   8   0.0042   0.0116   0.0055   0.0025  -0.0064  -0.0020   0.00   21.2
2173 200902.000   -828647.9353  -5494333.1121   3121536.8539   1   8   0.0037   0.0117   0.0053   0.0026  -0.0063   0.0004   0.00   21.8
2173 200903.000   -828647.9348  -5494333.1109   3121536.8520   1   8   0.0038   0.0117   0.0055   0.0027  -0.0062  -0.0018   0.00   22.2
2173 200904.000   -828647.9360  -5494333.1180   3121536.8549   1   8   0.0043   0.0117   0.0054   0.0024  -0.0063   0.0007   0.00   22.4
2173 200905.000   -828647.9375  -5494333.1175   3121536.8562   1   8   0.0042   0.0117   0.0057   0.0016  -0.0064  -0.0019   0.00   22.7
2173 200906.000   -828647.9374  -5494333.1125   3121536.8534   1   8   0.0040   0.0117   0.0055   0.0026  -0.0062  -0.0014   0.00   22.8
2173 200907.000   -828647.9371  -5494333.1147   3121536.8549   1   8   0.0041   0.0117   0.0057   0.0026  -0.0064  -0.0010   0.00   23.1
2173 200908.000   -828647.9367  -5494333.1156   3121536.8537   1   8   0.0040   0.0117   0.0053   0.0030  -0.0062   0.0010   0.00   23.2
2173 200909.000   -828647.9374  -5494333.1210   3121536.8587   1   8   0.0040   0.0117   0.0058   0.0029  -0.0062  -0.0022   0.00   23.4
2173 200910.000   -828647.9380  -5494333.1206   3121536.8557   1   8   0.0040   0.0116   0.0056   0.0031  -0.0063  -0.0020   0.00   23.6
2173 200911.000   -828647.9373  -5494333.1165   3121536.8560   1   8   0.0040   0.0116   0.0058   0.0026  -0.0064   0.0012   0.00   23.7
2173 200912.000   -828647.9359  -5494333.1176   3121536.8567   1   8   0.0042   0.0117   0.0054   0.0027  -0.0065  -0.0019   0.00   23.9
2173 200913.000   -828647.9381  -5494333.1165   3121536.8563   1   8   0.0039   0.0117   0.0059   0.0031  -0.0061  -0.0015   0.00   24.3
2173 200914.000   -828647.9373  -5494333.1181   3121536.8566   1   8   0.0042   0.0117   0.0056   0.0025  -0.0065  -0.0012   0.00   24.5
2173 200915.000   -828647.9367  -5494333.1098   3121536.8554   1   8   0.0044   0.0117   0.0054   0.0023  -0.0064  -0.0021   0.00   24.8
2173 200916.000   -828647.9377  -5494333.1150   3121536.8569   1   8   0.0042   0.0117   0.0056   0.0029  -0.0062  -0.0014   0.00   24.9
2173 200917.000   -828647.9373  -5494333.1124   3121536.8568   1   8   0.0042   0.0116   0.0056   0.0028  -0.0064  -0.0014   0.00   25.1
2173 200918.000   -828647.9375  -5494333.1134   3121536.8553   1   8   0.0040   0.0116   0.0052   0.0029  -0.0063  -0.0020   0.00   25.3
2173 200919.000   -828647.9350  -5494333.1118   3121536.8555   1   8   0.0044   0.0116   0.0056   0.0030  -0.0064  -0.0020   0.00   25.3
2173 200920.000   -828647.9355  -5494333.1175   3121536.8559   1   8   0.0043   0.0117   0.0060   0.0024  -0.0065  -0.0005   0.00   25.4
2173 200921.000   -828647.9364  -5494333.1157   3121536.8571   1   8   0.0038   0.0116   0.0055   0.0029  -0.0064  -0.0021   0.00   25.5
2173 200922.000   -828647.9391  -5494333.1202   3121536.8586   1   8   0.0040   0.0116   0.0056   0.0028  -0.0064  -0.0015   0.00   25.6
2173 200923.000   -828647.9379  -5494333.1174   3121536.8590   1   8   0.0041   0.0117   0.0053   0.0029  -0.0061  -0.0013   0.00   25.7
2173 200924.000   -828647.9374  -5494333.1198   3121536.8578   1   8   0.0040   0.0117   0.0052   0.0024  -0.0062  -0.0014   0.00   25.6
2173 200925.000   -828647.9376  -5494333.1181   3121536.8589   1   8   0.0044   0.0116   0.0053   0.0029  -0.0062  -0.0022   0.00   25.8
2173 200926.000   -828647.9383  -5494333.1143   3121536.8555   1   8   0.0039   0.0116   0.0055   0.0024  -0.0064  -0.0018   0.00   25.8
2173 200927.000   -828647.9393  -5494333.1147   3121536.8551   1   8   0.0039   0.0117   0.0056   0.0027  -0.0064   0.0004   0.00   26.0
2173 200928.000   -828647.9406  -5494333.1216   3121536.8570   1   8   0.0040   0.0117   0.0057   0.0029  -0.0063  -0.0013   0.00   25.9
2173 200929.000   -828647.9393  -5494333.1210   3121536.8570   1   8   0.0039   0.0116   0.0056   0.0030  -0.0063  -0.0021   0.00   26.0
2173 200930.000   -828647.9393  -5494333.1238   3121536.8593   1   8   0.0041   0.0116   0.0053   0.0030  -0.0062  -0.0019   0.00   26.1
2173 200931.000   -828647.9412  -5494333.1174   3121536.8557   1   8   0.0043   0.0117   0.0055   0.0025  -0.0063  -0.0018   0.00   26.1
2173 200932.000   -828647.9398  -5494333.1239   3121536.8561   1   8   0.0039   0.0116   0.0055   0.0028  -0.0064   0.0015   0.00   26.2
2173 200933.000   -828647.9391  -5494333.1198   3121536.8562   1   8   0.0040   0.0116   0.0051   0.0023  -0.0063  -0.0014   0.00   26.3
2173 200934.000   -828647.9383  -5494333.1257   3121536.8573   1   8   0.0041   0.0116   0.0056   0.0028  -0.0065  -0.0014   0.00   26.3
2173 200935.000   -828647.9386  -5494333.1171   3121536.8564   1   8   0.0039   0.0117   0.0053   0.0027  -0.0063   0.0006   0.00   26.3
2173 200936.000   -828647.9408  -5494333.1195   3121536.8565   1   8   0.0040   0.0116   0.0057   0.0028  -0.0063  -0.0014   0.00   26.4
2173 200937.000   -828647.9396  -5494333.1182   3121536.8572   1   8   0.0042   0.0116   0.0055   0.0028  -0.0061  -0.0023   0.00   26.5
2173 200938.000   -828647.9396  -5494333.1151   3121536.8571   1   8   0.0040   0.0116   0.0052   0.0029  -0.0063  -0.0021   0.00   26.3
2173 200939.000   -828647.9398  -5494333.1201   3121536.8561   1   8   0.0040   0.0116   0.0055   0.0027  -0.0064  -0.0011   0.00   26.3
2173 200940.000   -828647.9377  -5494333.1156   3121536.8552   1   8   0.0043   0.0116   0.0057   0.0030  -0.0062  -0.0022   0.00   26.4
2173 200941.000   -828647.9394  -5494333.1198   3121536.8561   1   8   0.0039   0.0117   0.0053   0.0028  -0.0062  -0.0009   0.00   26.4
2173 200942.000   -828647.9382  -5494333.1161   3121536.8554   1   8   0.0039   0.0116   0.0054   0.0030  -0.0063  -0.0013   0.00   26.3
2173 200943.000   -828647.9386  -5494333.1247   3121536.8586   1   8   0.0041   0.0116   0.0055   0.0030  -0.0062  -0.0017   0.00   26.3
2173 200944.000   -828647.9400  -5494333.1219   3121536.8571   1   8   0.0037   0.0116   0.0053   0.0025  -0.0062  -0.0021   0.00   26.1
2173 200945.000   -828647.9397  -5494333.1207   3121536.8577   1   8   0.0039   0.0116   0.0058   0.0026  -0.0065  -0.0020   0.00   26.0
2173 200946.000   -828647.9376  -5494333.1163   3121536.8558   1   8   0.0037   0.0116   0.0057   0.0030  -0.0063  -0.0018   0.00   25.8
2173 200947.000   -828647.9356  -5494333.1226   3121536.8579   1   8   0.0041   0.0116   0.0058   0.0021  -0.0064  -0.0008   0.00   25.7
2173 200948.000   -828647.9392  -5494333.1263   3121536.8598   1   8   0.0041   0.0116   0.0055   0.0029  -0.0062  -0.0021   0.00   25.6
2173 200949.000   -828647.9367  -5494333.1186   3121536.8567   1   8   0.0045   0.0116   0.0059   0.0029  -0.0064  -0.0009   0.00   25.6
2173 200950.000   -828647.9405  -5494333.1234   3121536.8578   1   8   0.0041   0.0117   0.0055   0.0022  -0.0063  -0.0005   0.00   25.5
2173 200951.000   -828647.9399  -5494333.1237   3121536.8588   1   8   0.0041   0.0117   0.0056   0.0025  -0.0062  -0.0016   0.00   25.5
2173 200952.000   -828647.9385  -5494333.1213   3121536.8577   1   8   0.0042   0.0116   0.0057   0.0024  -0.0064  -0.0009   0.00   25.4
2173 200953.000   -828647.9389  -5494333.1203   3121536.8590   1   8   0.0039   0.0116   0.0056   0.0030  -0.0063  -0.0014   0.00   25.4
2173 200954.000   -828647.9394  -5494333.1204   3121536.8594   1   8   0.0040   0.0116   0.0053   0.0030  -0.0061  -0.0024   0.00   25.1
2173 200955.000   -828647.9380  -5494333.1189   3121536.8572   1   8   0.0040   0.0116   0.0053   0.0026  -0.0063  -0.0012   0.00   25.0
2173 200956.000   -828647.9410  -5494333.1204   3121536.8570   1   8   0.0040   0.0116   0.0058   0.0030  -0.0063  -0.0011   0.00   25.1
2173 200957.000   -828647.9380  -5494333.1168   3121536.8583   1   8   0.0041   0.0116   0.0055   0.0026  -0.0061  -0.0001   0.00   25.0
2173 200958.000   -828647.9384  -5494333.1200   3121536.8585   1   8   0.0040   0.0116   0.0056   0.0028  -0.0063  -0.0013   0.00   24.9
2173 200959.000   -828647.9375  -5494333.1182   3121536.8570   1   8   0.0039   0.0116   0.0056   0.0026  -0.0063  -0.0005   0.00   24.9
2173 200960.000   -828647.9395  -5494333.1175   3121536.8596   1   8   0.0043   0.0116   0.0053   0.0028  -0.0063  -0.0019   0.00   24.8
2173 200961.000   -828647.9391  -5494333.1255   3121536.8602   1   8   0.0040   0.0116   0.0052   0.0028  -0.0063  -0.0006   0.00   24.8
2173 200962.000   -828647.9382  -5494333.1200   3121536.8572   1   8   0.0041   0.0117   0.0056   0.0025  -0.0062  -0.0017   0.00   24.7
2173 200963.000   -828647.9371  -5494333.1180   3121536.8566   1   8   0.0042   0.0116   0.0056   0.0027  -0.0063  -0.0017   0.00   24.7
2173 200964.000   -828647.9377  -5494333.1248   3121536.8583   1   8   0.0042   0.0115   0.0053   0.0025  -0.0063  -0.0018   0.00   24.7
2173 200965.000   -828647.9401  -5494333.1209   3121536.8568   1   8   0.0041   0.0116   0.0056   0.0025  -0.0063  -0.0019   0.00   24.7
2173 200966.000   -828647.9374  -5494333.1220   3121536.8588   1   8   0.0042   0.0116   0.0057   0.0026  -0.0064  -0.0008   0.00   24.7
2173 200967.000   -828647.9381  -5494333.1242   3121536.8584   1   8   0.0044   0.0116   0.0055   0.0024  -0.0064  -0.0014   0.00   24.8
2173 200968.000   -828647.9384  -5494333.1172   3121536.8577   1   8   0.0039   0.0116   0.0056   0.0028  -0.0063   0.0016   0.00   24.9
2173 200969.000   -828647.9387  -5494333.1182   3121536.8571   1   8   0.0041   0.0116   0.0057   0.0026  -0.0062  -0.0014   0.00   24.9
2173 200970.000   -828647.9388  -5494333.1192   3121536.8582   1   8   0.0040   0.0116   0.0057   0.0021  -0.0064  -0.0011   0.00   24.8
2173 200971.000   -828647.9391  -5494333.1177   3121536.8556   1   8   0.0040   0.0116   0.0057   0.0027  -0.0063  -0.0015   0.00   24.8
2173 200972.000   -828647.9392  -5494333.1220   3121536.8584   1   8   0.0043   0.0116   0.0057   0.0026  -0.0062  -0.0019   0.00   24.8
2173 200973.000   -828647.9404  -5494333.1183   3121536.8570   1   8   0.0039   0.0116   0.0056   0.0025  -0.0063  -0.0018   0.00   24.9
2173 200974.000   -828647.9401  -5494333.1202   3121536.8581   1   8   0.0040   0.0115   0.0055   0.0025  -0.0064  -0.0016   0.00   24.9
2173 200975.000   -828647.9384  -5494333.1196   3121536.8573   1   8   0.0044   0.0116   0.0057   0.0020  -0.0063  -0.0012   0.00   24.9
2173 200976.000   -828647.9391  -5494333.1264   3121536.8604   1   8   0.0041   0.0116   0.0058   0.0030  -0.0063  -0.0017   0.00   24.9
2173 200977.000   -828647.9400  -5494333.1181   3121536.8565   1   8   0.0041   0.0116   0.0055   0.0028  -0.0061  -0.0008   0.00   25.0
2173 200978.000   -828647.9378  -5494333.1178   3121536.8548   1   8   0.0041   0.0116   0.0057   0.0026  -0.0063  -0.0012   0.00   25.0
2173 200979.000   -828647.9381  -5494333.1192   3121536.8581   1   8   0.0040   0.0116   0.0056   0.0027  -0.0063  -0.0015   0.00   25.1
2173 200980.000   -828647.9391  -5494333.1164   3121536.8569   1   8   0.0041   0.0116   0.0057   0.0025  -0.0065  -0.0008   0.00   25.2
2173 200981.000   -828647.9391  -5494333.1223   3121536.8576   1   8   0.0039   0.0116   0.0054   0.0027  -0.0061  -0.0025   0.00   25.3
2173 200982.000   -828647.9386  -5494333.1199   3121536.8570   1   8   0.0031   0.0115   0.0050   0.0028  -0.0064  -0.0012   0.00   25.4
2173 200983.000   -828647.9390  -5494333.1207   3121536.8576   1   8   0.0036   0.0116   0.0054   0.0028  -0.0064  -0.0017   0.00   25.4
2173 200984.000   -828647.9397  -5494333.1205   3121536.8569   1   8   0.0040   0.0115   0.0054   0.0028  -0.0061  -0.0012   0.00   25.5
2173 200985.000   -828647.9406  -5494333.1286   3121536.8583   1   8   0.0038   0.0115   0.0056   0.0027  -0.0064  -0.0018   0.00   25.5
2173 200986.000   -828647.9383  -5494333.1223   3121536.8562   1   8   0.0038   0.0115   0.0057   0.0030  -0.0063  -0.0013   0.00   25.6
2173 200987.000   -828647.9417  -5494333.1256   3121536.8581   1   8   0.0043   0.0116   0.0057   0.0026  -0.0063  -0.0013   0.00   25.7
2173 200988.000   -828647.9420  -5494333.1279   3121536.8577   1   8   0.0040   0.0115   0.0053   0.0032  -0.0060  -0.0019   0.00   25.7
2173 200989.000   -828647.9405  -5494333.1272   3121536.8588   1   8   0.0039   0.0116   0.0053   0.0025  -0.0061  -0.0014   0.00   25.7
2173 200990.000   -828647.9396  -5494333.1278   3121536.8561   1   8   0.0035   0.0115   0.0054   0.0027  -0.0062  -0.0020   0.00   25.7
2173 200991.000   -828647.9388  -5494333.1268   3121536.8575   1   8   0.0038   0.0115   0.0056   0.0027  -0.0061  -0.0018   0.00   25.7
2173 200992.000   -828647.9393  -5494333.1244   3121536.8592   1   8   0.0042   0.0115   0.0056   0.0024  -0.0064   0.0005   0.00   25.8
2173 200993.000   -828647.9420  -5494333.1260   3121536.8575   1   8   0.0041   0.0116   0.0050   0.0027  -0.0061  -0.0015   0.00   25.9
2173 200994.000   -828647.9416  -5494333.1282   3121536.8591   1   8   0.0044   0.0116   0.0058   0.0024  -0.0063  -0.0013   0.00   25.9
2173 200995.000   -828647.9407  -5494333.1241   3121536.8574   1   8   0.0039   0.0116   0.0056   0.0024  -0.0063  -0.0013   0.00   25.8
2173 200996.000   -828647.9409  -5494333.1272   3121536.8574   1   8   0.0037   0.0115   0.0055   0.0028  -0.0062  -0.0017   0.00   25.9
2173 200997.000   -828647.9422  -5494333.1235   3121536.8563   1   8   0.0040   0.0115   0.0057   0.0030  -0.0063  -0.0012   0.00   25.9
2173 200998.000   -828647.9436  -5494333.1314   3121536.8603   1   8   0.0041   0.0115   0.0055   0.0031  -0.0061   0.0006   0.00   25.9
2173 200999.000   -828647.9419  -5494333.1277   3121536.8587   1   8   0.0039   0.0116   0.0056   0.0028  -0.0062  -0.0012   0.00   25.9
2173 201000.000   -828647.9408  -5494333.1260   3121536.8585   1   8   0.0044   0.0116   0.0055   0.0023  -0.0064   0.0011   0.00   25.8
2173 201001.000   -828647.9433  -5494333.1332   3121536.8588   1   8   0.0039   0.0115   0.0056   0.0031  -0.0062  -0.0015   0.00   25.7
2173 201002.000   -828647.9424  -5494333.1265   3121536.8581   1   8   0.0042   0.0115   0.0056   0.0030  -0.0062  -0.0007   0.00   25.7
2173 201003.000   -828647.9410  -5494333.1263   3121536.8596   1   8   0.0036   0.0115   0.0056   0.0030  -0.0062  -0.0009   0.00   25.7
2173 201004.000   -828647.9425  -5494333.1241   3121536.8592   1   8   0.0040   0.0115   0.0055   0.0023  -0.0064  -0.0013   0.00   25.7
2173 201005.000   -828647.9415  -5494333.1317   3121536.8600   1   8   0.0039   0.0115   0.0057   0.0024  -0.0062  -0.0016   0.00   25.6
2173 201006.000   -828647.9434  -5494333.1302   3121536.8602   1   8   0.0042   0.0116   0.0055   0.0019  -0.0063  -0.0009   0.00   25.6
2173 201007.000   -828647.9400  -5494333.1257   3121536.8597   1   8   0.0046   0.0116   0.0053   0.0027  -0.0065  -0.0017   0.00   25.6
2173 201008.000   -828647.9427  -5494333.1284   3121536.8595   1   8   0.0038   0.0115   0.0056   0.0029  -0.0061  -0.0008   0.00   25.5
2173 201009.000   -828647.9403  -5494333.1316   3121536.8601   1   8   0.0041   0.0116   0.0056   0.0020  -0.0061  -0.0014   0.00   25.4
2173 201010.000   -828647.9411  -5494333.1303   3121536.8605   1   8   0.0041   0.0116   0.0055   0.0030  -0.0061  -0.0009   0.00   25.4
2173 201011.000   -828647.9417  -5494333.1293   3121536.8609   1   8   0.0038   0.0115   0.0056   0.0023  -0.0064  -0.0016   0.00   25.4
2173 201012.000   -828647.9396  -5494333.1306   3121536.8594   1   8   0.0038   0.0116   0.0052   0.0026  -0.0061  -0.0018   0.00   25.4
2173 201013.000   -828647.9411  -5494333.1288   3121536.8603   1   8   0.0039   0.0115   0.0056   0.0026  -0.0063  -0.0015   0.00   25.4
2173 201014.000   -828647.9398  -5494333.1244   3121536.8598   1   8   0.0038   0.0115   0.0059   0.0027  -0.0063  -0.0010   0.00   25.3
2173 201015.000   -828647.9386  -5494333.1303   3121536.8607   1   8   0.0037   0.0115   0.0055   0.0026  -0.0063  -0.0012   0.00   25.4
2173 201016.000   -828647.9403  -5494333.1305   3121536.8622   1   8   0.0040   0.0115   0.0056   0.0028  -0.0062  -0.0014   0.00   25.4
2173 201017.000   -828647.9421  -5494333.1264   3121536.8624   1   8   0.0038   0.0116   0.0054   0.0028  -0.0061  -0.0010   0.00   25.4
2173 201018.000   -828647.9394  -5494333.1319   3121536.8633   1   8   0.0037   0.0115   0.0053   0.0029  -0.0061  -0.0013   0.00   25.4
2173 201019.000   -828647.9393  -5494333.1280   3121536.8635   1   8   0.0041   0.0115   0.0057   0.0029  -0.0064  -0.0022   0.00   25.5
2173 201020.000   -828647.9398  -5494333.1207   3121536.8586   1   8   0.0039   0.0115   0.0056   0.0025  -0.0063  -0.0015   0.00   25.5
2173 201021.000   -828647.9406  -5494333.1198   3121536.8602   1   8   0.0035   0.0115   0.0054   0.0026  -0.0063   0.0006   0.00   25.5
2173 201022.000   -828647.9415  -5494333.1214   3121536.8611   1   8   0.0042   0.0115   0.0055   0.0026  -0.0061  -0.0020   0.00   25.5
2173 201023.000   -828647.9419  -5494333.1173   3121536.8573   1   8   0.0041   0.0116   0.0055   0.0025  -0.0063  -0.0019   0.00   25.5
2173 201024.000   -828647.9405  -5494333.1211   3121536.8602   1   8   0.0043   0.0115   0.0056   0.0028  -0.0064  -0.0015   0.00   25.6
2173 201025.000   -828647.9387  -5494333.1265   3121536.8597   1   8   0.0040   0.0115   0.0054   0.0024  -0.0063  -0.0009   0.00   25.7
2173 201026.000   -828647.9376  -5494333.1167   3121536.8571   1   8   0.0042   0.0115   0.0056   0.0032  -0.0062  -0.0019   0.00   25.8
2173 201027.000   -828647.9365  -5494333.1221   3121536.8605   1   8   0.0038   0.0114   0.0055   0.0027  -0.0063  -0.0018   0.00   25.9
2173 201028.000   -828647.9362  -5494333.1199   3121536.8586   1   8   0.0044   0.0115   0.0057   0.0024  -0.0063  -0.0017   0.00   26.0
2173 201029.000   -828647.9385  -5494333.1282   3121536.8630   1   8   0.0040   0.0115   0.0058   0.0031  -0.0062   0.0008   0.00   26.1
2173 201030.000   -828647.9388  -5494333.1175   3121536.8594   1   8   0.0039   0.0116   0.0058   0.0022  -0.0063   0.0011   0.00   26.0
2173 201031.000   -828647.9389  -5494333.1195   3121536.8586   1   8   0.0042   0.0115   0.0056   0.0027  -0.0064  -0.0009   0.00   26.0
2173 201032.000   -828647.9388  -5494333.1181   3121536.8586   1   8   0.0038   0.0115   0.0056   0.0026  -0.0062  -0.0016   0.00   26.0
2173 201033.000   -828647.9375  -5494333.1173   3121536.8598   1   8   0.0045   0.0115   0.0057   0.0023  -0.0064  -0.0010   0.00   26.1
2173 201034.000   -828647.9386  -5494333.1246   3121536.8600   1   8   0.0045   0.0115   0.0055   0.0027  -0.0063  -0.0013   0.00   26.0
2173 201035.000   -828647.9373  -5494333.1162   3121536.8570   1   8   0.0039   0.0115   0.0051   0.0027  -0.0061  -0.0010   0.00   26.1
2173 201036.000   -828647.9371  -5494333.1133   3121536.8586   1   8   0.0042   0.0115   0.0059   0.0024  -0.0064  -0.0009   0.00   26.2
2173 201037.000   -828647.9373  -5494333.1171   3121536.8618   1   8   0.0040   0.0114   0.0057   0.0027  -0.0065  -0.0019   0.00   26.3
2173 201038.000   -828647.9368  -5494333.1130   3121536.8589   1   8   0.0041   0.0115   0.0056   0.0029  -0.0062  -0.0012   0.00   26.3
2173 201039.000   -828647.9380  -5494333.1254   3121536.8617   1   8   0.0040   0.0115   0.0058   0.0027  -0.0063   0.0005   0.00   26.3
2173 201040.000   -828647.9372  -5494333.1195   3121536.8617   1   8   0.0036   0.0115   0.0055   0.0028  -0.0063   0.0012   0.00   26.4
2173 201041.000   -828647.9362  -5494333.1138   3121536.8586   1   8   0.0038   0.0114   0.0056   0.0027  -0.0060  -0.0017   0.00   26.4
2173 201042.000   -828647.9394  -5494333.1173   3121536.8587   1   8   0.0037   0.0115   0.0056   0.0028  -0.0062   0.0009   0.00   26.3
2173 201043.000   -828647.9384  -5494333.1170   3121536.8560   1   8   0.0041   0.0115   0.0057   0.0026  -0.0064  -0.0010   0.00   26.3
2173 201044.000   -828647.9362  -5494333.1185   3121536.8613   1   8   0.0039   0.0116   0.0059   0.0031  -0.0060  -0.0016   0.00   26.3
2173 201045.000   -828647.9380  -5494333.1191   3121536.8603   1   8   0.0037   0.0115   0.0053   0.0028  -0.0060  -0.0013   0.00   26.2
2173 201046.000   -828647.9372  -5494333.1155   3121536.8594   1   8   0.0040   0.0115   0.0053   0.0027  -0.0061  -0.0005   0.00   26.2
2173 201047.000   -828647.9382  -5494333.1148   3121536.8582   1   8   0.0043   0.0115   0.0057   0.0025  -0.0063  -0.0007   0.00   26.2
2173 201048.000   -828647.9383  -5494333.1214   3121536.8621   1   8   0.0042   0.0114   0.0056   0.0026  -0.0063  -0.0017   0.00   26.1
2173 201049.000   -828647.9373  -5494333.1181   3121536.8608   1   8   0.0036   0.0115   0.0055   0.0025  -0.0061  -0.0017   0.00   26.1
2173 201050.000   -828647.9387  -5494333.1214   3121536.8614   1   8   0.0039   0.0114   0.0056   0.0026  -0.0063  -0.0015   0.00   26.2
2173 201051.000   -828647.9397  -5494333.1189   3121536.8613   1   8   0.0037   0.0114   0.0056   0.0022  -0.0064   0.0007   0.00   26.2
2173 201052.000   -828647.9386  -5494333.1233   3121536.8644   1   8   0.0039   0.0115   0.0057   0.0027  -0.0062  -0.0016   0.00   26.2
2173 201053.000   -828647.9374  -5494333.1237   3121536.8631   1   8   0.0035   0.0115   0.0055   0.0028  -0.0062   0.0010   0.00   26.3
2173 201054.000   -828647.9383  -5494333.1180   3121536.8620   1   8   0.0042   0.0114   0.0056   0.0029  -0.0063  -0.0015   0.00   26.3
2173 201055.000   -828647.9382  -5494333.1158   3121536.8589   1   8   0.0041   0.0115   0.0055   0.0029  -0.0060  -0.0005   0.00   26.3
2173 201056.000   -828647.9371  -5494333.1128   3121536.8586   1   8   0.0038   0.0116   0.0058   0.0023  -0.0063  -0.0007   0.00   26.3
2173 201057.000   -828647.9385  -5494333.1131   3121536.8579   1   8   0.0035   0.0115   0.0054   0.0027  -0.0061  -0.0017   0.00   26.3
2173 201058.000   -828647.9367  -5494333.1192   3121536.8595   1   8   0.0038   0.0114   0.0055   0.0024  -0.0061  -0.0025   0.00   26.2
2173 201059.000   -828647.9374  -5494333.1161   3121536.8603   1   8   0.0041   0.0114   0.0054   0.0027  -0.0063   0.0005   0.00   26.3
2173 201060.000   -828647.9385  -5494333.1116   3121536.8574   1   8   0.0041   0.0114   0.0057   0.0022  -0.0064  -0.0008   0.00   26.4
2173 201061.000   -828647.9373  -5494333.1179   3121536.8619   1   8   0.0041   0.0115   0.0054   0.0025  -0.0062  -0.0015   0.00   26.4
2173 201062.000   -828647.9370  -5494333.1202   3121536.8623   1   8   0.0036   0.0114   0.0054   0.0025  -0.0061  -0.0011   0.00   26.4
2173 201063.000   -828647.9368  -5494333.1175   3121536.8600   1   8   0.0040   0.0115   0.0058   0.0026  -0.0062  -0.0016   0.00   26.3
2173 201064.000   -828647.9370  -5494333.1195   3121536.8590   1   8   0.0039   0.0115   0.0057   0.0027  -0.0062  -0.0019   0.00   26.3
2173 201065.000   -828647.9386  -5494333.1225   3121536.8619   1   8   0.0038   0.0115   0.0059   0.0023  -0.0061  -0.0011   0.00   26.3
2173 201066.000   -828647.9385  -5494333.1213   3121536.8604   1   8   0.0041   0.0115   0.0053   0.0024  -0.0063  -0.0016   0.00   26.2
2173 201067.000   -828647.9391  -5494333.1235   3121536.8599   1   8   0.0039   0.0115   0.0059   0.0026  -0.0062  -0.0016   0.00   26.2
2173 201068.000   -828647.9387  -5494333.1239   3121536.8600   1   8   0.0040   0.0115   0.0055   0.0024  -0.0062  -0.0010   0.00   26.2
2173 201069.000   -828647.9382  -5494333.1233   3121536.8607   1   8   0.0045   0.0115   0.0055   0.0025  -0.0063  -0.0010   0.00   26.2
2173 201070.000   -828647.9387  -5494333.1239   3121536.8623   1   8   0.0040   0.0114   0.0054   0.0023  -0.0063  -0.0024   0.00   26.2
2173 201071.000   -828647.9375  -5494333.1203   3121536.8623   1   8   0.0042   0.0115   0.0057   0.0028  -0.0063  -0.0012   0.00   26.2
2173 201072.000   -828647.9370  -5494333.1196   3121536.8602   1   8   0.0042   0.0115   0.0056   0.0025  -0.0064  -0.0020   0.00   26.2
2173 201073.000   -828647.9382  -5494333.1197   3121536.8614   1   8   0.0040   0.0114   0.0057   0.0029  -0.0064  -0.0007   0.00   26.2
2173 201074.000   -828647.9379  -5494333.1244   3121536.8638   1   8   0.0042   0.0114   0.0053   0.0025  -0.0062  -0.0011   0.00   26.2
2173 201075.000   -828647.9379  -5494333.1208   3121536.8635   1   8   0.0045   0.0115   0.0057   0.0027  -0.0063  -0.0017   0.00   26.2
2173 201076.000   -828647.9400  -5494333.1178   3121536.8585   1   8   0.0039   0.0115   0.0054   0.0026  -0.0061  -0.0019   0.00   26.2
2173 201077.000   -828647.9383  -5494333.1223   3121536.8608   1   8   0.0040   0.0114   0.0056   0.0025  -0.0063  -0.0012   0.00   26.1
2173 201078.000   -828647.9412  -5494333.1259   3121536.8642   1   8   0.0043   0.0115   0.0059   0.0023  -0.0063  -0.0007   0.00   26.1
2173 201079.000   -828647.9400  -5494333.1216   3121536.8619   1   8   0.0041   0.0114   0.0057   0.0023  -0.0064  -0.0011   0.00   26.1
2173 201080.000   -828647.9396  -5494333.1211   3121536.8650   1   8   0.0040   0.0114   0.0056   0.0027  -0.0062  -0.0018   0.00   26.1
2173 201081.000   -828647.9368  -5494333.1213   3121536.8622   1   8   0.0042   0.0115   0.0057   0.0021  -0.0064  -0.0005   0.00   26.2
2173 201082.000   -828647.9383  -5494333.1180   3121536.8626   1   8   0.0037   0.0115   0.0055   0.0026  -0.0062  -0.0016   0.00   26.1
2173 201083.000   -828647.9387  -5494333.1267   3121536.8651   1   8   0.0042   0.0115   0.0059   0.0024  -0.0064  -0.0015   0.00   26.1
2173 201084.000   -828647.9379  -5494333.1205   3121536.8611   1   8   0.0037   0.0114   0.0054   0.0023  -0.0062  -0.0012   0.00   26.1
2173 201085.000   -828647.9379  -5494333.1178   3121536.8615   1   8   0.0039   0.0114   0.0057   0.0028  -0.0061  -0.0002   0.00   26.0
2173 201086.000   -828647.9382  -5494333.1220   3121536.8610   1   8   0.0043   0.0115   0.0055   0.0026  -0.0062  -0.0019   0.00   25.9
2173 201087.000   -828647.9402  -5494333.1235   3121536.8612   1   8   0.0036   0.0114   0.0059   0.0026  -0.0062   0.0006   0.00   25.8
2173 201088.000   -828647.9387  -5494333.1221   3121536.8637   1   8   0.0039   0.0114   0.0055   0.0025  -0.0063  -0.0019   0.00   25.7
2173 201089.000   -828647.9400  -5494333.1200   3121536.8608   1   8   0.0036   0.0114   0.0054   0.0025  -0.0064  -0.0021   0.00   25.6
2173 201090.000   -828647.9385  -5494333.1193   3121536.8602   1   8   0.0039   0.0114   0.0056   0.0027  -0.0060  -0.0015   0.00   25.6
2173 201091.000   -828647.9381  -5494333.1258   3121536.8633   1   8   0.0037   0.0114   0.0055   0.0028  -0.0061  -0.0012   0.00   25.6
2173 201092.000   -828647.9365  -5494333.1212   3121536.8635   1   8   0.0040   0.0115   0.0055   0.0027  -0.0061  -0.0011   0.00   25.6
2173 201093.000   -828647.9368  -5494333.1184   3121536.8618   1   8   0.0040   0.0115   0.0058   0.0026  -0.0061  -0.0012   0.00   25.6
2173 201094.000   -828647.9370  -5494333.1191   3121536.8616   1   8   0.0040   0.0114   0.0057   0.0026  -0.0063  -0.0008   0.00   25.6
2173 201095.000   -828647.9384  -5494333.1212   3121536.8614   1   8   0.0042   0.0114   0.0060   0.0025  -0.0064  -0.0019   0.00   25.5
2173 201096.000   -828647.9384  -5494333.1221   3121536.8625   1   8   0.0039   0.0114   0.0057   0.0028  -0.0060  -0.0015   0.00   25.5
2173 201097.000   -828647.9400  -5494333.1272   3121536.8615   1   8   0.0042   0.0113   0.0058   0.0027  -0.0063  -0.0018   0.00   25.5
2173 201098.000   -828647.9414  -5494333.1223   3121536.8614   1   8   0.0039   0.0114   0.0055   0.0028  -0.0062  -0.0018   0.00   25.4
2173 201099.000   -828647.9389  -5494333.1204   3121536.8614   1   8   0.0040   0.0114   0.0055   0.0026  -0.0062  -0.0015   0.00   25.4
2173 201100.000   -828647.9382  -5494333.1198   3121536.8594   1   8   0.0038   0.0114   0.0056   0.0029  -0.0061  -0.0012   0.00   25.3
2173 201101.000   -828647.9396  -5494333.1291   3121536.8646   1   8   0.0041   0.0114   0.0059   0.0028  -0.0062  -0.0017   0.00   25.2
2173 201102.000   -828647.9387  -5494333.1247   3121536.8644   1   8   0.0036   0.0114   0.0055   0.0024  -0.0063  -0.0015   0.00   25.2
2173 201103.000   -828647.9377  -5494333.1257   3121536.8624   1   8   0.0039   0.0114   0.0057   0.0025  -0.0063  -0.0011   0.00   25.2
2173 201104.000   -828647.9395  -5494333.1244   3121536.8644   1   8   0.0034   0.0114   0.0056   0.0024  -0.0064  -0.0016   0.00   25.2
2173 201105.000   -828647.9383  -5494333.1197   3121536.8608   1   8   0.0041   0.0114   0.0055   0.0023  -0.0062   0.0009   0.00   25.1
2173 201106.000   -828647.9381  -5494333.1174   3121536.8609   1   8   0.0041   0.0114   0.0056   0.0025  -0.0064  -0.0020   0.00   25.1
2173 201107.000   -828647.9382  -5494333.1201   3121536.8611   1   8   0.0036   0.0114   0.0053   0.0027  -0.0061   0.0009   0.00   25.1
2173 201108.000   -828647.9380  -5494333.1144   3121536.8591   1   8   0.0038   0.0114   0.0057   0.0019  -0.0062  -0.0017   0.00   25.0
2173 201109.000   -828647.9384  -5494333.1202   3121536.8618   1   8   0.0036   0.0114   0.0057   0.0029  -0.0060  -0.0015   0.00   25.0
2173 201110.000   -828647.9387  -5494333.1280   3121536.8614   1   8   0.0038   0.0113   0.0058   0.0027  -0.0062  -0.0023   0.00   25.0
2173 201111.000   -828647.9365  -5494333.1224   3121536.8614   1   8   0.0039   0.0114   0.0056   0.0026  -0.0061  -0.0011   0.00   25.0
2173 201112.000   -828647.9384  -5494333.1197   3121536.8607   1   8   0.0040   0.0114   0.0055   0.0029  -0.0060  -0.0012   0.00   24.9
2173 201113.000   -828647.9397  -5494333.1264   3121536.8614   1   8   0.0041   0.0114   0.0056   0.0024  -0.0062  -0.0015   0.00   24.9
2173 201114.000   -828647.9379  -5494333.1140   3121536.8585   1   8   0.0037   0.0114   0.0056   0.0026  -0.0062  -0.0015   0.00   24.8
2173 201115.000   -828647.9374  -5494333.1117   3121536.8576   1   8   0.0044   0.0114   0.0057   0.0025  -0.0063  -0.0002   0.00   24.8
2173 201116.000   -828647.9378  -5494333.1100   3121536.8596   1   8   0.0043   0.0114   0.0058   0.0024  -0.0060  -0.0009   0.00   24.8
2173 201117.000   -828647.9368  -5494333.1089   3121536.8579   1   8   0.0042   0.0115   0.0056   0.0025  -0.0064  -0.0012   0.00   24.8
2173 201118.000   -828647.9376  -5494333.1093   3121536.8574   1   8   0.0040   0.0114   0.0057   0.0028  -0.0060   0.0007   0.00   24.8
2173 201119.000   -828647.9405  -5494333.1204   3121536.8609   1   8   0.0044   0.0114   0.0056   0.0026  -0.0062  -0.0012   0.00   24.8
2173 201120.000   -828647.9384  -5494333.1140   3121536.8592   1   8   0.0039   0.0114   0.0054   0.0026  -0.0060  -0.0013   0.00   24.7
2173 201121.000   -828647.9388  -5494333.1159   3121536.8588   1   8   0.0038   0.0114   0.0052   0.0022  -0.0061  -0.0015   0.00   24.7
2173 201122.000   -828647.9402  -5494333.1203   3121536.8586   1   8   0.0038   0.0114   0.0057   0.0026  -0.0062  -0.0020   0.00   24.6
2173 201123.000   -828647.9387  -5494333.1206   3121536.8608   1   8   0.0041   0.0114   0.0055   0.0026  -0.0062  -0.0009   0.00   24.6
2173 201124.000   -828647.9384  -5494333.1163   3121536.8596   1   8   0.0043   0.0114   0.0056   0.0029  -0.0063   0.0005   0.00   24.6
2173 201125.000   -828647.9386  -5494333.1187   3121536.8602   1   8   0.0046   0.0113   0.0056   0.0028  -0.0063  -0.0013   0.00   24.6
2173 201126.000   -828647.9389  -5494333.1238   3121536.8602   1   8   0.0040   0.0113   0.0057   0.0027  -0.0062  -0.0004   0.00   24.6
2173 201127.000   -828647.9389  -5494333.1205   3121536.8601   1   8   0.0041   0.0113   0.0058   0.0027  -0.0062  -0.0015   0.00   24.6
2173 201128.000   -828647.9392  -5494333.1151   3121536.8574   1   8   0.0036   0.0114   0.0055   0.0023  -0.0061  -0.0017   0.00   24.5
2173 201129.000   -828647.9391  -5494333.1186   3121536.8589   1   8   0.0037   0.0114   0.0053   0.0024  -0.0061  -0.0013   0.00   24.5
2173 201130.000   -828647.9401  -5494333.1221   3121536.8607   1   8   0.0038   0.0113   0.0054   0.0028  -0.0062  -0.0013   0.00   24.5
2173 201131.000   -828647.9393  -5494333.1198   3121536.8584   1   8   0.0037   0.0113   0.0057   0.0028  -0.0064  -0.0020   0.00   24.4
2173 201132.000   -828647.9401  -5494333.1197   3121536.8576   1   8   0.0043   0.0114   0.0055   0.0023  -0.0062  -0.0018   0.00   24.4
2173 201133.000   -828647.9400  -5494333.1211   3121536.8586   1   8   0.0039   0.0113   0.0054   0.0030  -0.0061  -0.0015   0.00   24.4
2173 201134.000   -828647.9394  -5494333.1176   3121536.8577   1   8   0.0041   0.0114   0.0056   0.0027  -0.0061  -0.0002   0.00   24.4
2173 201135.000   -828647.9414  -5494333.1166   3121536.8592   1   8   0.0043   0.0114   0.0057   0.0025  -0.0063  -0.0009   0.00   24.4
2173 201136.000   -828647.9388  -5494333.1155   3121536.8588   1   8   0.0037   0.0114   0.0058   0.0021  -0.0062  -0.0012   0.00   24.4
2173 201137.000   -828647.9387  -5494333.1200   3121536.8608   1   8   0.0043   0.0114   0.0056   0.0023  -0.0063  -0.0016   0.00   24.4
2173 201138.000   -828647.9403  -5494333.1208   3121536.8605   1   8   0.0044   0.0114   0.0057   0.0024  -0.0062   0.0003   0.00   24.4
2173 201139.000   -828647.9375  -5494333.1173   3121536.8585   1   8   0.0041   0.0114   0.0057   0.0026  -0.0063  -0.0003   0.00   24.4
2173 201140.000   -828647.9379  -5494333.1220   3121536.8585   1   8   0.0040   0.0114   0.0055   0.0024  -0.0062  -0.0011   0.00   24.4
2173 201141.000   -828647.9378  -5494333.1157   3121536.8569   1   8   0.0039   0.0114   0.0057   0.0024  -0.0061  -0.0013   0.00   24.4
2173 201142.000   -828647.9403  -5494333.1202   3121536.8588   1   8   0.0043   0.0114   0.0055   0.0026  -0.0062  -0.0015   0.00   24.4
2173 201143.000   -828647.9393  -5494333.1182   3121536.8573   1   8   0.0042   0.0113   0.0056   0.0025  -0.0061  -0.0021   0.00   24.3
2173 201144.000   -828647.9374  -5494333.1195   3121536.8589   1   8   0.0041   0.0114   0.0056   0.0022  -0.0062  -0.0013   0.00   24.3
2173 201145.000   -828647.9369  -5494333.1266   3121536.8626   1   8   0.0042   0.0113   0.0055   0.0027  -0.0062  -0.0019   0.00   24.4
2173 201146.000   -828647.9383  -5494333.1231   3121536.8622   1   8   0.0042   0.0113   0.0054   0.0026  -0.0062  -0.0022   0.00   24.4
2173 201147.000   -828647.9382  -5494333.1262   3121536.8630   1   8   0.0040   0.0113   0.0058   0.0029  -0.0062  -0.0007   0.00   24.4
2173 201148.000   -828647.9383  -5494333.1281   3121536.8635   1   8   0.0039   0.0114   0.0055   0.0030  -0.0061   0.0001   0.00   24.4
2173 201149.000   -828647.9384  -5494333.1242   3121536.8608   1   8   0.0039   0.0114   0.0061   0.0028  -0.0063  -0.0010   0.00   24.4
2173 201150.000   -828647.9378  -5494333.1236   3121536.8611   1   8   0.0045   0.0114   0.0057   0.0020  -0.0062  -0.0011   0.00   24.4
2173 201151.000   -828647.9377  -5494333.1283   3121536.8628   1   8   0.0036   0.0114   0.0055   0.0026  -0.0060  -0.0010   0.00   24.4
2173 201152.000   -828647.9380  -5494333.1203   3121536.8586   1   8   0.0040   0.0114   0.0057   0.0025  -0.0062  -0.0009   0.00   24.4
2173 201153.000   -828647.9376  -5494333.1227   3121536.8594   1   8   0.0044   0.0113   0.0056   0.0023  -0.0063  -0.0018   0.00   24.4
2173 201154.000   -828647.9385  -5494333.1267   3121536.8621   1   8   0.0041   0.0113   0.0055   0.0020  -0.0063   0.0003   0.00   24.4
2173 201155.000   -828647.9383  -5494333.1268   3121536.8624   1   8   0.0037   0.0113   0.0057   0.0030  -0.0061  -0.0016   0.00   24.4
2173 201156.000   -828647.9369  -5494333.1200   3121536.8604   1   8   0.0038   0.0113   0.0059   0.0026  -0.0064  -0.0018   0.00   24.4
2173 201157.000   -828647.9377  -5494333.1234   3121536.8626   1   8   0.0037   0.0114   0.0054   0.0027  -0.0060  -0.0012   0.00   24.4
2173 201158.000   -828647.9364  -5494333.1280   3121536.8621   1   8   0.0041   0.0114   0.0059   0.0019  -0.0064  -0.0017   0.00   24.4
2173 201159.000   -828647.9371  -5494333.1247   3121536.8605   1   8   0.0043   0.0114   0.0056   0.0028  -0.0062  -0.0013   0.00   24.4
2173 201160.000   -828647.9359  -5494333.1235   3121536.8603   1   8   0.0040   0.0113   0.0057   0.0029  -0.0062  -0.0021   0.00   24.4
2173 201161.000   -828647.9367  -5494333.1219   3121536.8602   1   8   0.0038   0.0113   0.0056   0.0028  -0.0060  -0.0013   0.00   24.4
2173 201162.000   -828647.9371  -5494333.1224   3121536.8597   1   8   0.0040   0.0113   0.0057   0.0022  -0.0063  -0.0008   0.00   24.4
2173 201163.000   -828647.9385  -5494333.1233   3121536.8599   1   8   0.0041   0.0114   0.0058   0.0024  -0.0062   0.0014   0.00   24.3
2173 201164.000   -828647.9363  -5494333.1253   3121536.8582   1   8   0.0041   0.0113   0.0058   0.0025  -0.0062  -0.0018   0.00   24.3
2173 201165.000   -828647.9374  -5494333.1239   3121536.8590   1   8   0.0041   0.0113   0.0056   0.0024  -0.0062  -0.0009   0.00   24.3
2173 201166.000   -828647.9394  -5494333.1220   3121536.8573   1   8   0.0039   0.0113   0.0057   0.0027  -0.0061  -0.0015   0.00   24.4
2173 201167.000   -828647.9371  -5494333.1198   3121536.8574   1   8   0.0036   0.0113   0.0053   0.0024  -0.0060  -0.0021   0.00   24.4
2173 201168.000   -828647.9375  -5494333.1189   3121536.8608   1   8   0.0044   0.0113   0.0058   0.0028  -0.0063  -0.0017   0.00   24.4
2173 201169.000   -828647.9388  -5494333.1285   3121536.8619   1   8   0.0039   0.0114   0.0055   0.0024  -0.0061  -0.0021   0.00   24.4
2173 201170.000   -828647.9392  -5494333.1229   3121536.8626   1   8   0.0037   0.0113   0.0055   0.0024  -0.0061  -0.0012   0.00   24.5
2173 201171.000   -828647.9387  -5494333.1234   3121536.8613   1   8   0.0038   0.0113   0.0053   0.0026  -0.0062  -0.0017   0.00   24.5
2173 201172.000   -828647.9405  -5494333.1253   3121536.8633   1   8   0.0040   0.0113   0.0057   0.0028  -0.0062  -0.0019   0.00   24.5
2173 201173.000   -828647.9401  -5494333.1221   3121536.8583   1   8   0.0037   0.0114   0.0054   0.0026  -0.0061   0.0005   0.00   24.6
2173 201174.000   -828647.9370  -5494333.1188   3121536.8581   1   8   0.0044   0.0114   0.0057   0.0029  -0.0060  -0.0011   0.00   24.6
2173 201175.000   -828647.9367  -5494333.1216   3121536.8600   1   8   0.0040   0.0113   0.0055   0.0030  -0.0061  -0.0010   0.00   24.5
2173 201176.000   -828647.9381  -5494333.1254   3121536.8597   1   8   0.0041   0.0114   0.0057   0.0019  -0.0062   0.0006   0.00   24.5
2173 201177.000   -828647.9385  -5494333.1210   3121536.8606   1   8   0.0043   0.0113   0.0055   0.0026  -0.0062  -0.0014   0.00   24.6
2173 201178.000   -828647.9375  -5494333.1212   3121536.8593   1   8   0.0042   0.0113   0.0054   0.0026  -0.0060  -0.0009   0.00   24.6
2173 201179.000   -828647.9374  -5494333.1154   3121536.8566   1   8   0.0042   0.0114   0.0056   0.0021  -0.0062   0.0009   0.00   24.6
2173 201180.000   -828647.9388  -5494333.1165   3121536.8591   1   8   0.0041   0.0113   0.0054   0.0027  -0.0060  -0.0014   0.00   24.7
2173 201181.000   -828647.9404  -5494333.1167   3121536.8586   1   8   0.0044   0.0114   0.0056   0.0023  -0.0061  -0.0007   0.00   24.6
2173 201182.000   -828647.9386  -5494333.1146   3121536.8576   1   8   0.0043   0.0113   0.0056   0.0025  -0.0063  -0.0012   0.00   24.7
2173 201183.000   -828647.9383  -5494333.1204   3121536.8596   1   8   0.0041   0.0113   0.0057   0.0022  -0.0062   0.0014   0.00   24.7
2173 201184.000   -828647.9389  -5494333.1187   3121536.8577   1   8   0.0036   0.0113   0.0056   0.0024  -0.0062  -0.0019   0.00   24.7
2173 201185.000   -828647.9390  -5494333.1184   3121536.8574   1   8   0.0040   0.0113   0.0054   0.0029  -0.0061  -0.0006   0.00   24.8
2173 201186.000   -828647.9373  -5494333.1183   3121536.8556   1   8   0.0043   0.0114   0.0059   0.0022  -0.0062  -0.0005   0.00   24.8
2173 201187.000   -828647.9396  -5494333.1210   3121536.8579   1   8   0.0035   0.0113   0.0053   0.0019  -0.0060  -0.0014   0.00   24.9
2173 201188.000   -828647.9362  -5494333.1224   3121536.8593   1   8   0.0043   0.0113   0.0056   0.0027  -0.0062  -0.0019   0.00   25.0
2173 201189.000   -828647.9378  -5494333.1248   3121536.8587   1   8   0.0039   0.0114   0.0057   0.0022  -0.0062  -0.0005   0.00   25.1
2173 201190.000   -828647.9368  -5494333.1229   3121536.8593   1   8   0.0041   0.0112   0.0054   0.0025  -0.0061   0.0009   0.00   25.2
2173 201191.000   -828647.9366  -5494333.1210   3121536.8580   1   8   0.0040   0.0112   0.0055   0.0026  -0.0062  -0.0018   0.00   25.2
2173 201192.000   -828647.9362  -5494333.1208   3121536.8609   1   8   0.0036   0.0113   0.0054   0.0020  -0.0062   0.0007   0.00   25.3
2173 201193.000   -828647.9355  -5494333.1207   3121536.8598   1   8   0.0043   0.0113   0.0056   0.0024  -0.0062  -0.0013   0.00   25.3
2173 201194.000   -828647.9365  -5494333.1219   3121536.8595   1   8   0.0040   0.0113   0.0056   0.0021  -0.0061  -0.0010   0.00   25.4
2173 201195.000   -828647.9366  -5494333.1196   3121536.8600   1   8   0.0037   0.0113   0.0055   0.0029  -0.0060  -0.0015   0.00   25.5
2173 201196.000   -828647.9366  -5494333.1194   3121536.8576   1   8   0.0038   0.0113   0.0058   0.0028  -0.0062   0.0015   0.00   25.5
2173 201197.000   -828647.9372  -5494333.1221   3121536.8597   1   8   0.0038   0.0114   0.0057   0.0021  -0.0061  -0.0003   0.00   25.5
2173 201198.000   -828647.9374  -5494333.1184   3121536.8579   1   8   0.0042   0.0113   0.0057   0.0028  -0.0061  -0.0017   0.00   25.6
2173 201199.000   -828647.9365  -5494333.1237   3121536.8592   1   8   0.0043   0.0114   0.0057   0.0026  -0.0062  -0.0015   0.00   25.6
2173 201200.000   -828647.9352  -5494333.1172   3121536.8583   1   8   0.0040   0.0112   0.0056   0.0032  -0.0062  -0.0019   0.00   25.7
2173 201201.000   -828647.9356  -5494333.1234   3121536.8618   1   8   0.0040   0.0113   0.0054   0.0027  -0.0061  -0.0017   0.00   25.7
2173 201202.000   -828647.9360  -5494333.1219   3121536.8610   1   8   0.0039   0.0113   0.0056   0.0030  -0.0061  -0.0021   0.00   25.8
2173 201203.000   -828647.9349  -5494333.1206   3121536.8594   1   8   0.0043   0.0114   0.0057   0.0026  -0.0061  -0.0005   0.00   25.9
2173 201204.000   -828647.9364  -5494333.1243   3121536.8603   1   8   0.0033   0.0112   0.0054   0.0026  -0.0062  -0.0017   0.00   26.0
2173 201205.000   -828647.9378  -5494333.1194   3121536.8593   1   8   0.0041   0.0114   0.0058   0.0024  -0.0062  -0.0015   0.00   26.1
2173 201206.000   -828647.9381  -5494333.1248   3121536.8602   1   8   0.0042   0.0113   0.0057   0.0025  -0.0064  -0.0014   0.00   26.1
2173 201207.000   -828647.9374  -5494333.1225   3121536.8586   1   8   0.0041   0.0113   0.0055   0.0021  -0.0062  -0.0014   0.00   26.2
2173 201208.000   -828647.9359  -5494333.1177   3121536.8595   1   8   0.0039   0.0113   0.0054   0.0026  -0.0062  -0.0011   0.00   26.3
2173 201209.000   -828647.9372  -5494333.1230   3121536.8592   1   8   0.0040   0.0112   0.0058   0.0019  -0.0063  -0.0010   0.00   26.3
2173 201210.000   -828647.9376  -5494333.1215   3121536.8604   1   8   0.0039   0.0112   0.0056   0.0027  -0.0062  -0.0022   0.00   26.4
2173 201211.000   -828647.9359  -5494333.1182   3121536.8597   1   8   0.0039   0.0113   0.0056   0.0027  -0.0061  -0.0020   0.00   26.5
2173 201212.000   -828647.9370  -5494333.1196   3121536.8604   1   8   0.0038   0.0113   0.0056   0.0029  -0.0061  -0.0013   0.00   26.6
2173 201213.000   -828647.9374  -5494333.1219   3121536.8605   1   8   0.0042   0.0113   0.0053   0.0027  -0.0061   0.0001   0.00   26.6
2173 201214.000   -828647.9366  -5494333.1226   3121536.8600   1   8   0.0043   0.0113   0.0056   0.0023  -0.0062  -0.0006   0.00   26.7
2173 201215.000   -828647.9369  -5494333.1188   3121536.8609   1   8   0.0043   0.0113   0.0055   0.0020  -0.0061  -0.0020   0.00   26.8
2173 201216.000   -828647.9373  -5494333.1122   3121536.8569   1   8   0.0040   0.0113   0.0055   0.0023  -0.0061  -0.0007   0.00   26.9
2173 201217.000   -828647.9369  -5494333.1244   3121536.8608   1   8   0.0037   0.0113   0.0055   0.0030  -0.0060  -0.0004   0.00   26.9
2173 201218.000   -828647.9347  -5494333.1242   3121536.8617   1   8   0.0036   0.0113   0.0056   0.0024  -0.0062   0.0009   0.00   27.0
2173 201219.000   -828647.9367  -5494333.1215   3121536.8604   1   8   0.0038   0.0112   0.0058   0.0023  -0.0062  -0.0018   0.00   27.0
2173 201220.000   -828647.9374  -5494333.1161   3121536.8584   1   8   0.0040   0.0112   0.0052   0.0021  -0.0062  -0.0021   0.00   27.1
2173 201221.000   -828647.9364  -5494333.1229   3121536.8609   1   8   0.0035   0.0113   0.0057   0.0024  -0.0061  -0.0009   0.00   27.1
2173 201222.000   -828647.9386  -5494333.1110   3121536.8575   1   8   0.0037   0.0113   0.0054   0.0023  -0.0061   0.0004   0.00   27.2
2173 201223.000   -828647.9356  -5494333.1193   3121536.8598   1   8   0.0037   0.0113   0.0056   0.0026  -0.0062  -0.0015   0.00   27.2
2173 201224.000   -828647.9381  -5494333.1216   3121536.8614   1   8   0.0035   0.0113   0.0056   0.0019  -0.0062   0.0006   0.00   27.3
2173 201225.000   -828647.9366  -5494333.1227   3121536.8618   1   8   0.0039   0.0113   0.0053   0.0024  -0.0061  -0.0014   0.00   27.4
2173 201226.000   -828647.9357  -5494333.1203   3121536.8596   1   8   0.0035   0.0113   0.0053   0.0026  -0.0061  -0.0017   0.00   27.5
2173 201227.000   -828647.9381  -5494333.1232   3121536.8608   1   8   0.0040   0.0113   0.0057   0.0026  -0.0060  -0.0008   0.00   27.6
2173 201228.000   -828647.9380  -5494333.1247   3121536.8614   1   8   0.0038   0.0113   0.0058   0.0024  -0.0062  -0.0014   0.00   27.6
2173 201229.000   -828647.9371  -5494333.1202   3121536.8592   1   8   0.0042   0.0113   0.0057   0.0019  -0.0063  -0.0017   0.00   27.7
2173 201230.000   -828647.9382  -5494333.1200   3121536.8601   1   8   0.0045   0.0113   0.0058   0.0027  -0.0061  -0.0023   0.00   27.7
2173 201231.000   -828647.9380  -5494333.1214   3121536.8606   1   8   0.0041   0.0112   0.0057   0.0025  -0.0063  -0.0012   0.00   27.8
2173 201232.000   -828647.9382  -5494333.1210   3121536.8602   1   8   0.0041   0.0112   0.0053   0.0027  -0.0060  -0.0012   0.00   27.8
2173 201233.000   -828647.9392  -5494333.1238   3121536.8614   1   8   0.0039   0.0112   0.0058   0.0019  -0.0063  -0.0014   0.00   27.9
2173 201234.000   -828647.9408  -5494333.1249   3121536.8630   1   8   0.0037   0.0112   0.0054   0.0022  -0.0061   0.0017   0.00   27.9
2173 201235.000   -828647.9381  -5494333.1190   3121536.8604   1   8   0.0044   0.0112   0.0057   0.0024  -0.0062  -0.0010   0.00   27.9
2173 201236.000   -828647.9395  -5494333.1203   3121536.8604   1   8   0.0040   0.0113   0.0054   0.0020  -0.0061   0.0013   0.00   27.9
2173 201237.000   -828647.9397  -5494333.1178   3121536.8602   1   8   0.0035   0.0113   0.0054   0.0026  -0.0061  -0.0017   0.00   27.9
2173 201238.000   -828647.9383  -5494333.1207   3121536.8638   1   8   0.0041   0.0113   0.0055   0.0023  -0.0061  -0.0019   0.00   27.9
2173 201239.000   -828647.9371  -5494333.1209   3121536.8625   1   8   0.0044   0.0112   0.0053   0.0024  -0.0061  -0.0018   0.00   28.0
2173 201240.000   -828647.9394  -5494333.1173   3121536.8622   1   8   0.0039   0.0112   0.0057   0.0022  -0.0061   0.0005   0.00   28.0
2173 201241.000   -828647.9373  -5494333.1209   3121536.8617   1   8   0.0037   0.0112   0.0053   0.0027  -0.0061   0.0015   0.00   28.0
2173 201242.000   -828647.9397  -5494333.1211   3121536.8608   1   8   0.0041   0.0112   0.0059   0.0020  -0.0064  -0.0016   0.00   28.0
2173 201243.000   -828647.9401  -5494333.1205   3121536.8604   1   8   0.0043   0.0113   0.0056   0.0018  -0.0063  -0.0011   0.00   28.1
2173 201244.000   -828647.9390  -5494333.1221   3121536.8641   1   8   0.0037   0.0113   0.0056   0.0028  -0.0061  -0.0017   0.00   28.1
2173 201245.000   -828647.9376  -5494333.1227   3121536.8632   1   8   0.0042   0.0113   0.0057   0.0025  -0.0059  -0.0017   0.00   28.1
2173 201246.000   -828647.9390  -5494333.1272   3121536.8649   1   8   0.0040   0.0113   0.0056   0.0027  -0.0062  -0.0009   0.00   28.2
2173 201247.000   -828647.9387  -5494333.1226   3121536.8635   1   8   0.0036   0.0112   0.0057   0.0027  -0.0063  -0.0015   0.00   28.2
2173 201248.000   -828647.9394  -5494333.1258   3121536.8659   1   8   0.0042   0.0112   0.0056   0.0023  -0.0064  -0.0003   0.00   28.3
2173 201249.000   -828647.9375  -5494333.1233   3121536.8656   1   8   0.0039   0.0112   0.0056   0.0024  -0.0062  -0.0010   0.00   28.3
2173 201250.000   -828647.9394  -5494333.1241   3121536.8631   1   8   0.0036   0.0112   0.0055   0.0021  -0.0062  -0.0017   0.00   28.3
2173 201251.000   -828647.9386  -5494333.1192   3121536.8626   1   8   0.0041   0.0112   0.0056   0.0022  -0.0061  -0.0019   0.00   28.4
2173 201252.000   -828647.9393  -5494333.1211   3121536.8642   1   8   0.0043   0.0112   0.0056   0.0021  -0.0061  -0.0014   0.00   28.4
2173 201253.000   -828647.9376  -5494333.1171   3121536.8613   1   8   0.0041   0.0112   0.0059   0.0019  -0.0063  -0.0003   0.00   28.4
2173 201254.000   -828647.9420  -5494333.1204   3121536.8640   1   8   0.0042   0.0112   0.0060   0.0025  -0.0063  -0.0010   0.00   28.5
2173 201255.000   -828647.9397  -5494333.1226   3121536.8631   1   8   0.0042   0.0112   0.0055   0.0024  -0.0061  -0.0019   0.00   28.5
2173 201256.000   -828647.9401  -5494333.1210   3121536.8622   1   8   0.0041   0.0112   0.0057   0.0023  -0.0063  -0.0020   0.00   28.5
2173 201257.000   -828647.9404  -5494333.1260   3121536.8650   1   8   0.0041   0.0112   0.0056   0.0026  -0.0061  -0.0007   0.00   28.6
2173 201258.000   -828647.9390  -5494333.1287   3121536.8651   1   8   0.0040   0.0112   0.0058   0.0025  -0.0061  -0.0011   0.00   28.6
2173 201259.000   -828647.9408  -5494333.1240   3121536.8642   1   8   0.0041   0.0112   0.0056   0.0026  -0.0062  -0.0014   0.00   28.7
2173 201260.000   -828647.9396  -5494333.1238   3121536.8662   1   8   0.0037   0.0112   0.0054   0.0028  -0.0060  -0.0015   0.00   28.8
2173 201261.000   -828647.9393  -5494333.1172   3121536.8622   1   8   0.0039   0.0112   0.0057   0.0022  -0.0062  -0.0005   0.00   28.8
2173 201262.000   -828647.9382  -5494333.1167   3121536.8624   1   8   0.0037   0.0112   0.0059   0.0024  -0.0061  -0.0005   0.00   28.8
2173 201263.000   -828647.9406  -5494333.1202   3121536.8622   1   8   0.0040   0.0113   0.0057   0.0021  -0.0060  -0.0009   0.00   28.8
2173 201264.000   -828647.9936  -5494333.1106   3121536.8452   2   9   0.0190   0.0268   0.0128   0.0017   0.0064   0.0060   0.00    1.1
2173 201265.000   -828647.9931  -5494333.1081   3121536.8449   2   9   0.0190   0.0264   0.0128   0.0020   0.0066   0.0059   0.00    1.1
2173 201266.000   -828647.9948  -5494333.1091   3121536.8467   2   9   0.0190   0.0262   0.0127   0.0023   0.0067   0.0060   0.00    1.2
2173 201267.000   -828647.9927  -5494333.1052   3121536.8449   2   9   0.0189   0.0262   0.0128   0.0027   0.0068   0.0059   0.00    1.3
2173 201268.000   -828647.9936  -5494333.1029   3121536.8432   2   9   0.0188   0.0260   0.0126   0.0025   0.0068   0.0061   0.00    1.3
2173 201269.000   -828647.9936  -5494333.1081   3121536.8444   2   9   0.0188   0.0260   0.0127   0.0028   0.0069   0.0064   0.00    1.4
2173 201270.000   -828647.9934  -5494333.1083   3121536.8435   2   9   0.0189   0.0259   0.0126   0.0026   0.0069   0.0060   0.00    1.5
2173 201271.000   -828647.9926  -5494333.1142   3121536.8476   2   9   0.0187   0.0258   0.0127   0.0026   0.0069   0.0061   0.00    1.5
2173 201272.000   -828647.9931  -5494333.1107   3121536.8472   2   9   0.0188   0.0258   0.0127   0.0027   0.0068   0.0063   0.00    1.6
2173 201273.000   -828647.9921  -5494333.1091   3121536.8450   2   9   0.0187   0.0257   0.0125   0.0023   0.0067   0.0060   0.00    1.6
2173 201274.000   -828647.9915  -5494333.1102   3121536.8455   2   9   0.0188   0.0257   0.0126   0.0022   0.0068   0.0060   0.00    1.7
2173 201275.000   -828647.9915  -5494333.1053   3121536.8443   2   9   0.0186   0.0256   0.0124   0.0024   0.0068   0.0061   0.00    1.7
2173 201276.000   -828647.9891  -5494333.1078   3121536.8462   2   9   0.0186   0.0255   0.0126   0.0029   0.0068   0.0059   0.00    1.8
2173 201277.000   -828647.9893  -5494333.1087   3121536.8468   2   9   0.0187   0.0255   0.0124   0.0020   0.0067   0.0058   0.00    1.8
2173 201278.000   -828647.9883  -5494333.1039   3121536.8460   2   9   0.0187   0.0254   0.0123   0.0028   0.0068   0.0060   0.00    1.9
2173 201279.000   -828647.9873  -5494333.1045   3121536.8454   2   9   0.0187   0.0253   0.0125   0.0024   0.0068   0.0060   0.00    1.9
2173 201280.000   -828647.9865  -5494333.1088   3121536.8476   2   9   0.0185   0.0253   0.0124   0.0029   0.0069   0.0058   0.00    2.0
2173 201281.000   -828647.9872  -5494333.1081   3121536.8481   2   9   0.0186   0.0252   0.0125   0.0022   0.0066   0.0062   0.00    2.0
2173 201282.000   -828647.9857  -5494333.1084   3121536.8466   2   9   0.0185   0.0251   0.0124   0.0023   0.0066   0.0062   0.00    2.1
2173 201283.000   -828647.9852  -5494333.1054   3121536.8450   2   9   0.0185   0.0251   0.0122   0.0026   0.0068   0.0061   0.00    2.1
2173 201284.000   -828647.9859  -5494333.1118   3121536.8501   2   9   0.0184   0.0251   0.0123   0.0024   0.0067   0.0058   0.00    2.2
2173 201285.000   -828647.9835  -5494333.1080   3121536.8464   2   9   0.0185   0.0250   0.0123   0.0022   0.0067   0.0056   0.00    2.2
2173 201286.000   -828647.9830  -5494333.1065   3121536.8482   2   9   0.0184   0.0249   0.0120   0.0024   0.0067   0.0060   0.00    2.3
2173 201287.000   -828647.9838  -5494333.1077   3121536.8474   2   9   0.0184   0.0249   0.0124   0.0021   0.0066   0.0059   0.00    2.3
2173 201288.000   -828647.9819  -5494333.1076   3121536.8464   2   9   0.0183   0.0248   0.0121   0.0025   0.0068   0.0059   0.00    2.3
2173 201289.000   -828647.9826  -5494333.1083   3121536.8481   2   9   0.0183   0.0247   0.0121   0.0027   0.0066   0.0060   0.00    2.4
