     2.11           OBSERVATION DATA    M (MIXED)           RINEX VERSION / TYPE
CONVBIN 2.4.3                           20210902 202107 UTC PGM / RUN BY / DATE 
log: logs/21_09_01_12_13_07_gacc_SW.rtcm                    COMMENT             
format: RTCM 3, station ID: 2234                            COMMENT             
2234                                                        MARKER NAME         
                                                            MARKER NUMBER       
                                                            OBSERVER / AGENCY   
                    SWFT                                    REC # / TYPE / VERS 
                    NULL                                    ANT # / TYPE        
   735718.1790 -5325111.8987  3421118.2203                  APPROX POSITION XYZ 
        0.0000        0.0000        0.0000                  ANTENNA: DELTA H/E/N
     1     1                                                WAVELENGTH FACT L1/2
     5    C1    L1    P2    L2    C2                        # / TYPES OF OBSERV 
  2021     9     1    12    13   12.0000000     GPS         TIME OF FIRST OBS   
  2021     9     1    12    43   10.0000000     GPS         TIME OF LAST OBS    
                                                            END OF HEADER       
 21  9  1 12 13 12.0000000  0 13G 2G 3G 6G12G14G17G19G24C23C27C28C33
                                E21
  22426320.338   117851127.165    22426318.480    91832052.012                  
  23991264.567   126074906.587    23991267.784    98240176.433                  
  20392749.421   107164584.471    20392752.244    83504861.136                  
  24490731.885   128699669.567    24490731.921   100285458.148                  
  21856282.513   114855541.333    21856283.317    89497826.887                  
  21641892.995   113728923.722    21641892.727    88619942.058                  
  20627220.307   108396793.570    20627218.199    84465039.292                  
  23851805.938   125342040.785    23851809.155    97669111.273                  
                 135565549.413                   135565549.413    26033934.159  
                 118550938.778                   118550938.778    22766460.282  
                 117137705.463                   117137705.463    22495063.828  
                 127566611.046                   127566611.046    24497860.089  
  23989413.980   126065193.548                                                  
 21  9  1 12 13 13.0000000  0 13G 2G 3G 6G12G14G17G19G24C23C27C28C33
                                E21
  22425991.244   117849397.692    22425989.368    91830704.371                  
  23991732.075   126077363.425    23991735.309    98242090.856                  
  20392701.228   107164331.208    20392704.033    83504663.788                  
  24490058.419   128696130.496    24490058.455   100282700.430                  
  21856808.791   114858307.001    21856809.613    89499981.953                  
  21642065.145   113729828.242    21642064.859    88620646.879                  
  20627227.562   108396831.700    20627225.453    84465069.004                  
  23851952.214   125342809.458    23851955.413    97669710.239                  
                 135568823.535                   135568823.535    26034562.917  
                 118549863.176                   118549863.176    22766253.716  
                 117138659.250                   117138659.250    22495246.985  
                 127565549.605                   127565549.605    24497656.257  
  23989708.301   126066740.149                                                  
 21  9  1 12 13 14.0000000  0 13G 2G 3G 6G12G14G17G19G24C23C27C28C33
                                E21
  22425662.204   117847668.565    22425660.328    91829356.999                  
  23992199.671   126079820.732    23992202.923    98244005.636                  
  20392653.124   107164078.417    20392655.948    83504466.808                  
  24489384.954   128692591.531    24489385.025   100279942.792                  
  21857335.159   114861073.062    21857335.981    89502137.323                  
  21642237.278   113730732.885    21642236.992    88621351.796                  
  20627234.853   108396870.060    20627232.762    84465098.894                  
  23852098.579   125343578.613    23852101.796    97670309.582                  
                 135572097.622                   135572097.622    26035191.674  
                 118548787.702                   118548787.702    22766047.186  
                 117139613.133                   117139613.133    22495430.178  
                 127564488.620                   127564488.620    24497452.496  
  23990002.675   126068287.149                                                  
 21  9  1 12 13 15.0000000  0 13G 2G 3G 6G12G14G17G19G24C23C27C28C33
                                E21
  22425333.218   117845939.718    22425331.341    91828009.804                  
  23992667.375   126082278.532    23992670.627    98245920.808                  
  20392605.093   107163826.057    20392607.916    83504270.153                  
  24488711.542   128689052.665    24488711.595   100277185.235                  
  21857861.598   114863839.552    21857862.420    89504293.043                  
  21642409.464   113731637.655    21642409.178    88622056.800                  
  20627242.197   108396908.677    20627240.106    84465129.000                  
  23852245.034   125344348.128    23852248.268    97670909.133                  
                 135575371.671                   135575371.671    26035820.431  
                 118547712.364                   118547712.364    22765840.673  
                 117140567.118                   117140567.118    22495613.372  
                 127563428.086                   127563428.086    24497248.843  
  23990297.138   126069834.546                                                  
 21  9  1 12 13 16.0000000  0 13G 2G 3G 6G12G14G17G19G24C23C27C28C33
                                E21
  22425004.303   117844211.289    22425002.444    91826662.977                  
  23993135.186   126084736.807    23993138.402    98247836.351                  
  20392557.168   107163574.188    20392559.991    83504073.891                  
  24488038.148   128685513.893    24488038.183   100274427.750                  
  21858388.127   114866606.411    21858388.931    89506449.035                  
  21642581.667   113732542.563    21642581.381    88622761.922                  
  20627249.577   108396947.491    20627247.486    84465159.246                  
  23852391.596   125345118.274    23852394.794    97671509.247                  
                 135578645.685                   135578645.685    26036449.188  
                 118546637.155                   118546637.155    22765634.197  
                 117141521.195                   117141521.195    22495796.601  
                 127562368.008                   127562368.008    24497045.261  
  23990591.674   126071382.344                                                  
 21  9  1 12 13 17.0000000  0 13G 2G 3G 6G12G14G17G19G24C23C27C28C33
                                E21
  22424675.459   117842483.216    22424673.601    91825316.426                  
  23993603.069   126087195.555    23993606.303    98249752.257                  
  20392509.315   107163322.785    20392512.156    83503877.992                  
  24487364.736   128681975.210    24487364.807   100271670.339                  
  21858914.727   114869373.675    21858915.513    89508605.344                  
  21642753.871   113733447.605    21642753.603    88623467.148                  
  20627257.028   108396986.519    20627254.902    84465189.656                  
  23852538.247   125345888.910    23852541.463    97672109.743                  
                 135581919.661                   135581919.661    26037077.892  
                 118545562.082                   118545562.082    22765427.738  
                 117142475.375                   117142475.375    22495979.847  
                 127561308.382                   127561308.382    24496841.769  
  23990886.280   126072930.527                                                  
 21  9  1 12 13 18.0000000  0 13G 2G 3G 6G12G14G17G19G24C23C27C28C33
                                E21
  22424346.687   117840755.489    22424344.828    91823970.145                  
  23994071.040   126089654.784    23994074.257    98251668.539                  
  20392461.586   107163071.854    20392464.392    83503682.460                  
  24486691.377   128678436.620    24486691.413   100268912.996                  
  21859441.381   114872141.341    21859442.203    89510761.965                  
  21642926.129   113734352.768    21642925.843    88624172.472                  
  20627264.479   108397025.761    20627262.389    84465220.234                  
  23852684.987   125346660.042    23852688.204    97672710.625                  
                 135585193.603                   135585193.603    26037706.632  
                 118544487.137                   118544487.137    22765221.297  
                 117143429.647                   117143429.647    22496163.094  
                 127560249.214                   127560249.214    24496638.366  
  23991180.976   126074479.114                                                  
 21  9  1 12 13 19.0000000  0 13G 2G 3G 6G12G14G17G19G24C23C27C28C33
                                E21
  22424017.986   117839028.114    22424016.092    91822624.141                  
  23994539.102   126092114.489    23994542.336    98253585.192                  
  20392413.912   107162821.387    20392416.735    83503487.293                  
  24486018.019   128674898.133    24486018.055   100266155.732                  
  21859968.124   114874909.403    21859968.946    89512918.894                  
  21643098.404   113735258.075    21643098.118    88624877.906                  
  20627272.002   108397065.241    20627269.876    84465251.000                  
  23852831.817   125347431.664    23852835.015    97673311.886                  
                 135588467.507                   135588467.507    26038335.353  
                 118543412.326                   118543412.326    22765014.892  
                 117144384.025                   117144384.025    22496346.377  
                 127559190.500                   127559190.500    24496435.052  
  23991475.743   126076028.095                                                  
 21  9  1 12 13 20.0000000  0 13G 2G 3G 6G12G14G17G19G24C23C27C28C33
                                E21
  22423689.339   117837301.083    22423687.463    91821278.403                  
  23995007.252   126094574.663    23995010.486    98255502.211                  
  20392366.345   107162571.387    20392369.168    83503292.488                  
  24485344.678   128671359.749    24485344.732   100263398.551                  
  21860494.938   114877677.859    21860495.760    89515076.137                  
  21643270.697   113736163.508    21643270.429    88625583.438                  
  20627279.543   108397104.945    20627277.434    84465281.938                  
  23852978.754   125348203.782    23852981.952    97673913.539                  
                 135591741.375                   135591741.375    26038964.057  
                 118542337.639                   118542337.639    22764808.523  
                 117145338.495                   117145338.495    22496529.659  
                 127558132.237                   127558132.237    24496231.827  
  23991770.582   126077577.493                                                  
 21  9  1 12 13 21.0000000  0 13G 2G 3G 6G12G14G17G19G24C23C27C28C33
                                E21
  22423360.763   117835574.386    22423358.887    91819932.929                  
  23995475.492   126097035.313    23995478.744    98257419.605                  
  20392318.867   107162321.836    20392321.672    83503098.034                  
  24484671.374   128667821.441    24484671.427   100260641.430                  
  21861021.842   114880446.710    21861022.664    89517233.688                  
  21643443.026   113737069.076    21643442.740    88626289.078                  
  20627287.137   108397144.871    20627285.047    84465313.056                  
  23853125.780   125348976.387    23853128.979    97674515.571                  
                 135595015.206                   135595015.206    26039592.761  
                 118541263.093                   118541263.093    22764602.154  
                 117146293.070                   117146293.070    22496712.978  
                 127557074.431                   127557074.431    24496028.674  
  23992065.493   126079127.281                                                  
 21  9  1 12 13 22.0000000  0 13G 2G 3G 6G12G14G17G19G24C23C27C28C33
                                E21
  22423032.241   117833848.044    22423030.365    91818587.730                  
  23995943.839   126099496.440    23995947.073    98259337.371                  
  20392271.460   107162072.757    20392274.283    83502903.954                  
  24483998.069   128664283.218    24483998.122   100257884.378                  
  21861548.818   114883215.952    21861549.622    89519391.544                  
  21643615.355   113737974.761    21643615.087    88626994.816                  
  20627294.785   108397185.023    20627292.677    84465344.343                  
  23853272.896   125349749.488    23853276.094    97675117.992                  
                 135598289.005                   135598289.005    26040221.464  
                 118540188.671                   118540188.671    22764395.820  
                 117147247.738                   117147247.738    22496896.314  
                 127556017.078                   127556017.078    24495825.629  
  23992360.475   126080677.453                                                  
 21  9  1 12 13 23.0000000  0 13G 2G 3G 6G12G14G17G19G24C23C27C28C33
                                E21
  22422703.809   117832122.043    22422701.915    91817242.800                  
  23996412.276   126101958.046    23996415.492    98261255.508                  
  20392224.143   107161824.141    20392226.966    83502710.230                  
  24483324.782   128660745.089    24483324.836   100255127.399                  
  21862075.865   114885985.605    21862076.687    89521549.715                  
  21643787.737   113738880.587    21643787.451    88627700.656                  
  20627302.487   108397225.404    20627300.360    84465375.813                  
  23853420.101   125350523.082    23853423.299    97675720.797                  
                 135601562.761                   135601562.761    26040850.168  
                 118539114.386                   118539114.386    22764189.522  
                 117148202.504                   117148202.504    22497079.686  
                 127554960.178                   127554960.178    24495622.655  
  23992655.546   126082228.039                                                  
 21  9  1 12 13 24.0000000  0 13G 2G 3G 6G12G14G17G19G24C23C27C28C33
                                E21
  22422375.412   117830396.393    22422373.536    91815898.141                  
  23996880.801   126104420.122    23996884.018    98263174.004                  
  20392176.915   107161575.981    20392179.738    83502516.860                  
  24482651.513   128657207.048    24482651.567   100252370.484                  
  21862602.983   114888755.645    21862603.805    89523708.187                  
  21643960.137   113739786.548    21643959.851    88628406.598                  
  20627310.206   108397265.993    20627308.080    84465407.441                  
  23853567.395   125351297.160    23853570.594    97676323.977                  
                 135604836.484                   135604836.484    26041478.836  
                 118538040.229                   118538040.229    22763983.242  
                 117149157.370                   117149157.370    22497263.040  
                 127553903.738                   127553903.738    24495419.788  
  23992950.688   126083779.006                                                  
 21  9  1 12 13 25.0000000  0 13G 2G 3G 6G12G14G17G19G24C23C27C28C33
                                E21
  22422047.104   117828671.093    22422045.228    91814553.754                  
  23997349.399   126106882.676    23997352.615    98265092.879                  
  20392129.777   107161328.290    20392132.600    83502323.852                  
  24481978.280   128653669.106    24481978.315   100249613.649                  
  21863130.173   114891526.081    21863130.995    89525866.969                  
  21644132.556   113740692.632    21644132.288    88629112.637                  
  20627317.961   108397306.811    20627315.853    84465439.250                  
  23853714.797   125352071.740    23853717.995    97676927.544                  
                 135608110.173                   135608110.173    26042107.522  
                 118536966.206                   118536966.206    22763776.980  
                 117150112.335                   117150112.335    22497446.447  
                 127552847.746                   127552847.746    24495216.992  
  23993245.903   126085330.379                                                  
 21  9  1 12 13 26.0000000  0 13G 2G 3G 6G12G14G17G19G24C23C27C28C33
                                E21
  22421718.868   117826946.136    22421716.974    91813209.629                  
  23997818.103   126109345.702    23997821.319    98267012.121                  
  20392082.745   107161081.060    20392085.569    83502131.208                  
  24481305.046   128650131.265    24481305.082   100246856.887                  
  21863657.452   114894296.914    21863658.256    89528026.059                  
  21644304.992   113741598.837    21644304.724    88629818.769                  
  20627325.788   108397347.858    20627323.662    84465471.235                  
  23853862.306   125352846.815    23853865.504    97677531.497                  
                 135611383.820                   135611383.820    26042736.208  
                 118535892.314                   118535892.314    22763570.754  
                 117151067.398                   117151067.398    22497629.837  
                 127551792.213                   127551792.213    24495014.286  
  23993541.206   126086882.147                                                  
 21  9  1 12 13 27.0000000  0 13G 2G 3G 6G12G14G17G19G24C23C27C28C33
                                E21
  22421390.668   117825221.523    22421388.792    91811865.777                  
  23998286.897   126111809.210    23998290.113    98268931.735                  
  20392035.785   107160834.290    20392038.609    83501938.917                  
  24480631.849   128646593.523    24480631.884   100244100.208                  
  21864184.802   114897068.151    21864185.624    89530185.460                  
  21644477.481   113742505.182    21644477.195    88630525.016                  
  20627333.615   108397389.140    20627331.524    84465503.398                  
  23854009.886   125353622.378    23854013.084    97678135.832                  
                 135614657.433                   135614657.433    26043364.858  
                 118534818.552                   118534818.552    22763364.563  
                 117152022.555                   117152022.555    22497813.281  
                 127550737.137                   127550737.137    24494811.651  
  23993836.563   126088434.324                                                  
 21  9  1 12 13 28.0000000  0 13G 2G 3G 6G12G14G17G19G24C23C27C28C33
                                E21
  22421062.557   117823497.270    22421060.681    91810522.199                  
  23998755.780   126114273.187    23998758.996    98270851.714                  
  20391988.915   107160587.987    20391991.738    83501746.995                  
  24479958.633   128643055.870    24479958.687   100241343.594                  
  21864712.224   114899839.793    21864713.046    89532345.184                  
  21644649.989   113743411.672    21644649.703    88631231.367                  
  20627341.513   108397430.645    20627339.422    84465535.742                  
  23854157.555   125354398.434    23854160.754    97678740.550                  
                 135617931.008                   135617931.008    26043993.526  
                 118533744.921                   118533744.921    22763158.372  
                 117152977.813                   117152977.813    22497996.724  
                 127549682.512                   127549682.512    24494609.141  
  23994131.992   126089986.876                                                  
 21  9  1 12 13 29.0000000  0 13G 2G 3G 6G12G14G17G19G24C23C27C28C33
                                E21
  22420734.500   117821773.358    22420732.641    91809178.897                  
  23999224.735   126116737.636    23999227.969    98272772.067                  
  20391942.116   107160342.157    20391944.957    83501555.437                  
  24479285.454   128639518.310    24479285.525   100238587.054                  
  21865239.718   114902611.823    21865240.540    89534505.207                  
  21644822.496   113744318.281    21644822.228    88631937.821                  
  20627349.464   108397472.376    20627347.356    84465568.257                  
  23854305.314   125355174.969    23854308.549    97679345.640                  
                 135621204.546                   135621204.546    26044622.158  
                 118532671.424                   118532671.424    22762952.217  
                 117153933.173                   117153933.173    22498180.185  
                 127548628.343                   127548628.343    24494406.703  
  23994427.527   126091539.839                                                  
 21  9  1 12 13 30.0000000  0 13G 2G 3G 6G12G14G17G19G24C23C27C28C33
                                E21
  22420406.514   117820049.798    22420404.637    91807835.859                  
  23999693.796   126119202.567    23999697.013    98274692.790                  
  20391895.442   107160096.790    20391898.265    83501364.242                  
  24478612.292   128635980.853    24478612.363   100235830.594                  
  21865767.301   114905384.255    21865768.123    89536665.543                  
  21644995.040   113745225.029    21644994.754    88632644.375                  
  20627357.452   108397514.321    20627355.343    84465600.941                  
  23854453.198   125355952.008    23854456.397    97679951.129                  
                 135624478.048                   135624478.048    26045250.808  
                 118531598.058                   118531598.058    22762746.080  
                 117154888.626                   117154888.626    22498363.682  
                 127547574.630                   127547574.630    24494204.337  
  23994723.117   126093093.198                                                  
 21  9  1 12 13 31.0000000  0 13G 2G 3G 6G12G14G17G19G24C23C27C28C33
                                E21
  22420078.599   117818326.590    22420076.741    91806493.102                  
  24000162.966   126121667.976    24000166.182    98276613.886                  
  20391848.840   107159851.884    20391851.663    83501173.406                  
  24477939.184   128632443.496    24477939.219   100233074.212                  
  21866294.955   114908157.068    21866295.759    89538826.177                  
  21645167.619   113746131.899    21645167.333    88633351.027                  
  20627365.475   108397556.503    20627363.367    84465633.813                  
  23854601.154   125356729.540    23854604.353    97680556.996                  
                 135627751.513                   135627751.513    26045879.440  
                 118530524.820                   118530524.820    22762539.979  
                 117155844.175                   117155844.175    22498547.179  
                 127546521.368                   127546521.368    24494002.077  
  23995018.778   126094646.950                                                  
 21  9  1 12 13 32.0000000  0 13G 2G 3G 6G12G14G17G19G24C23C27C28C33
                                E21
  22419750.756   117816603.731    22419748.880    91805150.612                  
  24000632.206   126124133.846    24000635.423    98278535.347                  
  20391802.327   107159607.433    20391805.132    83500982.927                  
  24477266.057   128628906.247    24477266.093   100230317.914                  
  21866822.681   114910930.286    21866823.503    89540987.121                  
  21645340.216   113747038.905    21645339.948    88634057.785                  
  20627373.534   108397598.903    20627371.443    84465666.852                  
  23854749.199   125357507.556    23854752.415    97681163.243                  
                 135631024.937                   135631024.937    26046508.055  
                 118529451.719                   118529451.719    22762333.895  
                 117156799.826                   117156799.826    22498730.694  
                 127545468.566                   127545468.566    24493799.907  
  23995314.546   126096201.093                                                  
 21  9  1 12 13 33.0000000  0 13G 2G 3G 6G12G14G17G19G24C23C27C28C33
                                E21
  22419422.967   117814881.204    22419421.108    91803808.386                  
  24001101.518   126126600.206    24001104.752    98280457.184                  
  20391755.885   107159363.454    20391758.726    83500792.813                  
  24476592.967   128625369.083    24476593.003   100227561.681                  
  21867350.479   114913703.891    21867351.300    89543148.375                  
  21645512.848   113747946.034    21645512.562    88634764.641                  
  20627381.664   108397641.523    20627379.538    84465700.062                  
  23854897.333   125358286.062    23854900.567    97681769.871                  
                 135634298.329                   135634298.329    26047136.687  
                 118528378.742                   118528378.742    22762127.866  
                 117157755.575                   117157755.575    22498914.245  
                 127544416.215                   127544416.215    24493597.808  
  23995610.367   126097755.643                                                  
 21  9  1 12 13 34.0000000  0 13G 2G 3G 6G12G14G17G19G24C23C27C28C33
                                E21
  22419095.231   117813159.032    22419093.373    91802466.433                  
  24001570.937   126129067.036    24001574.172    98282379.386                  
  20391709.533   107159119.921    20391712.356    83500603.047                  
  24475919.877   128621832.023    24475919.912   100224805.532                  
  21867878.365   114916477.902    21867879.151    89545309.941                  
  21645685.481   113748853.286    21645685.195    88635471.591                  
  20627389.813   108397684.375    20627387.704    84465733.453                  
  23855045.574   125359065.067    23855048.809    97682376.888                  
                 135637571.680                   135637571.680    26047765.301  
                 118527305.902                   118527305.902    22761921.818  
                 117158711.421                   117158711.421    22499097.795  
                 127543364.319                   127543364.319    24493395.799  
  23995906.243   126099310.590                                                  
 21  9  1 12 13 35.0000000  0 13G 2G 3G 6G12G14G17G19G24C23C27C28C33
                                E21
  22418767.603   117811437.210    22418765.726    91801124.758                  
  24002040.464   126131534.340    24002043.680    98284301.962                  
  20391663.306   107158876.867    20391666.111    83500413.657                  
  24475246.822   128618295.061    24475246.858   100222049.460                  
  21868406.305   114919252.305    21868407.127    89547471.812                  
  21645858.167   113749760.691    21645857.881    88636178.657                  
  20627397.997   108397727.453    20627395.906    84465767.020                  
  23855193.923   125359844.559    23855197.122    97682984.282                  
                 135640844.993                   135640844.993    26048393.898  
                 118526233.191                   118526233.191    22761715.824  
                 117159667.362                   117159667.362    22499281.382  
                 127542312.884                   127542312.884    24493193.879  
  23996202.225   126100865.933                                                  
 21  9  1 12 13 36.0000000  0 13G 2G 3G 6G12G14G17G19G24C23C27C28C33
                                E21
  22418440.028   117809715.733    22418438.134    91799783.348                  
  24002510.062   126134002.118    24002513.296    98286224.903                  
  20391617.132   107158634.282    20391619.955    83500224.629                  
  24474573.767   128614758.200    24474573.821   100219293.460                  
  21868934.335   114922027.111    21868935.139    89549633.996                  
  21646030.836   113750668.207    21646030.567    88636885.813                  
  20627406.234   108397770.750    20627404.144    84465800.759                  
  23855342.343   125360624.548    23855345.560    97683592.063                  
                 135644118.269                   135644118.269    26049022.494  
                 118525160.612                   118525160.612    22761509.848  
                 117160623.406                   117160623.406    22499464.986  
                 127541261.902                   127541261.902    24492992.048  
  23996498.261   126102421.675                                                  
 21  9  1 12 13 37.0000000  0 13G 2G 3G 6G12G14G17G19G24C23C27C28C33
                                E21
  22418112.506   117807994.614    22418110.612    91798442.214                  
  24002979.767   126136470.370    24002982.983    98288148.219                  
  20391571.066   107158392.157    20391573.871    83500035.956                  
  24473900.749   128611221.439    24473900.802   100216537.544                  
  21869462.436   114924802.310    21869463.258    89551796.488                  
  21646203.557   113751575.853    21646203.272    88637593.067                  
  20627414.543   108397814.286    20627412.417    84465834.683                  
  23855490.853   125361405.032    23855494.087    97684200.234                  
                 135647391.507                   135647391.507    26049651.109  
                 118524088.165                   118524088.165    22761303.907  
                 117161579.548                   117161579.548    22499648.608  
                 127540211.376                   127540211.376    24492790.307  
  23996794.405   126103977.804                                                  
 21  9  1 12 13 38.0000000  0 13G 2G 3G 6G12G14G17G19G24C23C27C28C33
                                E21
  22417785.039   117806273.827    22417783.162    91797101.343                  
  24003449.543   126138939.107    24003452.778    98290071.907                  
  20391525.053   107158150.485    20391527.876    83499847.645                  
  24473227.748   128607684.765    24473227.783   100213781.695                  
  21869990.627   114927577.899    21869991.449    89553959.290                  
  21646376.297   113752483.627    21646376.047    88638300.426                  
  20627422.853   108397858.044    20627420.744    84465868.782                  
  23855639.487   125362185.997    23855642.686    97684808.776                  
                 135650664.712                   135650664.712    26050279.687  
                 118523015.849                   118523015.849    22761097.967  
                 117162535.786                   117162535.786    22499832.212  
                 127539161.301                   127539161.301    24492588.655  
  23997090.584   126105534.335                                                  
 21  9  1 12 13 39.0000000  0 13G 2G 3G 6G12G14G17G19G24C23C27C28C33
                                E21
  22417457.642   117804553.396    22417455.784    91795760.747                  
  24003919.427   126141408.301    24003922.644    98291995.953                  
  20391479.165   107157909.282    20391482.007    83499659.692                  
  24472554.764   128604148.200    24472554.800   100211025.930                  
  21870518.889   114930353.890    21870519.675    89556122.397                  
  21646549.073   113753391.540    21646548.805    88639007.886                  
  20627431.215   108397902.023    20627429.125    84465903.051                  
  23855788.175   125362967.452    23855791.392    97685417.707                  
                 135653937.875                   135653937.875    26050908.266  
                 118521943.660                   118521943.660    22760892.062  
                 117163492.120                   117163492.120    22500015.888  
                 127538111.683                   127538111.683    24492387.075  
  23997386.852   126107091.262                                                  
 21  9  1 12 13 40.0000000  0 17G 2G 3G 6G12G14G17G19G24C23C27C28C33
                                E 1E21E26E27E33
  22417130.318   117802833.310    22417128.459    91794420.423                  
  24004389.383   126143877.980    24004392.599    98293920.380                  
  20391433.367   107157668.540    20391436.173    83499472.101                  
  24471881.781   128600611.732    24471881.835   100208270.238                  
  21871047.204   114933130.280    21871048.026    89558285.816                  
  21646721.884   113754299.576    21646721.598    88639715.448                  
  20627439.632   108397946.233    20627437.541    84465937.501                  
  23855936.989   125363749.406    23855940.205    97686027.020                  
                 135657210.999                   135657210.999    26051536.827  
                 118520871.609                   118520871.609    22760686.175  
                 117164448.556                   117164448.556    22500199.564  
                 127537062.524                   127537062.524    24492185.602  
  24479149.738   128638766.513                                                  
  23997683.228   126108648.601                                                  
  23249402.595   122176405.757                                                  
  27452077.003   144261601.859                                                  
  26632207.757   139953208.902                                                  
 21  9  1 12 13 41.0000000  0 17G 2G 3G 6G12G14G17G19G24C23C27C28C33
                                E 1E21E26E27E33
  22416803.064   117801113.562    22416801.206    91793080.359                  
  24004859.445   126146348.131    24004862.662    98295845.175                  
  20391387.640   107157428.261    20391390.464    83499284.871                  
  24471208.834   128597075.361    24471208.887   100205514.629                  
  21871575.591   114935907.066    21871576.413    89560449.546                  
  21646894.696   113755207.749    21646894.428    88640423.118                  
  20627448.101   108397990.667    20627445.975    84465972.124                  
  23856085.873   125364531.839    23856089.072    97686636.708                  
                 135660484.088                   135660484.088    26052165.387  
                 118519799.685                   118519799.685    22760480.342  
                 117165405.085                   117165405.085    22500383.239  
                 127536013.816                   127536013.816    24491984.200  
  24478937.008   128637648.515                                                  
  23997979.639   126110206.317                                                  
  23249366.142   122176214.094                                                  
  27452649.473   144264610.265                                                  
  26631861.705   139951390.254                                                  
 21  9  1 12 13 42.0000000  0 17G 2G 3G 6G12G14G17G19G24C23C27C28C33
                                E 1E21E26E27E33
  22416475.883   117799394.180    22416474.006    91791740.577                  
  24005329.579   126148818.767    24005332.813    98297770.339                  
  20391342.003   107157188.441    20391344.826    83499098.000                  
  24470535.904   128593539.089    24470535.958   100202759.090                  
  21872104.085   114938684.249    21872104.907    89562613.586                  
  21647067.543   113756116.058    21647067.257    88641130.887                  
  20627456.607   108398035.323    20627454.481    84466006.917                  
  23856234.883   125365314.776    23856238.082    97687246.789                  
                 135663757.137                   135663757.137    26052793.948  
                 118518727.892                   118518727.892    22760274.508  
                 117166361.716                   117166361.716    22500566.969  
                 127534965.570                   127534965.570    24491782.905  
  24478724.313   128636530.921                                                  
  23998276.140   126111764.439                                                  
  23249329.707   122176022.677                                                  
  27453221.978   144267618.749                                                  
  26631515.636   139949571.774                                                  
 21  9  1 12 13 43.0000000  0 17G 2G 3G 6G12G14G17G19G24C23C27C28C33
                                E 1E21E26E27E33
  22416148.754   117797675.136    22416146.878    91790401.067                  
  24005799.820   126151289.860    24005803.037    98299695.866                  
  20391296.437   107156949.092    20391299.278    83498911.497                  
  24469862.993   128590002.903    24469863.046   100200003.620                  
  21872632.633   114941461.825    21872633.455    89564777.927                  
  21647240.408   113757024.484    21647240.140    88641838.753                  
  20627465.148   108398080.214    20627463.022    84466041.900                  
  23856383.964   125366098.204    23856387.163    97687857.249                  
                 135667030.148                   135667030.148    26053422.509  
                 118517656.230                   118517656.230    22760068.693  
                 117167318.442                   117167318.442    22500750.680  
                 127533917.772                   127533917.772    24491581.682  
  24478511.743   128635413.727                                                  
  23998572.712   126113322.948                                                  
  23249293.326   122175831.477                                                  
  27453794.502   144270627.337                                                  
  26631169.638   139947753.501                                                  
 21  9  1 12 13 44.0000000  0 17G 2G 3G 6G12G14G17G19G24C23C27C28C33
                                E 1E21E26E27E33
  22415821.698   117795956.451    22415819.821    91789061.829                  
  24006270.133   126153761.437    24006273.385    98301621.770                  
  20391250.978   107156710.196    20391253.819    83498725.340                  
  24469190.099   128586466.825    24469190.135   100197248.239                  
  21873161.288   114944239.800    21873162.074    89566942.582                  
  21647413.308   113757933.048    21647413.022    88642546.723                  
  20627473.726   108398125.326    20627471.617    84466077.051                  
  23856533.117   125366882.106    23856536.333    97688468.082                  
                 135670303.124                   135670303.124    26054051.034  
                 118516584.704                   118516584.704    22759862.913  
                 117168275.265                   117168275.265    22500934.445  
                 127532870.436                   127532870.436    24491380.566  
  24478299.226   128634296.937                                                  
  23998869.356   126114881.862                                                  
  23249256.980   122175640.509                                                  
  27454367.043   144273636.012                                                  
  26630823.658   139945935.411                                                  
 21  9  1 12 13 45.0000000  0 17G 2G 3G 6G12G14G17G19G24C23C27C28C33
                                E 1E21E26E27E33
  22415494.712   117794238.105    22415492.836    91787722.863                  
  24006740.553   126156233.481    24006743.787    98303548.038                  
  20391205.626   107156471.769    20391208.432    83498539.555                  
  24468517.223   128582930.847    24468517.277   100194492.929                  
  21873689.979   114947018.168    21873690.801    89569107.542                  
  21647586.227   113758841.747    21647585.941    88643254.800                  
  20627482.338   108398170.663    20627480.248    84466112.379                  
  23856682.395   125367666.511    23856685.593    97689079.309                  
                 135673576.060                   135673576.060    26054679.559  
                 118515513.304                   118515513.304    22759657.187  
                 117169232.192                   117169232.192    22501118.192  
                 127531823.554                   127531823.554    24491179.522  
  24478086.782   128633180.538                                                  
  23999166.106   126116441.172                                                  
  23249220.688   122175449.767                                                  
  27454939.584   144276644.769                                                  
  26630477.732   139944117.509                                                  
 21  9  1 12 13 46.0000000  0 17G 2G 3G 6G12G14G17G19G24C23C27C28C33
                                E 1E21E26E27E33
  22415167.781   117792520.106    22415165.922    91786384.160                  
  24007211.062   126158706.003    24007214.296    98305474.679                  
  20391160.346   107156233.812    20391163.152    83498354.133                  
  24467844.365   128579394.971    24467844.419   100191737.700                  
  21874218.759   114949796.923    21874219.581    89571272.808                  
  21647759.163   113759750.569    21647758.877    88643962.978                  
  20627491.023   108398216.220    20627488.896    84466147.878                  
  23856831.762   125368451.414    23856834.961    97689690.917                  
                 135676848.957                   135676848.957    26055308.102  
                 118514442.034                   118514442.034    22759451.461  
                 117170189.210                   117170189.210    22501301.975  
                 127530777.129                   127530777.129    24490978.567  
  24477874.408   128632064.550                                                  
  23999462.893   126118000.875                                                  
  23249184.432   122175259.251                                                  
  27455512.144   144279653.612                                                  
  26630131.841   139942299.785                                                  
 21  9  1 12 13 47.0000000  0 17G 2G 3G 6G12G14G17G19G24C23C27C28C33
                                E 1E21E26E27E33
  22414840.938   117790802.462    22414839.062    91785045.738                  
  24007681.661   126161178.992    24007684.877    98307401.683                  
  20391115.138   107155996.309    20391117.961    83498169.067                  
  24467171.543   128575859.190    24467171.578   100188982.548                  
  21874747.629   114952576.072    21874748.415    89573438.379                  
  21647932.135   113760659.520    21647931.867    88644671.249                  
  20627499.725   108398262.003    20627497.616    84466183.551                  
  23856981.201   125369236.796    23856984.417    97690302.905                  
                 135680121.811                   135680121.811    26055936.609  
                 118513370.898                   118513370.898    22759245.753  
                 117171146.332                   117171146.332    22501485.794  
                 127529731.160                   127529731.160    24490777.683  
  24477662.124   128630948.949                                                  
  23999759.787   126119560.969                                                  
  23249148.212   122175068.960                                                  
  27456084.721   144282662.543                                                  
  26629785.968   139940482.267                                                  
 21  9  1 12 13 48.0000000  0 17G 2G 3G 6G12G14G17G19G24C23C27C28C33
                                E 1E21E26E27E33
  22414514.132   117789085.155    22414512.256    91783707.577                  
  24008152.349   126163652.462    24008155.583    98309329.063                  
  20391070.036   107155759.273    20391072.860    83497984.363                  
  24466498.720   128572323.499    24466498.756   100186227.464                  
  21875276.534   114955355.634    21875277.356    89575604.265                  
  21648105.125   113761568.606    21648104.839    88645379.626                  
  20627508.481   108398308.004    20627506.372    84466219.398                  
  23857130.764   125370022.673    23857133.963    97690915.277                  
                 135683394.633                   135683394.633    26056565.116  
                 118512299.893                   118512299.893    22759040.081  
                 117172103.547                   117172103.547    22501669.612  
                 127528685.644                   127528685.644    24490576.907  
  24477449.894   128629833.747                                                  
  24000056.716   126121121.468                                                  
  23249112.063   122174878.914                                                  
  27456657.316   144285671.582                                                  
  26629440.131   139938664.931                                                  
 21  9  1 12 13 49.0000000  0 17G 2G 3G 6G12G14G17G19G24C23C27C28C33
                                E 1E21E26E27E33
  22414187.415   117787368.215    22414185.538    91782369.704                  
  24008623.126   126166126.402    24008626.342    98311256.808                  
  20391025.024   107155522.695    20391027.847    83497800.017                  
  24465825.916   128568787.918    24465825.952   100183472.465                  
  21875805.564   114958135.587    21875806.386    89577770.466                  
  21648278.133   113762477.828    21648277.865    88646088.110                  
  20627517.272   108398354.242    20627515.182    84466255.425                  
  23857280.400   125370809.038    23857283.598    97691528.031                  
                 135686667.415                   135686667.415    26057193.623  
                 118511229.019                   118511229.019    22758834.426  
                 117173060.861                   117173060.861    22501853.467  
                 127527640.585                   127527640.585    24490376.220  
  24477237.753   128628718.953                                                  
  24000353.753   126122682.368                                                  
  23249075.931   122174689.087                                                  
  27457229.946   144288680.700                                                  
  26629094.348   139936847.771                                                  
 21  9  1 12 13 50.0000000  0 17G 2G 3G 6G12G14G17G19G24C23C27C28C33
                                E 1E21E26E27E33
  22413860.769   117785651.607    22413858.875    91781032.085                  
  24009093.975   126168600.817    24009097.227    98313184.921                  
  20390980.084   107155286.586    20390982.907    83497616.036                  
  24465153.147   128565252.430    24465153.183   100180717.539                  
  21876334.648   114960915.930    21876335.452    89579936.965                  
  21648451.177   113763387.172    21648450.927    88646796.692                  
  20627526.118   108398400.700    20627524.027    84466291.629                  
  23857430.124   125371595.899    23857433.341    97692141.167                  
                 135689940.161                   135689940.161    26057822.112  
                 118510158.276                   118510158.276    22758628.807  
                 117174018.274                   117174018.274    22502037.321  
                 127526595.986                   127526595.986    24490175.622  
  24477025.701   128627604.558                                                  
  24000650.861   126124243.656                                                  
  23249039.854   122174499.481                                                  
  27457802.577   144291689.904                                                  
  26628748.582   139935030.798                                                  
 21  9  1 12 13 51.0000000  0 17G 2G 3G 6G12G14G17G19G24C23C27C28C33
                                E 1E21E26E27E33
  22413534.159   117783935.348    22413532.283    91779694.743                  
  24009564.949   126171075.707    24009568.183    98315113.407                  
  20390935.232   107155050.939    20390938.056    83497432.414                  
  24464480.361   128561717.035    24464480.414   100177962.687                  
  21876863.803   114963696.672    21876864.625    89582103.777                  
  21648624.256   113764296.663    21648623.988    88647505.382                  
  20627534.998   108398447.378    20627532.908    84466327.999                  
  23857579.956   125372383.246    23857583.154    97692754.683                  
                 135693212.829                   135693212.829    26058450.602  
                 118509087.663                   118509087.663    22758423.206  
                 117174975.794                   117174975.794    22502221.193  
                 127525551.840                   127525551.840    24489975.096  
  24476813.721   128626490.559                                                  
  24000948.041   126125805.340                                                  
  23249003.812   122174310.112                                                  
  27458375.226   144294699.207                                                  
  26628402.852   139933214.034                                                  
 21  9  1 12 13 52.0000000  0 17G 2G 3G 6G12G14G17G19G24C23C27C28C33
                                E 1E21E26E27E33
  22413207.638   117782219.447    22413205.762    91778357.677                  
  24010035.976   126173551.064    24010039.228    98317042.254                  
  20390890.488   107154815.754    20390893.312    83497249.151                  
  24463807.628   128558181.741    24463807.681   100175207.914                  
  21877393.048   114966477.813    21877393.834    89584270.902                  
  21648797.353   113765206.275    21648797.085    88648214.173                  
  20627543.933   108398494.289    20627541.824    84466364.555                  
  23857729.877   125373171.087    23857733.076    97693368.587                  
                 135696485.497                   135696485.497    26059079.073  
                 118508017.185                   118508017.185    22758217.623  
                 117175933.399                   117175933.399    22502405.101  
                 127524508.147                   127524508.147    24489774.659  
  24476601.794   128625376.968                                                  
  24001245.274   126127367.418                                                  
  23248967.824   122174120.975                                                  
  27458947.892   144297708.578                                                  
  26628057.176   139931397.449                                                  
 21  9  1 12 13 53.0000000  0 17G 2G 3G 6G12G14G17G19G24C23C27C28C33
                                E 1E21E26E27E33
  22412881.171   117780503.886    22412879.295    91777020.874                  
  24010507.129   126176026.905    24010510.363    98318971.481                  
  20390845.816   107154581.031    20390848.639    83497066.254                  
  24463134.895   128554646.547    24463134.948   100172453.215                  
  21877922.346   114969259.347    21877923.168    89586438.329                  
  21648970.468   113766116.018    21648970.200    88648923.061                  
  20627552.903   108398541.425    20627550.795    84466401.284                  
  23857879.905   125373959.406    23857883.104    97693982.859                  
                 135699758.121                   135699758.121    26059707.562  
                 118506946.831                   118506946.831    22758012.076  
                 117176891.106                   117176891.106    22502589.027  
                 127523464.917                   127523464.917    24489574.312  
  24476389.957   128624263.762                                                  
  24001542.615   126128929.897                                                  
  23248931.871   122173932.061                                                  
  27459520.576   144300718.054                                                  
  26627711.536   139929581.043                                                  
 21  9  1 12 13 54.0000000  0 17G 2G 3G 6G12G14G17G19G24C23C27C28C33
                                E 1E21E26E27E33
  22412554.776   117778788.680    22412552.899    91775684.352                  
  24010978.353   126178503.219    24010981.587    98320901.074                  
  20390801.233   107154346.762    20390804.056    83496883.707                  
  24462462.197   128551111.449    24462462.233   100169698.593                  
  21878451.716   114972041.275    21878452.538    89588606.062                  
  21649143.619   113767025.897    21649143.333    88649632.058                  
  20627561.927   108398588.781    20627559.801    84466438.183                  
  23858030.005   125374748.230    23858033.204    97694597.527                  
                 135703030.707                   135703030.707    26060336.016  
                 118505876.614                   118505876.614    22757806.564  
                 117177848.905                   117177848.905    22502772.953  
                 127522422.141                   127522422.141    24489374.054  
  24476178.191   128623150.969                                                  
  24001840.027   126130492.761                                                  
  23248895.973   122173743.379                                                  
  27460093.279   144303727.618                                                  
  26627365.913   139927764.828                                                  
 21  9  1 12 13 55.0000000  0 17G 2G 3G 6G12G14G17G19G24C23C27C28C33
                                E 1E21E26E27E33
  22412228.452   117777073.812    22412226.575    91774348.094                  
  24011449.666   126180979.996    24011452.900    98322831.032                  
  20390756.757   107154112.960    20390759.580    83496701.524                  
  24461789.500   128547576.457    24461789.554   100166944.054                  
  21878981.175   114974823.589    21878981.997    89590774.102                  
  21649316.788   113767935.908    21649316.502    88650341.157                  
  20627570.987   108398636.375    20627568.860    84466475.273                  
  23858180.194   125375537.532    23858183.393    97695212.568                  
                 135706303.259                   135706303.259    26060964.487  
                 118504806.522                   118504806.522    22757601.052  
                 117178806.809                   117178806.809    22502956.897  
                 127521379.821                   127521379.821    24489173.903  
  24475966.515   128622038.570                                                  
  24002137.493   126132056.038                                                  
  23248860.092   122173554.923                                                  
  27460665.999   144306737.265                                                  
  26627020.344   139925948.804                                                  
 21  9  1 12 13 56.0000000  0 17G 2G 3G 6G12G14G17G19G24C23C27C28C33
                                E 1E21E26E27E33
  22411902.199   117775359.305    22411900.323    91773012.114                  
  24011921.086   126183457.251    24011924.303    98324761.359                  
  20390712.334   107153879.624    20390715.175    83496519.704                  
  24461116.839   128544041.561    24461116.874   100164189.595                  
  21879510.724   114977606.309    21879511.528    89592942.453                  
  21649489.975   113768846.044    21649489.707    88651050.357                  
  20627580.064   108398684.183    20627577.956    84466512.526                  
  23858330.508   125376327.327    23858333.707    97695827.997                  
                 135709575.767                   135709575.767    26061592.941  
                 118503736.567                   118503736.567    22757395.577  
                 117179764.810                   117179764.810    22503140.876  
                 127520337.958                   127520337.958    24488973.823  
  24475754.928   128620926.578                                                  
  24002435.065   126133619.700                                                  
  23248824.282   122173366.687                                                  
  27461238.719   144309746.991                                                  
  26626674.793   139924132.964                                                  
 21  9  1 12 13 57.0000000  0 17G 2G 3G 6G12G14G17G19G24C23C27C28C33
                                E 1E21E26E27E33
  22411576.000   117773645.129    22411574.124    91771676.395                  
  24012392.561   126185934.976    24012395.795    98326692.054                  
  20390668.037   107153646.746    20390670.860    83496338.238                  
  24460444.177   128540506.766    24460444.249   100161435.204                  
  21880040.326   114980389.413    21880041.148    89595111.106                  
  21649663.197   113769756.316    21649662.929    88651759.659                  
  20627589.213   108398732.222    20627587.105    84466549.958                  
  23858480.876   125377117.618    23858484.075    97696443.801                  
                 135712848.234                   135712848.234    26062221.376  
