     2.11           OBSERVATION DATA    M (MIXED)           RINEX VERSION / TYPE
CONVBIN 2.4.3                           20210901 005010 UTC PGM / RUN BY / DATE 
log: logs/21_08_31_20_18_54_gast_SNNC.rtcm                  COMMENT             
format: RTCM 3, station ID: 143                             COMMENT             
0143                                                        MARKER NAME         
                                                            MARKER NUMBER       
                                                            OBSERVER / AGENCY   
1703994             LEICA GR10          4.30                REC # / TYPE / VERS 
                    GPPNULLANTENNA                          ANT # / TYPE        
   798151.3407 -5149063.3356  3666081.4130                  APPROX POSITION XYZ 
        0.0000        0.0000        0.0000                  ANTENNA: DELTA H/E/N
     1     1                                                WAVELENGTH FACT L1/2
     7    C1    L1    C2    L2    P2    C5    L5            # / TYPES OF OBSERV 
  2021     8    31    20    19    1.0000000     GPS         TIME OF FIRST OBS   
  2021     8    31    20    48   58.0000000     GPS         TIME OF LAST OBS    
                                                            END OF HEADER       
 21  8 31 20 19  1.0000000  0 17G10G15G18G23G24G27G32R 4R 5R14R19R20
                                R21E 3E 5E 9E36
  22578562.556   118651146.601    22578561.716    92455435.080    22578561.537  
  22578562.788    88603129.113  
  22023921.127   115736485.935    22023918.447    90184261.314    22023917.875  
                                
  20203141.254   106168223.636    20203138.252    82728472.224    20203137.859  
  20203144.577    79281478.015  
  20718152.656   108874626.694    20718149.314    84837355.780    20718148.921  
  20718155.694    81302492.440  
  20816212.904   109389937.041    20816212.225    85238906.886    20816211.671  
  20816215.066    81687298.907  
  24251398.802   127441959.918    24251398.784    99305420.733    24251398.158  
  24251401.178    95167706.843  
  23763814.885   124879690.099    23763815.885    97308851.614    23763815.385  
  23763817.368    93254322.804  
  22308238.904   119459606.408    22308236.045    92913015.024    22308235.116  
                                
  20063041.073   107248452.755    20063039.179    83415455.016    20063038.053  
                                
  22536954.214   120134647.729    22536953.964    93438058.243    22536953.213  
                                
  22691920.814   121386474.412    22691920.707    94411701.837    22691919.099  
                                
  19726756.139   105487830.174    19726756.765    82046092.976    19726754.710  
                                
  22083582.400   118173710.338    22083580.434    91912876.994    22083579.630  
                                
  25741109.602   135270444.667                                                  
  25741115.963   101013667.358  
  23483003.653   123404017.071                                                  
  23483009.050    92152371.563  
  23916012.376   125679493.688                                                  
  23916017.879    93851590.390  
  24932849.556   131023008.793                                                  
  24932856.275    97841882.617  
 21  8 31 20 19  2.0000000  0 17G10G15G18G23G24G27G32R 4R 5R14R19R20
                                R21E 3E 5E 9E36
  22578147.405   118648965.082    22578146.565    92453735.200    22578146.386  
  22578147.637    88601500.074  
  22024464.131   115739339.316    22024461.415    90186484.728    22024460.843  
                                
  20203322.267   106169174.893    20203319.283    82729213.463    20203318.872  
  20203325.608    79282188.367  
  20717988.922   108873766.229    20717985.580    84836685.288    20717985.169  
  20717991.960    81301849.876  
  20816044.810   109389053.723    20816044.149    85238218.585    20816043.577  
  20816046.972    81686639.277  
  24251360.062   127441756.235    24251360.026    99305262.015    24251359.418  
  24251362.420    95167554.707  
  23763282.263   124876891.084    23763283.263    97306670.572    23763282.727  
  23763284.711    93252232.622  
  22308720.385   119462184.782    22308717.526    92915020.423    22308716.614  
                                
  20063164.280   107249111.291    20063162.368    83415967.207    20063161.260  
                                
  22536875.161   120134226.355    22536874.929    93437730.510    22536874.161  
                                
  22692758.657   121390956.291    22692758.549    94415187.743    22692756.959  
                                
  19726984.255   105489049.885    19726984.863    82047041.637    19726982.790  
                                
  22083000.834   118170598.328    22082998.887    91910456.546    22082998.083  
                                
  25740780.615   135268715.884                                                  
  25740786.976   101012376.388  
  23483057.046   123404297.558                                                  
  23483062.442    92152581.013  
  23916403.332   125681548.154                                                  
  23916408.836    93853124.558  
  24933321.549   131025489.073                                                  
  24933328.285    97843734.766  
 21  8 31 20 19  3.0000000  0 17G10G15G18G23G24G27G32R 4R 5R14R19R20
                                R21E 3E 5E 9E36
  22577732.307   118646783.660    22577731.467    92452035.388    22577731.289  
  22577732.522    88599871.077  
  22025007.135   115742192.870    22025004.454    90188708.272    22025003.865  
                                
  20203503.423   106170126.781    20203500.421    82729955.194    20203500.010  
  20203506.747    79282899.184  
  20717825.206   108872905.972    20717821.864    84836014.958    20717821.471  
  20717828.244    81301207.483  
  20815876.859   109388171.067    20815876.180    85237530.802    20815875.626  
  20815879.021    81685980.157  
  24251321.393   127441553.103    24251321.357    99305103.735    24251320.768  
  24251323.734    95167403.018  
  23762749.659   124874092.292    23762750.659    97304489.686    23762750.141  
  23762752.124    93250142.620  
  22309201.884   119464763.126    22309199.042    92917025.797    22309198.095  
                                
  20063287.523   107249770.061    20063285.611    83416479.583    20063284.503  
                                
  22536796.234   120133805.732    22536796.019    93437403.356    22536795.233  
                                
  22693596.535   121395438.358    22693596.428    94418673.795    22693594.820  
                                
  19727212.496   105490270.496    19727213.139    82047990.995    19727211.049  
                                
  22082419.412   118167486.936    22082417.447    91908036.570    22082416.625  
                                
  25740451.700   135266987.315                                                  
  25740458.061   101011085.565  
  23483110.456   123404578.261                                                  
  23483115.853    92152790.629  
  23916794.271   125683602.653                                                  
  23916799.792    93854658.763  
  24933793.595   131027969.639                                                  
  24933800.314    97845587.138  
 21  8 31 20 19  4.0000000  0 17G10G15G18G23G24G27G32R 4R 5R14R19R20
                                R21E 3E 5E 9E36
  22577317.192   118644602.311    22577316.370    92450335.636    22577316.191  
  22577317.424    88598242.159  
  22025550.192   115745046.633    22025547.512    90190931.981    22025546.922  
                                
  20203684.686   106171079.291    20203681.684    82730697.405    20203681.273  
  20203688.010    79283610.483  
  20717661.561   108872045.994    20717658.202    84835344.840    20717657.827  
  20717664.617    81300565.289  
  20815709.051   109387289.139    20815708.354    85236843.578    20815707.800  
  20815711.178    81685321.573  
  24251282.867   127441350.576    24251282.814    99304945.917    24251282.224  
  24251285.226    95167251.811  
  23762217.126   124871293.756    23762218.127    97302309.004    23762217.626  
  23762219.574    93248052.812  
  22309683.382   119467341.514    22309680.541    92919031.194    22309679.594  
                                
  20063410.801   107250429.073    20063408.889    83416992.139    20063407.781  
                                
  22536717.485   120133385.939    22536717.253    93437076.834    22536716.484  
                                
  22694434.467   121399920.661    22694434.360    94422160.001    22694432.752  
                                
  19727440.934   105491492.016    19727441.559    82048941.063    19727439.504  
                                
  22081838.061   118164376.175    22081836.114    91905617.082    22081835.292  
                                
  25740122.785   135265258.945                                                  
  25740129.128   101009794.919  
  23483163.903   123404859.185                                                  
  23483169.299    92153000.421  
  23917185.245   125685657.207                                                  
  23917190.748    93856193.023  
  24934265.676   131030450.513                                                  
  24934272.395    97847439.741  
 21  8 31 20 19  5.0000000  0 17G10G15G18G23G24G27G32R 4R 5R14R19R20
                                R21E 3E 5E 9E36
  22576902.112   118642421.051    22576901.272    92448635.950    22576901.094  
  22576902.345    88596613.300  
  22026093.268   115747900.601    22026090.587    90193155.852    22026090.015  
                                
  20203866.057   106172032.465    20203863.055    82731440.138    20203862.662  
  20203869.398    79284322.270  
  20717497.971   108871186.259    20717494.611    84834674.919    20717494.218  
  20717501.008    81299923.280  
  20815541.350   109386407.915    20815540.671    85236156.913    20815540.100  
  20815543.495    81684663.514  
  24251244.449   127441148.716    24251244.413    99304788.623    24251243.806  
  24251246.808    95167101.057  
  23761684.611   124868495.492    23761685.630    97300128.541    23761685.111  
  23761687.095    93245963.191  
  22310164.881   119469919.939    22310162.040    92921036.631    22310161.128  
                                
  20063534.133   107251088.371    20063532.239    83417504.926    20063531.113  
                                
  22536638.879   120132966.976    22536638.647    93436750.976    22536637.879  
                                
  22695272.417   121404403.113    22695272.310    94425646.348    22695270.720  
                                
  19727669.550   105492714.494    19727670.158    82049891.882    19727668.103  
                                
  22081256.871   118161266.054    22081254.906    91903198.104    22081254.084  
                                
  25739793.941   135263530.822                                                  
  25739800.285   101008504.429  
  23483217.420   123405140.387                                                  
  23483222.817    92153210.403  
  23917576.237   125687711.831                                                  
  23917581.741    93857727.308  
  24934737.830   131032931.733                                                  
  24934744.566    97849292.591  
 21  8 31 20 19  6.0000000  0 17G10G15G18G23G24G27G32R 4R 5R14R19R20
                                R21E 3E 5E 9E36
  22576487.086   118640240.081    22576486.247    92446936.500    22576486.068  
  22576487.319    88594984.658  
  22026636.450   115750754.972    22026633.770    90195380.035    22026633.180  
                                
  20204047.606   106172986.471    20204044.604    82732183.517    20204044.211  
  20204050.930    79285034.685  
  20717334.451   108870326.970    20717331.110    84834005.344    20717330.699  
  20717337.489    81299281.607  
  20815373.828   109385527.581    20815373.149    85235470.938    20815372.578  
  20815375.973    81684006.134  
  24251206.174   127440947.621    24251206.138    99304631.928    24251205.548  
  24251208.550    95166950.920  
  23761152.204   124865697.651    23761153.204    97297948.414    23761152.704  
  23761154.670    93243873.903  
  22310646.415   119472498.561    22310643.574    92923042.224    22310642.663  
                                
  20063657.555   107251748.126    20063655.660    83418018.071    20063654.535  
                                
  22536560.488   120132548.989    22536560.238    93436425.876    22536559.487  
                                
  22696110.439   121408886.011    22696110.349    94429133.041    22696108.741  
                                
  19727898.363   105493938.086    19727898.988    82050843.565    19727896.933  
                                
  22080675.807   118158156.777    22080673.859    91900779.780    22080673.037  
                                
  25739465.169   135261803.083                                                  
  25739471.495   101007214.252  
  23483271.010   123405422.018                                                  
  23483276.406    92153420.714  
  23917967.265   125689766.702                                                  
  23917972.750    93859261.798  
  24935210.090   131035413.454                                                  
  24935216.809    97851145.827  
 21  8 31 20 19  7.0000000  0 17G10G15G18G23G24G27G32R 4R 5R14R19R20
                                R21E 3E 5E 9E36
  22576072.096   118638059.287    22576071.274    92445237.184    22576071.096  
  22576072.329    88593356.134  
  22027179.669   115753609.624    22027176.988    90197604.439    22027176.416  
                                
  20204229.281   106173941.221    20204226.279    82732927.480    20204225.886  
  20204232.622    79285747.640  
  20717171.003   108869468.022    20717167.644    84833336.031    20717167.269  
  20717174.023    81298640.185  
  20815206.449   109384648.059    20815205.770    85234785.601    20815205.216  
  20815208.594    81683349.342  
  24251168.041   127440747.280    24251168.005    99304475.830    24251167.398  
  24251170.400    95166801.302  
  23760619.868   124862900.165    23760620.868    97295768.557    23760620.368  
  23760622.316    93241784.869  
  22311127.985   119475077.281    22311125.144    92925047.893    22311124.233  
                                
  20063781.029   107252408.245    20063779.135    83418531.497    20063778.010  
                                
  22536482.239   120132131.929    22536482.007    93436101.495    22536481.257  
                                
  22696948.532   121413369.210    22696948.442    94432619.974    22696946.834  
                                
  19728127.372   105495162.696    19728127.998    82051796.042    19728125.943  
                                
  22080094.902   118155048.237    22080092.937    91898362.028    22080092.115  
                                
  25739136.433   135260075.676                                                  
  25739142.794   101005924.298  
  23483324.652   123405703.974                                                  
  23483330.067    92153631.268  
  23918358.328   125691821.726                                                  
  23918363.814    93860796.392  
  24935682.422   131037895.587                                                  
  24935689.159    97852999.368  
 21  8 31 20 19  8.0000000  0 17G10G15G18G23G24G27G32R 4R 5R14R19R20
                                R21E 3E 5E 9E36
  22575657.088   118635878.411    22575656.248    92443537.809    22575656.070  
  22575657.320    88591727.566  
  22027722.905   115756464.308    22027720.224    90199828.873    22027719.617  
                                
  20204411.044   106174896.451    20204408.060    82733671.815    20204407.649  
  20204414.386    79286460.964  
  20717007.555   108868609.179    20717004.214    84832666.805    20717003.821  
  20717010.593    81297998.837  
  20815039.177   109383769.071    20815038.516    85234100.678    20815037.944  
  20815041.339    81682692.960  
  24251130.016   127440547.433    24251129.980    99304320.111    24251129.355  
  24251132.357    95166652.045  
  23760087.531   124860102.767    23760088.532    97293588.769    23760088.014  
  23760089.997    93239695.916  
  22311609.520   119477655.852    22311606.679    92927053.448    22311605.767  
                                
  20063904.540   107253068.441    20063902.646    83419044.986    20063901.520  
                                
  22536404.116   120131715.520    22536403.884    93435777.627    22536403.115  
                                
  22697786.624   121417852.445    22697786.535    94436106.934    22697784.927  
                                
  19728356.525   105496388.086    19728357.150    82052749.127    19728355.077  
                                
  22079514.088   118151940.177    22079512.122    91895944.655    22079511.300  
                                
  25738807.732   135258348.331                                                  
  25738814.075   101004634.402  
  23483378.331   123405986.019                                                  
  23483383.727    92153841.885  
  23918749.356   125693876.656                                                  
  23918754.860    93862330.913  
  24936154.790   131040377.878                                                  
  24936161.526    97854853.022  
 21  8 31 20 19  9.0000000  0 17G10G15G18G23G24G27G32R 4R 5R14R19R20
                                R21E 3E 5E 9E36
  22575242.080   118633697.517    22575241.240    92441838.400    22575241.079  
  22575242.312    88590098.966  
  22028266.123   115759319.080    22028263.478    90202053.373    22028262.871  
                                
  20204592.951   106175852.224    20204589.949    82734416.576    20204589.520  
  20204596.257    79287174.693  
  20716844.161   108867750.448    20716840.801    84831997.673    20716840.408  
  20716847.181    81297357.586  
  20814872.030   109382890.697    20814871.351    85233416.230    20814870.780  
  20814874.175    81682037.031  
  24251092.080   127440348.040    24251092.044    99304164.727    24251091.419  
  24251094.421    95166503.139  
  23759555.249   124857305.531    23759556.250    97291409.091    23759555.731  
  23759557.715    93237607.055  
  22312091.054   119480234.331    22312088.213    92929058.938    22312087.284  
                                
  20064028.087   107253728.793    20064026.175    83419558.593    20064025.067  
                                
  22536326.136   120131299.778    22536325.921    93435454.290    22536325.135  
                                
  22698624.735   121422335.760    22698624.646    94439593.951    22698623.038  
                                
  19728585.820   105497614.288    19728586.445    82053702.840    19728584.390  
                                
  22078933.362   118148832.664    22078931.397    91893527.675    22078930.575  
                                
  25738479.049   135256621.088                                                  
  25738485.393   101003344.584  
  23483432.027   123406268.192                                                  
  23483437.424    92154052.599  
  23919140.384   125695931.524                                                  
  23919145.888    93863865.392  
  24936627.193   131042860.371                                                  
  24936633.930    97856706.846  
 21  8 31 20 19 10.0000000  0 17G10G15G18G23G24G27G32R 4R 5R14R19R20
                                R21E 3E 5E 9E36
  22574827.090   118631516.781    22574826.268    92440139.119    22574826.089  
  22574827.340    88588470.486  
  22028809.448   115762174.146    22028806.768    90204278.099    22028806.178  
                                
  20204774.965   106176808.708    20204771.963    82735161.886    20204771.552  
  20204778.271    79287888.946  
  20716680.820   108866892.075    20716677.461    84831328.809    20716677.068  
  20716683.840    81296716.584  
  20814705.044   109382013.100    20814704.365    85232732.389    20814703.776  
  20814707.189    81681381.676  
  24251054.269   127440149.337    24251054.215    99304009.886    24251053.626  
  24251056.628    95166354.772  
  23759023.002   124854508.599    23759024.003    97289229.666    23759023.485  
  23759025.468    93235518.442  
  22312572.571   119482812.926    22312569.748    92931064.510    22312568.818  
                                
  20064151.687   107254389.488    20064149.775    83420072.464    20064148.667  
                                
  22536248.316   120130884.929    22536248.084    93435131.623    22536247.333  
                                
  22699462.935   121426819.384    22699462.810    94443081.201    22699461.220  
                                
  19728815.330   105498841.493    19728815.955    82054657.335    19728813.864  
                                
  22078352.780   118145725.829    22078350.814    91891111.253    22078350.010  
                                
  25738150.438   135254894.156                                                  
  25738156.799   101002054.979  
  23483485.777   123406550.686                                                  
  23483491.192    92154263.548  
  23919531.447   125697986.527                                                  
  23919536.951    93865399.968  
  24937099.668   131045343.267                                                  
  24937106.404    97858560.945  
 21  8 31 20 19 11.0000000  0 17G10G15G18G23G24G27G32R 4R 5R14R19R20
                                R21E 3E 5E 9E36
  22574412.153   118629336.184    22574411.313    92438439.950    22574411.153  
  22574412.403    88586842.109  
  22029352.792   115765029.443    22029350.112    90206503.009    22029349.522  
                                
  20204957.086   106177765.884    20204954.102    82735907.737    20204953.691  
  20204960.410    79288603.711  
  20716517.533   108866033.981    20716514.174    84830660.166    20716513.763  
  20716520.553    81296075.804  
  20814538.184   109381136.249    20814537.505    85232049.126    20814536.933  
  20814540.328    81680726.891  
  24251016.601   127439951.346    24251016.565    99303855.601    24251015.940  
  24251018.942    95166206.909  
  23758490.827   124851711.964    23758491.810    97287050.479    23758491.310  
  23758493.275    93233430.046  
  22313054.123   119485391.569    22313051.300    92933070.107    22313050.389  
                                
  20064275.340   107255050.509    20064273.446    83420586.591    20064272.320  
                                
  22536170.657   120130470.961    22536170.443    93434809.646    22536169.657  
                                
  22700301.153   121431303.270    22700301.046    94446568.657    22700299.456  
                                
  19729045.000   105500069.659    19729045.626    82055612.571    19729043.553  
                                
  22077772.323   118142619.678    22077770.357    91888695.353    22077769.535  
                                
  25737821.844   135253167.456                                                  
  25737828.188   101000765.572  
  23483539.599   123406833.455                                                  
  23483544.995    92154474.707  
  23919922.529   125700041.638                                                  
  23919928.033    93866934.625  
  24937572.232   131047826.520                                                  
  24937578.969    97860415.320  
 21  8 31 20 19 12.0000000  0 17G10G15G18G23G24G27G32R 4R 5R14R19R20
                                R21E 3E 5E 9E36
  22573997.181   118627155.534    22573996.341    92436740.742    22573996.180  
  22573997.413    88585213.714  
  22029896.153   115767884.832    22029893.473    90208727.980    22029892.901  
                                
  20205139.332   106178723.582    20205136.348    82736653.993    20205135.937  
  20205142.656    79289318.882  
  20716354.264   108865176.033    20716350.904    84829991.631    20716350.511  
  20716357.284    81295435.131  
  20814371.430   109380259.988    20814370.751    85231366.329    20814370.179  
  20814373.574    81680072.542  
  24250979.005   127439753.834    24250978.969    99303701.698    24250978.361  
  24250981.363    95166059.425  
  23757958.652   124848915.494    23757959.635    97284871.422    23757959.134  
  23757961.100    93231341.748  
  22313535.640   119487970.104    22313532.852    92935075.630    22313531.905  
                                
  20064399.030   107255711.696    20064397.118    83421100.851    20064396.010  
                                
  22536093.124   120130057.690    22536092.909    93434488.215    22536092.141  
                                
  22701139.389   121435787.201    22701139.282    94450056.145    22701137.692  
                                
  19729274.832   105501298.653    19729275.439    82056568.452    19729273.384  
                                
  22077191.955   118139514.060    22077190.007    91886279.875    22077189.185  
                                
  25737493.287   135251440.877                                                  
  25737499.630   100999476.245  
  23483593.420   123407116.348                                                  
  23483598.817    92154685.960  
  23920313.592   125702096.682                                                  
  23920319.078    93868469.240  
  24938044.814   131050309.962                                                  
  24938051.551    97862269.840  
 21  8 31 20 19 13.0000000  0 17G10G15G18G23G24G27G32R 4R 5R14R19R20
                                R21E 3E 5E 9E36
  22573582.209   118624974.810    22573581.369    92435041.477    22573581.172  
  22573582.423    88583585.259  
  22030439.532   115770740.241    22030436.852    90210952.974    22030436.262  
                                
  20205321.668   106179681.765    20205318.666    82737400.631    20205318.272  
  20205324.991    79290034.408  
  20716191.030   108864318.165    20716187.671    84829323.164    20716187.260  
  20716194.050    81294794.519  
  20814204.783   109379384.287    20814204.104    85230683.969    20814203.532  
  20814206.928    81679418.605  
  24250941.516   127439556.775    24250941.462    99303548.147    24250940.872  
  24250943.874    95165912.270  
  23757426.512   124846119.064    23757427.495    97282692.389    23757426.995  
  23757428.960    93229253.525  
  22314017.156   119490548.508    22314014.351    92937081.050    22314013.422  
                                
  20064522.719   107256372.968    20064520.825    83421615.170    20064519.699  
                                
  22536015.715   120129645.049    22536015.501    93434167.272    22536014.714  
                                
  22701977.625   121440271.206    22701977.518    94453543.705    22701975.910  
                                
  19729504.788   105502528.381    19729505.413    82057524.908    19729503.323  
                                
  22076611.694   118136408.928    22076609.746    91883864.770    22076608.906  
                                
  25737164.747   135249714.353                                                  
  25737171.090   100998186.955  
  23483647.278   123407399.320                                                  
  23483652.674    92154897.275  
  23920704.602   125704151.612                                                  
  23920710.124    93870003.772  
  24938517.414   131052793.561                                                  
  24938524.168    97864124.479  
 21  8 31 20 19 14.0000000  0 17G10G15G18G23G24G27G32R 4R 5R14R19R20
                                R21E 3E 5E 9E36
  22573167.201   118622793.981    22573166.361    92433342.145    22573166.182  
  22573167.415    88581956.730  
  22030982.876   115773595.644    22030980.213    90213177.964    22030979.606  
                                
  20205504.092   106180640.382    20205501.108    82738147.603    20205500.697  
  20205507.416    79290750.256  
  20716027.779   108863460.358    20716024.419    84828654.739    20716024.026  
  20716030.799    81294153.947  
  20814038.226   109378509.055    20814037.547    85230001.959    20814036.993  
  20814040.370    81678765.023  
  24250904.098   127439360.172    24250904.044    99303394.953    24250903.437  
  24250906.421    95165765.452  
  23756894.391   124843322.702    23756895.391    97280513.389    23756894.873  
  23756896.857    93227165.317  
  22314498.619   119493126.687    22314495.814    92939086.319    22314494.903  
                                
  20064646.444   107257034.245    20064644.532    83422129.511    20064643.424  
                                
  22535938.414   120129232.945    22535938.181    93433846.774    22535937.413  
                                
  22702815.879   121444755.254    22702815.772    94457031.320    22702814.181  
                                
  19729734.905   105503758.844    19729735.495    82058481.941    19729733.440  
                                
  22076031.504   118133304.194    22076029.539    91881450.005    22076028.717  
                                
  25736836.189   135247987.815                                                  
  25736842.533   100996897.666  
  23483701.117   123407682.318                                                  
  23483706.531    92155108.607  
  23921095.630   125706206.398                                                  
  23921101.134    93871538.194  
  24938990.067   131055277.276                                                  
  24938996.804    97865979.194  
 21  8 31 20 19 15.0000000  0 17G10G15G18G23G24G27G32R 4R 5R14R19R20
                                R21E 3E 5E 9E36
  22572752.210   118620613.128    22572751.371    92431642.786    22572751.210  
  22572752.443    88580328.161  
  22031526.255   115776451.138    22031523.574    90215403.026    22031523.003  
                                
  20205686.607   106181599.535    20205683.623    82738894.996    20205683.212  
  20205689.930    79291466.505  
  20715864.563   108862602.683    20715861.204    84827986.430    20715860.811  
  20715867.601    81293513.473  
  20813871.794   109377634.440    20813871.133    85229320.443    20813870.561  
  20813873.938    81678111.904  
  24250866.752   127439164.048    24250866.716    99303242.134    24250866.108  
  24250869.110    95165618.996  
  23756362.287   124840526.463    23756363.270    97278334.499    23756362.769  
  23756364.735    93225077.224  
  22314980.082   119495704.806    22314977.277    92941091.517    22314976.365  
                                
  20064770.169   107257695.680    20064768.275    83422643.963    20064767.149  
                                
  22535861.237   120128821.569    22535861.023    93433526.820    22535860.237  
                                
  22703654.133   121449239.367    22703654.025    94460518.964    22703652.435  
                                
  19729965.148   105504990.125    19729965.755    82059439.607    19729963.682  
                                
  22075451.405   118130199.998    22075449.439    91879035.634    22075448.617  
                                
  25736507.667   135246261.414                                                  
  25736514.011   100995608.466  
  23483755.010   123407965.460                                                  
  23483760.406    92155320.042  
  23921486.640   125708261.134                                                  
  23921492.144    93873072.571  
  24939462.721   131057761.198                                                  
  24939469.493    97867834.069  
 21  8 31 20 19 16.0000000  0 17G10G15G18G23G24G27G32R 4R 5R14R19R20
                                R21E 3E 5E 9E36
  22572337.202   118618432.410    22572336.380    92429943.528    22572336.202  
  22572337.453    88578699.718  
  22032069.687   115779306.894    22032067.025    90217628.292    22032066.435  
                                
  20205869.264   106182559.405    20205866.280    82739642.944    20205865.887  
  20205872.587    79292183.286  
  20715701.419   108861745.337    20715698.060    84827318.364    20715697.666  
  20715704.439    81292873.243  
  20813705.523   109376760.599    20813704.844    85228639.535    20813704.254  
  20813707.631    81677459.356  
  24250829.566   127438968.620    24250829.530    99303089.845    24250828.941  
  24250831.925    95165473.055  
  23755830.237   124837730.553    23755831.220    97276155.873    23755830.737  
  23755832.685    93222989.377  
  22315461.527   119498282.977    22315458.740    92943096.756    22315457.811  
                                
  20064893.966   107258357.459    20064892.072    83423158.677    20064890.946  
                                
  22535784.222   120128411.099    22535784.007    93433207.561    22535783.221  
                                
  22704492.440   121453723.749    22704492.351    94464006.810    22704490.742  
                                
  19730195.587   105506222.386    19730196.194    82060398.034    19730194.121  
                                
  22074871.430   118127096.522    22074869.482    91876621.820    22074868.660  
                                
  25736179.217   135244535.289                                                  
  25736185.542   100994319.477  
  23483808.939   123408248.913                                                  
  23483814.335    92155531.711  
  23921877.668   125710315.987                                                  
  23921883.172    93874607.046  
  24939935.500   131060245.514                                                  
  24939942.236    97869689.229  
 21  8 31 20 19 17.0000000  0 17G10G15G18G23G24G27G32R 4R 5R14R19R20
                                R21E 3E 5E 9E36
  22571922.284   118616251.925    22571921.444    92428244.453    22571921.265  
  22571922.516    88577071.442  
  22032613.192   115782162.989    22032610.511    90219853.819    22032609.940  
                                
  20206052.064   106183520.059    20206049.098    82740391.505    20206048.687  
  20206055.388    79292900.662  
  20715538.346   108860888.385    20715534.987    84826650.611    20715534.594  
  20715541.366    81292233.313  
  20813539.377   109375887.610    20813538.698    85227959.290    20813538.126  
  20813541.521    81676807.461  
  24250792.541   127438773.963    24250792.488    99302938.165    24250791.880  
  24250794.900    95165327.708  
  23755298.258   124834935.065    23755299.259    97273977.568    23755298.758  
  23755300.724    93220901.840  
  22315943.026   119500861.321    22315940.238    92945102.134    22315939.309  
                                
  20065017.852   107259019.643    20065015.958    83423673.712    20065014.832  
                                
  22535707.403   120128001.584    22535707.171    93432889.051    22535706.420  
                                
  22705330.819   121458208.510    22705330.729    94467494.955    22705329.121  
                                
  19730426.222   105507455.730    19730426.830    82061357.304    19730424.757  
                                
  22074291.633   118123993.862    22074289.668    91874208.644    22074288.828  
                                
  25735850.802   135242809.543                                                  
  25735857.145   100993030.773  
  23483862.957   123408532.744                                                  
  23483868.353    92155743.661  
  23922268.732   125712371.055                                                  
  23922274.235    93876141.676  
  24940408.314   131062730.270                                                  
  24940415.051    97871544.735  
 21  8 31 20 19 18.0000000  0 17G10G15G18G23G24G27G32R 4R 5R14R19R20
                                R21E 3E 5E 9E36
  22571507.383   118614071.656    22571506.543    92426545.544    22571506.382  
  22571507.615    88575443.328  
  22033156.749   115785019.437    22033154.087    90222079.627    22033153.479  
                                
  20206235.043   106184481.489    20206232.041    82741140.672    20206231.648  
  20206238.348    79293618.618  
  20715375.345   108860031.822    20715371.986    84825983.155    20715371.610  
  20715378.365    81291593.672  
  20813373.427   109375015.465    20813372.748    85227279.693    20813372.158  
  20813375.553    81676156.176  
  24250755.642   127438580.067    24250755.588    99302787.083    24250754.981  
  24250757.983    95165182.900  
  23754766.387   124832139.953    23754767.387    97271799.554    23754766.869  
  23754768.853    93218814.577  
  22316424.543   119503439.844    22316421.773    92947107.645    22316420.826  
                                
  20065141.791   107259682.252    20065139.897    83424189.074    20065138.789  
                                
  22535630.763   120127593.019    22535630.548    93432571.276    22535629.762  
                                
  22706169.251   121462693.579    22706169.162    94470983.337    22706167.554  
                                
  19730657.054   105508690.111    19730657.662    82062317.376    19730655.607  
                                
  22073711.980   118120891.984    22073710.015    91871796.073    22073709.175  
                                
  25735522.476   135241084.137                                                  
  25735528.802   100991742.320  
  23483917.046   123408816.966                                                  
  23483922.443    92155955.902  
  23922659.831   125714426.316                                                  
  23922665.335    93877676.445  
  24940881.236   131065215.516                                                  
  24940888.008    97873400.592  
 21  8 31 20 19 19.0000000  0 17G10G15G18G23G24G27G32R 4R 5R14R19R20
                                R21E 3E 5E 9E36
  22571092.518   118611891.481    22571091.678    92424846.691    22571091.499  
  22571092.732    88573815.236  
  22033700.325   115787876.023    22033697.663    90224305.527    22033697.073  
                                
  20206418.093   106185443.513    20206415.109    82741890.301    20206414.716  
  20206421.417    79294337.003  
  20715212.380   108859175.438    20715209.038    84825315.838    20715208.645  
  20715215.417    81290954.165  
  20813207.585   109374143.987    20813206.906    85226600.614    20813206.316  
  20813209.729    81675505.394  
  24250718.832   127438386.760    24250718.796    99302636.441    24250718.206  
  24250721.173    95165038.512  
  23754234.533   124829345.041    23754235.534    97269621.710    23754235.033  
  23754236.981    93216727.478  
  22316906.059   119506018.271    22316903.272    92949113.114    22316902.342  
                                
  20065265.802   107260345.057    20065263.890    83424704.592    20065262.782  
                                
  22535554.247   120127185.168    22535554.051    93432254.054    22535553.265  
                                
  22707007.755   121467178.890    22707007.648    94474471.910    22707006.040  
                                
  19730888.065   105509925.369    19730888.672    82063278.130    19730886.617  
                                
  22073132.416   118117790.657    22073130.451    91869383.934    22073129.629  
                                
  25735194.169   135239358.905                                                  
  25735200.512   100990453.993  
  23483971.172   123409101.347                                                  
  23483976.568    92156168.262  
  23923050.948   125716481.580                                                  
  23923056.452    93879211.198  
  24941354.211   131067700.973                                                  
  24941360.965    97875256.630  
 21  8 31 20 19 20.0000000  0 17G10G15G18G23G24G27G32R 4R 5R14R19R20
                                R21E 3E 5E 9E36
  22570677.617   118609711.230    22570676.777    92423147.794    22570676.598  
  22570677.849    88572187.139  
  22034243.954   115790732.703    22034241.274    90226531.509    22034240.702  
                                
  20206601.286   106186406.089    20206598.284    82742640.362    20206597.873  
  20206604.574    79295055.810  
  20715049.450   108858319.231    20715046.090    84824648.659    20715045.715  
  20715052.505    81290314.791  
  20813041.867   109373273.101    20813041.188    85225922.002    20813040.599  
  20813043.994    81674855.060  
  24250682.165   127438193.917    24250682.129    99302486.167    24250681.503  
  24250684.505    95164894.526  
  23753702.697   124826550.266    23753703.698    97267443.961    23753703.198  
  23753705.163    93214640.477  
  22317387.558   119508596.660    22317384.770    92951118.521    22317383.841  
                                
  20065389.813   107261008.039    20065387.919    83425220.244    20065386.793  
                                
  22535477.893   120126778.097    22535477.679    93431937.445    22535476.910  
                                
  22707846.259   121471664.279    22707846.152    94477960.546    22707844.526  
                                
  19731119.218   105511161.494    19731119.844    82064239.560    19731117.771  
                                
  22072552.942   118114689.867    22072550.994    91866972.206    22072550.172  
                                
  25734865.879   135237633.778                                                  
  25734872.240   100989165.755  
  23484025.297   123409385.874                                                  
  23484030.693    92156380.742  
  23923442.030   125718536.783                                                  
  23923447.533    93880745.945  
  24941827.222   131070186.674                                                  
  24941833.958    97877112.842  
 21  8 31 20 19 21.0000000  0 17G10G15G18G23G24G27G32R 4R 5R14R19R20
                                R21E 3E 5E 9E36
  22570262.788   118607531.260    22570261.948    92421449.116    22570261.787  
  22570263.020    88570559.229  
  22034787.619   115793589.767    22034784.957    90228757.790    22034784.367  
                                
  20206784.605   106187369.480    20206781.603    82743391.052    20206781.209  
  20206787.910    79295775.223  
  20714886.609   108857463.449    20714883.250    84823981.818    20714882.857  
  20714889.629    81289675.727  
  20812876.311   109372403.111    20812875.632    85225244.087    20812875.042  
  20812878.455    81674205.383  
  24250645.605   127438001.907    24250645.569    99302336.549    24250644.961  
  24250647.963    95164751.135  
  23753170.969   124823755.914    23753171.952    97265266.551    23753171.451  
  23753173.399    93212553.792  
  22317869.092   119511175.249    22317866.305    92953124.088    22317865.393  
                                
  20065513.914   107261671.447    20065512.020    83425736.229    20065510.894  
                                
  22535401.700   120126371.990    22535401.503    93431621.580    22535400.717  
                                
  22708684.834   121476150.056    22708684.727    94481449.470    22708683.101  
                                
  19731350.587   105512398.690    19731351.194    82065201.824    19731349.121  
                                
  22071973.664   118111589.935    22071971.698    91864561.148    22071970.858  
                                
  25734537.679   135235909.056                                                  
  25734544.040   100987877.811  
  23484079.529   123409670.832                                                  
  23484084.944    92156593.527  
  23923833.165   125720592.250                                                  
  23923838.668    93882280.852  
  24942300.322   131072672.871                                                  
  24942307.094    97878969.407  
 21  8 31 20 19 22.0000000  0 17G10G15G18G23G24G27G32R 4R 5R14R19R20
                                R21E 3E 5E 9E36
  22569847.994   118605351.476    22569847.154    92419750.580    22569846.975  
  22569848.208    88568931.481  
  22035331.374   115796447.133    22035328.693    90230984.307    22035328.104  
                                
  20206968.084   106188333.625    20206965.100    82744142.334    20206964.671  
  20206971.389    79296495.202  
  20714723.823   108856608.025    20714720.463    84823315.261    20714720.070  
  20714726.842    81289036.945  
  20812710.915   109371533.918    20812710.236    85224566.794    20812709.646  
  20812713.024    81673556.317  
  24250609.223   127437810.637    24250609.170    99302187.505    24250608.562  
  24250611.564    95164608.297  
  23752639.294   124820961.955    23752640.259    97263089.438    23752639.758  
  23752641.742    93210467.390  
  22318350.645   119513753.997    22318347.893    92955129.778    22318346.946  
                                
  20065638.086   107262335.220    20065636.174    83426252.499    20065635.066  
                                
  22535325.685   120125966.788    22535325.488    93431306.423    22535324.720  
                                
  22709523.446   121480636.123    22709523.356    94484938.628    22709521.748  
                                
  19731582.151   105513636.946    19731582.777    82066164.905    19731580.686  
                                
  22071394.493   118108490.768    22071392.545    91862150.684    22071391.723  
                                
  25734209.532   135234184.668                                                  
  25734215.876   100986590.119  
  23484133.815   123409956.134                                                  
  23484139.230    92156806.579  
  23924224.353   125722647.869                                                  
  23924229.839    93883815.896  
  24942773.529   131075159.502                                                  
  24942780.266    97880826.304  
 21  8 31 20 19 23.0000000  0 17G10G15G18G23G24G27G32R 4R 5R14R19R20
                                R21E 3E 5E 9E36
  22569433.218   118603171.788    22569432.378    92418052.125    22569432.200  
  22569433.433    88567303.785  
  22035875.164   115799304.693    22035872.484    90233210.973    22035871.894  
                                
  20207151.670   106189298.419    20207148.686    82744894.114    20207148.293  
  20207154.976    79297215.658  
  20714561.107   108855752.862    20714557.748    84822648.896    20714557.337  
  20714564.127    81288398.342  
  20812545.645   109370665.462    20812544.966    85223890.075    20812544.394  
  20812547.771    81672907.788  
  24250572.931   127437619.965    24250572.895    99302038.925    24250572.288  
  24250575.290    95164465.916  
  23752107.655   124818168.229    23752108.655    97260912.510    23752108.155  
  23752110.103    93208381.161  
  22318832.215   119516332.738    22318829.445    92957135.461    22318828.516  
                                
  20065762.311   107262999.261    20065760.399    83426768.973    20065759.309  
                                
  22535249.813   120125562.369    22535249.616    93430991.877    22535248.866  
                                
  22710362.128   121485122.404    22710362.021    94488427.958    22710360.413  
                                
  19731813.895   105514876.129    19731814.502    82067128.716    19731812.429  
                                
  22070815.465   118105392.240    22070813.517    91859740.718    22070812.696  
                                
  25733881.439   135232460.495                                                  
  25733887.800   100985302.578  
  23484188.173   123410241.688                                                  
  23484193.569    92157019.814  
  23924615.524   125724703.541                                                  
  23924621.028    93885350.981  
  24943246.773   131077646.441                                                  
  24943253.545    97882683.430  
 21  8 31 20 19 24.0000000  0 17G10G15G18G23G24G27G32R 4R 5R14R19R20
                                R21E 3E 5E 9E36
  22569018.424   118600992.033    22569017.585    92416353.605    22569017.406  
  22569018.639    88565676.042  
  22036418.936   115802162.312    22036416.256    90235437.691    22036415.684  
                                
  20207335.346   106190263.700    20207332.379    82745646.279    20207331.968  
  20207338.669    79297936.487  
  20714398.374   108854897.805    20714395.015    84821982.617    20714394.639  
  20714401.394    81287759.828  
  20812380.499   109369797.540    20812379.820    85223213.770    20812379.230  
  20812382.608    81672259.660  
  24250536.746   127437429.801    24250536.711    99301890.747    24250536.121  
  24250539.105    95164323.911  
  23751576.051   124815374.637    23751577.052    97258735.680    23751576.552  
  23751578.499    93206295.042  
  22319313.749   119518911.300    22319310.979    92959141.023    22319310.050  
                                
  20065886.572   107263663.437    20065884.660    83427285.554    20065883.552  
                                
  22535174.084   120125158.638    22535173.887    93430677.876    22535173.101  
                                
  22711200.811   121489608.728    22711200.703    94491917.316    22711199.113  
                                
  19732045.763   105516116.099    19732046.388    82068093.140    19732044.298  
                                
  22070236.527   118102294.172    22070234.561    91857331.108    22070233.739  
                                
  25733553.346   135230736.392                                                  
  25733559.707   100984015.112  
  23484242.495   123410527.309                                                  
  23484247.927    92157233.107  
  23925006.713   125726759.125                                                  
  23925012.198    93886885.984  
  24943720.069   131080133.544                                                  
  24943726.806    97884540.685  
 21  8 31 20 19 25.0000000  0 17G10G15G18G23G24G27G32R 4R 5R14R19R20
                                R21E 3E 5E 9E36
  22568603.649   118598812.442    22568602.809    92414655.225    22568602.648  
  22568603.863    88564048.429  
  22036962.762   115805020.212    22036960.117    90237664.626    22036959.528  
                                
  20207519.182   106191229.717    20207516.198    82746399.020    20207515.805  
  20207522.506    79298657.861  
  20714235.730   108854043.082    20714232.371    84821316.600    20714231.996  
  20714238.750    81287121.554  
  20812215.479   109368930.417    20812214.800    85222538.087    20812214.210  
  20812217.623    81671612.142  
  24250500.705   127437240.309    24250500.651    99301743.089    24250500.043  
  24250503.063    95164182.416  
  23751044.484   124812581.332    23751045.484    97256559.086    23751044.984  
  23751046.949    93204209.137  
  22319795.301   119521489.967    22319792.550    92961146.649    22319791.603  
                                
  20066010.869   107264327.956    20066008.975    83427802.402    20066007.849  
                                
  22535098.516   120124755.817    22535098.301    93430364.571    22535097.533  
                                
  22712039.529   121494095.365    22712039.422    94495406.923    22712037.831  
                                
  19732277.828   105517357.079    19732278.453    82069058.348    19732276.363  
                                
  22069657.695   118099196.813    22069655.766    91854922.049    22069654.926  
                                
  25733225.324   135229012.585                                                  
  25733231.668   100982727.858  
  23484296.924   123410813.274                                                  
  23484302.338    92157446.652  
  23925397.883   125728814.856                                                  
  23925403.405    93888421.099  
  24944193.402   131082621.059                                                  
  24944200.174    97886398.235  
 21  8 31 20 19 26.0000000  0 17G10G15G18G23G24G27G32R 4R 5R14R19R20
                                R21E 3E 5E 9E36
  22568188.873   118596632.760    22568188.015    92412956.771    22568187.854  
  22568189.087    88562420.749  
  22037506.606   115807878.110    22037503.961    90239891.562    22037503.354  
                                
  20207703.108   106192196.184    20207700.106    82747152.108    20207699.713  
  20207706.414    79299379.575  
  20714073.086   108853188.415    20714069.745    84820650.625    20714069.352  
  20714076.124    81286483.334  
  20812050.583   109368063.824    20812049.904    85221862.821    20812049.315  
  20812052.692    81670965.011  
  24250464.716   127437051.266    24250464.681    99301595.783    24250464.073  
  24250467.075    95164041.247  
  23750512.969   124809788.110    23750513.952    97254382.550    23750513.452  
  23750515.435    93202123.305  
  22320276.818   119524068.469    22320274.066    92963152.143    22320273.137  
                                
  20066135.184   107264992.528    20066133.290    83428319.292    20066132.164  
                                
  22535023.073   120124353.673    22535022.876    93430051.796    22535022.090  
                                
  22712878.265   121498582.018    22712878.158    94498896.539    22712876.568  
                                
  19732510.036   105518598.781    19732510.661    82070024.119    19732508.571  
                                
  22069078.971   118096099.899    22069077.024    91852513.335    22069076.202  
                                
  25732897.302   135227288.823                                                  
  25732903.646   100981440.635  
  23484351.335   123411099.280                                                  
  23484356.749    92157660.239  
  23925789.036   125730870.437                                                  
  23925794.540    93889956.124  
  24944666.788   131085108.693                                                  
  24944673.543    97888255.889  
 21  8 31 20 19 27.0000000  0 17G10G15G18G23G24G27G32R 4R 5R14R19R20
                                R21E 3E 5E 9E36
  22567774.079   118594453.040    22567773.257    92411258.290    22567773.079  
  22567774.312    88560793.023  
  22038050.485   115810736.104    22038047.805    90242118.568    22038047.215  
                                
  20207887.123   106193163.172    20207884.139    82747905.608    20207883.710  
  20207890.411    79300101.677  
  20713910.478   108852333.886    20713907.119    84819984.761    20713906.726  
  20713913.498    81285845.211  
  20811885.777   109367197.798    20811885.080    85221188.000    20811884.509  
  20811887.904    81670318.307  
  24250428.835   127436862.740    24250428.800    99301448.876    24250428.210  
  24250431.212    95163900.456  
  23749981.455   124806995.008    23749982.438    97252206.111    23749981.938  
  23749983.921    93200037.549  
  22320758.335   119526646.924    22320755.565    92965157.608    22320754.654  
                                
  20066259.534   107265657.238    20066257.640    83428836.291    20066256.532  
                                
  22534947.737   120123952.189    22534947.541    93429739.533    22534946.772  
                                
  22713717.001   121503068.771    22713716.930    94502386.232    22713715.304  
                                
  19732742.405   105519841.305    19732743.012    82070990.531    19732740.940  
                                
  22068500.355   118093003.526    22068498.389    91850105.045    22068497.567  
                                
  25732569.299   135225565.145                                                  
  25732575.642   100980153.469  
  23484405.800   123411385.404                                                  
  23484411.196    92157873.898  
  23926180.207   125732925.962                                                  
  23926185.711    93891491.092  
  24945140.210   131087596.522                                                  
  24945146.964    97890113.680  
 21  8 31 20 19 28.0000000  0 17G10G15G18G23G24G27G32R 4R 5R14R19R20
                                R21E 3E 5E 9E36
  22567359.304   118592273.373    22567358.482    92409559.844    22567358.303  
  22567359.536    88559165.343  
  22038594.365   115813594.251    22038591.684    90244345.693    22038591.112  
                                
  20208071.246   106194130.780    20208068.262    82748659.586    20208067.868  
  20208074.534    79300824.231  
  20713747.924   108851479.572    20713744.564    84819319.061    20713744.153  
  20713750.944    81285207.242  
  20811721.096   109366332.447    20811720.417    85220513.702    20811719.845  
  20811723.241    81669672.104  
  24250393.079   127436674.756    24250393.044    99301302.391    24250392.418  
  24250395.420    95163760.091  
  23749449.977   124804202.138    23749450.960    97250029.860    23749450.459  
  23749452.443    93197951.964  
  22321239.833   119529225.349    22321237.081    92967163.047    22321236.152  
                                
  20066383.939   107266322.196    20066382.044    83429353.480    20066380.919  
                                
  22534872.562   120123551.449    22534872.383    93429427.844    22534871.597  
                                
  22714555.809   121507555.677    22714555.702    94505876.043    22714554.112  
                                
  19732974.917   105521084.676    19732975.542    82071957.598    19732973.451  
                                
  22067921.827   118089907.759    22067919.879    91847697.224    22067919.040  
                                
  25732241.331   135223841.656                                                  
  25732247.656   100978866.454  
  23484460.282   123411671.750                                                  
  23484465.697    92158087.722  
  23926571.360   125734981.517                                                  
  23926576.864    93893026.071  
  24945613.685   131090084.638                                                  
  24945620.458    97891971.682  
 21  8 31 20 19 29.0000000  0 17G10G15G18G23G24G27G32R 4R 5R14R19R20
                                R21E 3E 5E 9E36
  22566944.546   118590093.764    22566943.706    92407861.450    22566943.545  
  22566944.760    88557537.726  
  22039138.298   115816452.583    22039135.617    90246572.969    22039135.028  
                                
  20208255.493   106195098.990    20208252.509    82749414.035    20208252.116  
  20208258.781    79301547.251  
  20713585.387   108850625.500    20713582.028    84818653.549    20713581.635  
  20713588.407    81284569.464  
  20811556.558   109365467.815    20811555.879    85219839.956    20811555.308  
  20811558.703    81669026.430  
  24250357.431   127436487.432    24250357.395    99301156.422    24250356.770  
  24250359.772    95163620.185  
  23748918.570   124801409.529    23748919.535    97247853.797    23748919.035  
  23748921.018    93195866.565  
  22321721.332   119531803.752    22321718.580    92969168.493    22321717.651  
                                
  20066508.378   107266987.425    20066506.484    83429870.885    20066505.359  
                                
