% program   : rnx2rtkp ver.2.4.3 b31
% inp file  : ngs/21_09_01_06_11_31_idpo.obs
% inp file  : ngs/21_09_01_06_11_31_idpo_SW.obs
% inp file  : ngs/21_09_01_06_11_31_brdc.nav
% obs start : 2021/09/01 06:00:00.0 GPST (week2173 280800.0s)
% obs end   : 2021/09/01 06:59:59.0 GPST (week2173 284399.0s)
% ref pos   : -1812304.5688  -4390074.7104   4242907.3971
%
% (x/y/z-ecef=WGS84,Q=1:fix,2:float,3:sbas,4:dgps,5:single,6:ppp,ns=# of satellites)
%  GPST              x-ecef(m)      y-ecef(m)      z-ecef(m)   Q  ns   sdx(m)   sdy(m)   sdz(m)  sdxy(m)  sdyz(m)  sdzx(m) age(s)  ratio
2173 281466.000  -1787005.0300  -4328786.4464   4317505.5069   2   8   0.5318   0.8282   0.7367   0.5132  -0.6073  -0.3870 -30.00    1.1
2173 281467.000  -1787005.0149  -4328786.2832   4317505.4537   2   8   0.3781   0.5895   0.5243   0.3647  -0.4323  -0.2749 -29.00    1.2
2173 281468.000  -1787005.0134  -4328786.1880   4317505.4121   2   8   0.3095   0.4827   0.4293   0.2986  -0.3540  -0.2250 -28.00    1.3
2173 281469.000  -1787004.9908  -4328786.1546   4317505.3470   2   8   0.2685   0.4188   0.3724   0.2590  -0.3071  -0.1952 -27.00    1.4
2173 281470.000  -1787004.9547  -4328786.0743   4317505.3035   2   8   0.2405   0.3751   0.3335   0.2320  -0.2751  -0.1749 -26.00    1.5
2173 281471.000  -1787004.9371  -4328786.0578   4317505.2672   2   8   0.2198   0.3427   0.3047   0.2120  -0.2514  -0.1598 -25.00    1.5
2173 281472.000  -1787004.9143  -4328786.0806   4317505.2943   2   8   0.2036   0.3175   0.2823   0.1964  -0.2329  -0.1481 -24.00    1.4
2173 281473.000  -1787004.9136  -4328786.0915   4317505.2995   2   8   0.1906   0.2972   0.2642   0.1838  -0.2180  -0.1386 -23.00    1.4
2173 281474.000  -1787004.9083  -4328786.0880   4317505.3117   2   8   0.1797   0.2803   0.2492   0.1734  -0.2056  -0.1308 -22.00    1.3
2173 281475.000  -1787004.9066  -4328786.1002   4317505.3693   2   8   0.1706   0.2660   0.2364   0.1645  -0.1951  -0.1241 -21.00    1.3
2173 281476.000  -1787004.8892  -4328786.1074   4317505.3701   2   8   0.1626   0.2537   0.2254   0.1569  -0.1860  -0.1183 -20.00    1.2
2173 281477.000  -1787004.8782  -4328786.1056   4317505.3979   2   8   0.1557   0.2429   0.2158   0.1502  -0.1781  -0.1133 -19.00    1.2
2173 281478.000  -1787004.8740  -4328786.1061   4317505.3965   2   8   0.1496   0.2334   0.2073   0.1443  -0.1711  -0.1088 -18.00    1.2
2173 281479.000  -1787004.8570  -4328786.1066   4317505.4136   2   8   0.1441   0.2249   0.1998   0.1390  -0.1649  -0.1049 -17.00    1.2
2173 281480.000  -1787004.8692  -4328786.1127   4317505.4066   2   8   0.1392   0.2172   0.1929   0.1342  -0.1593  -0.1013 -16.00    1.2
2173 281481.000  -1787004.8767  -4328786.1408   4317505.4281   2   8   0.1347   0.2103   0.1867   0.1299  -0.1542  -0.0980 -15.00    1.1
2173 281482.000  -1787004.8797  -4328786.1423   4317505.4343   2   8   0.1307   0.2040   0.1811   0.1260  -0.1495  -0.0950 -14.00    1.1
2173 281483.000  -1787004.8866  -4328786.1710   4317505.4604   2   8   0.1269   0.1982   0.1759   0.1224  -0.1452  -0.0923 -13.00    1.1
2173 281484.000  -1787004.8821  -4328786.1970   4317505.4906   2   8   0.1235   0.1928   0.1711   0.1191  -0.1413  -0.0898 -12.00    1.0
2173 281485.000  -1787004.8865  -4328786.1881   4317505.4848   2   8   0.1203   0.1879   0.1667   0.1160  -0.1377  -0.0875 -11.00    1.0
2173 281486.000  -1787004.8900  -4328786.2047   4317505.4917   2   8   0.1173   0.1833   0.1626   0.1131  -0.1343  -0.0853 -10.00    1.0
2173 281487.000  -1787004.8832  -4328786.2027   4317505.4851   2   8   0.1146   0.1790   0.1588   0.1104  -0.1311  -0.0833  -9.00    1.0
2173 281488.000  -1787004.8837  -4328786.2210   4317505.5011   2   8   0.1120   0.1750   0.1552   0.1080  -0.1282  -0.0814  -8.00    1.0
2173 281489.000  -1787004.8738  -4328786.2249   4317505.5011   2   8   0.1096   0.1712   0.1518   0.1056  -0.1254  -0.0796  -7.00    1.0
2173 281490.000  -1787004.8688  -4328786.2283   4317505.5097   2   8   0.1073   0.1677   0.1486   0.1034  -0.1228  -0.0780  -6.00    1.1
2173 281491.000  -1787004.8679  -4328786.2350   4317505.5186   2   8   0.1052   0.1644   0.1456   0.1014  -0.1204  -0.0764  -5.00    1.1
2173 281492.000  -1787004.8736  -4328786.2427   4317505.5274   2   8   0.1032   0.1613   0.1428   0.0994  -0.1180  -0.0749  -4.00    1.1
2173 281493.000  -1787004.8718  -4328786.2460   4317505.5299   2   8   0.1013   0.1583   0.1402   0.0976  -0.1159  -0.0736  -3.00    1.1
2173 281494.000  -1787004.8729  -4328786.2539   4317505.5379   2   8   0.0995   0.1555   0.1376   0.0958  -0.1138  -0.0722  -2.00    1.1
2173 281495.000  -1787004.8728  -4328786.2546   4317505.5239   2   8   0.0978   0.1529   0.1352   0.0942  -0.1118  -0.0710  -1.00    1.1
2173 281496.000  -1787004.8737  -4328786.2600   4317505.5251   2   8   0.0962   0.1504   0.1330   0.0927  -0.1100  -0.0698   0.00    1.0
2173 281497.000  -1787004.8714  -4328786.2545   4317505.5188   2   8   0.0947   0.1480   0.1308   0.0912  -0.1082  -0.0687   0.00    1.0
2173 281498.000  -1787004.8710  -4328786.2553   4317505.5226   2   8   0.0932   0.1457   0.1287   0.0898  -0.1065  -0.0676   0.00    1.1
2173 281499.000  -1787004.8774  -4328786.2540   4317505.5203   2   8   0.0919   0.1436   0.1268   0.0884  -0.1049  -0.0666   0.00    1.1
2173 281500.000  -1787004.8775  -4328786.2577   4317505.5250   2   8   0.0905   0.1415   0.1249   0.0872  -0.1033  -0.0657   0.00    1.1
2173 281501.000  -1787004.8795  -4328786.2602   4317505.5275   2   8   0.0893   0.1395   0.1231   0.0859  -0.1018  -0.0647   0.00    1.1
2173 281502.000  -1787004.8862  -4328786.2659   4317505.5299   2   8   0.0880   0.1376   0.1213   0.0848  -0.1004  -0.0638   0.00    1.1
2173 281503.000  -1787004.8905  -4328786.2645   4317505.5259   2   8   0.0869   0.1358   0.1196   0.0836  -0.0990  -0.0629   0.00    1.1
2173 281504.000  -1787004.8828  -4328786.2592   4317505.5185   2   8   0.0857   0.1340   0.1180   0.0825  -0.0977  -0.0621   0.00    1.1
2173 281505.000  -1787004.8925  -4328786.2594   4317505.5085   2   8   0.0847   0.1323   0.1164   0.0815  -0.0964  -0.0613   0.00    1.1
2173 281506.000  -1787004.8936  -4328786.2646   4317505.5036   2   8   0.0836   0.1306   0.1149   0.0805  -0.0952  -0.0605   0.00    1.1
2173 281507.000  -1787004.8962  -4328786.2631   4317505.5016   2   8   0.0826   0.1291   0.1135   0.0795  -0.0940  -0.0597   0.00    1.1
2173 281508.000  -1787004.8945  -4328786.2610   4317505.4966   2   8   0.0816   0.1275   0.1120   0.0785  -0.0929  -0.0590   0.00    1.1
2173 281509.000  -1787004.8935  -4328786.2533   4317505.4891   2   8   0.0807   0.1261   0.1107   0.0776  -0.0917  -0.0583   0.00    1.1
2173 281510.000  -1787004.8875  -4328786.2480   4317505.4943   2   8   0.0798   0.1246   0.1093   0.0767  -0.0906  -0.0577   0.00    1.1
2173 281511.000  -1787004.8842  -4328786.2512   4317505.4977   2   8   0.0789   0.1233   0.1080   0.0759  -0.0896  -0.0569   0.00    1.1
2173 281512.000  -1787004.8849  -4328786.2490   4317505.4929   2   8   0.0781   0.1219   0.1068   0.0750  -0.0886  -0.0563   0.00    1.1
2173 281513.000  -1787004.8878  -4328786.2549   4317505.4966   2   8   0.0772   0.1206   0.1055   0.0742  -0.0876  -0.0557   0.00    1.1
2173 281514.000  -1787004.8865  -4328786.2511   4317505.4992   2   8   0.0765   0.1194   0.1043   0.0734  -0.0866  -0.0551   0.00    1.1
2173 281515.000  -1787004.8849  -4328786.2472   4317505.4961   2   8   0.0757   0.1181   0.1032   0.0727  -0.0857  -0.0545   0.00    1.1
2173 281516.000  -1787004.8818  -4328786.2477   4317505.5003   2   8   0.0749   0.1169   0.1021   0.0720  -0.0847  -0.0540   0.00    1.1
2173 281517.000  -1787004.8831  -4328786.2447   4317505.4979   2   8   0.0742   0.1158   0.1009   0.0712  -0.0838  -0.0534   0.00    1.1
2173 281518.000  -1787004.8776  -4328786.2383   4317505.4911   2   8   0.0734   0.1146   0.0998   0.0705  -0.0830  -0.0528   0.00    1.1
2173 281519.000  -1787004.8738  -4328786.2404   4317505.4910   2   8   0.0728   0.1135   0.0988   0.0699  -0.0821  -0.0523   0.00    1.1
2173 281520.000  -1787004.8684  -4328786.2436   4317505.4961   2   8   0.0721   0.1125   0.0977   0.0692  -0.0813  -0.0518   0.00    1.1
2173 281521.000  -1787004.8650  -4328786.2397   4317505.4918   2   8   0.0714   0.1114   0.0967   0.0686  -0.0804  -0.0512   0.00    1.1
2173 281522.000  -1787004.8617  -4328786.2432   4317505.4963   2   8   0.0708   0.1104   0.0957   0.0679  -0.0796  -0.0507   0.00    1.1
2173 281523.000  -1787004.8541  -4328786.2317   4317505.4861   2   8   0.0702   0.1094   0.0948   0.0673  -0.0789  -0.0503   0.00    1.1
2173 281524.000  -1787004.8496  -4328786.2206   4317505.4749   2   8   0.0696   0.1085   0.0938   0.0667  -0.0781  -0.0498   0.00    1.1
2173 281525.000  -1787004.8494  -4328786.2213   4317505.4703   2   8   0.0690   0.1075   0.0929   0.0661  -0.0773  -0.0493   0.00    1.1
2173 281526.000  -1787004.8447  -4328786.2131   4317505.4605   2   8   0.0684   0.1066   0.0920   0.0656  -0.0766  -0.0489   0.00    1.1
2173 281527.000  -1787004.8419  -4328786.2052   4317505.4519   2   8   0.0678   0.1057   0.0911   0.0650  -0.0759  -0.0484   0.00    1.0
2173 281528.000  -1787004.8322  -4328786.2013   4317505.4518   2   8   0.0673   0.1048   0.0902   0.0645  -0.0752  -0.0480   0.00    1.0
2173 281529.000  -1787004.8282  -4328786.2001   4317505.4550   2   8   0.0667   0.1040   0.0893   0.0639  -0.0745  -0.0475   0.00    1.0
2173 281530.000  -1787004.8308  -4328786.2001   4317505.4528   2   8   0.0662   0.1031   0.0885   0.0634  -0.0738  -0.0471   0.00    1.0
2173 281531.000  -1787004.8259  -4328786.1957   4317505.4503   2   8   0.0657   0.1023   0.0877   0.0629  -0.0731  -0.0467   0.00    1.0
2173 281532.000  -1787004.8263  -4328786.1901   4317505.4415   2   8   0.0652   0.1015   0.0868   0.0624  -0.0725  -0.0463   0.00    1.0
2173 281533.000  -1787004.8289  -4328786.1915   4317505.4494   2   8   0.0647   0.1007   0.0860   0.0619  -0.0718  -0.0459   0.00    1.0
2173 281534.000  -1787004.8253  -4328786.1753   4317505.4358   2   8   0.0642   0.0999   0.0852   0.0614  -0.0712  -0.0455   0.00    1.0
2173 281535.000  -1787004.8299  -4328786.1825   4317505.4412   2   8   0.0638   0.0992   0.0845   0.0610  -0.0706  -0.0451   0.00    1.0
2173 281536.000  -1787004.8334  -4328786.1801   4317505.4360   2   8   0.0633   0.0984   0.0837   0.0605  -0.0700  -0.0447   0.00    1.0
2173 281537.000  -1787004.8289  -4328786.1740   4317505.4276   2   8   0.0628   0.0977   0.0829   0.0601  -0.0694  -0.0443   0.00    1.0
2173 281538.000  -1787004.8190  -4328786.1517   4317505.4104   2   8   0.0624   0.0970   0.0822   0.0596  -0.0688  -0.0440   0.00    1.0
2173 281539.000  -1787004.8153  -4328786.1484   4317505.4065   2   8   0.0619   0.0963   0.0814   0.0592  -0.0682  -0.0436   0.00    1.0
2173 281540.000  -1787004.8144  -4328786.1488   4317505.4046   2   8   0.0615   0.0956   0.0807   0.0588  -0.0676  -0.0433   0.00    1.0
2173 281541.000  -1787004.8136  -4328786.1452   4317505.3985   2   8   0.0611   0.0949   0.0800   0.0583  -0.0670  -0.0429   0.00    1.0
2173 281542.000  -1787004.8025  -4328786.1347   4317505.3871   2   8   0.0607   0.0942   0.0793   0.0579  -0.0665  -0.0426   0.00    1.0
2173 281543.000  -1787004.8013  -4328786.1371   4317505.3829   2   8   0.0603   0.0936   0.0786   0.0575  -0.0659  -0.0422   0.00    1.0
2173 281544.000  -1787004.8001  -4328786.1424   4317505.3844   2   8   0.0599   0.0930   0.0780   0.0571  -0.0654  -0.0419   0.00    1.0
2173 281545.000  -1787004.7962  -4328786.1369   4317505.3830   2   8   0.0595   0.0923   0.0773   0.0567  -0.0649  -0.0416   0.00    1.0
2173 281546.000  -1787004.7985  -4328786.1395   4317505.3828   2   8   0.0591   0.0917   0.0766   0.0564  -0.0643  -0.0412   0.00    1.0
2173 281547.000  -1787004.7994  -4328786.1410   4317505.3855   2   8   0.0588   0.0911   0.0760   0.0560  -0.0638  -0.0409   0.00    1.0
2173 281548.000  -1787004.8039  -4328786.1457   4317505.3910   2   8   0.0584   0.0905   0.0753   0.0556  -0.0633  -0.0406   0.00    1.0
2173 281549.000  -1787004.8011  -4328786.1371   4317505.3807   2   8   0.0580   0.0899   0.0747   0.0552  -0.0628  -0.0403   0.00    1.0
2173 281550.000  -1787004.8030  -4328786.1353   4317505.3753   2   8   0.0577   0.0893   0.0740   0.0549  -0.0623  -0.0400   0.00    1.0
2173 281551.000  -1787004.8000  -4328786.1284   4317505.3582   2   8   0.0573   0.0888   0.0734   0.0545  -0.0618  -0.0397   0.00    1.0
2173 281552.000  -1787004.8023  -4328786.1241   4317505.3482   2   8   0.0570   0.0882   0.0728   0.0542  -0.0613  -0.0394   0.00    1.0
2173 281553.000  -1787004.7988  -4328786.1190   4317505.3451   2   8   0.0566   0.0877   0.0722   0.0538  -0.0608  -0.0391   0.00    1.0
2173 281554.000  -1787004.7992  -4328786.1199   4317505.3401   2   8   0.0563   0.0871   0.0716   0.0535  -0.0604  -0.0388   0.00    1.0
2173 281555.000  -1787004.7977  -4328786.1141   4317505.3301   2   8   0.0559   0.0866   0.0710   0.0532  -0.0599  -0.0385   0.00    1.0
2173 281556.000  -1787004.7947  -4328786.1124   4317505.3324   2   8   0.0556   0.0860   0.0704   0.0529  -0.0594  -0.0382   0.00    1.0
2173 281557.000  -1787004.7951  -4328786.1061   4317505.3284   2   8   0.0553   0.0855   0.0698   0.0525  -0.0590  -0.0380   0.00    1.0
2173 281558.000  -1787004.7997  -4328786.1077   4317505.3224   2   8   0.0550   0.0850   0.0693   0.0522  -0.0585  -0.0377   0.00    1.0
2173 281559.000  -1787004.8003  -4328786.1045   4317505.3138   2   8   0.0547   0.0845   0.0687   0.0519  -0.0581  -0.0374   0.00    1.0
2173 281560.000  -1787004.8007  -4328786.0984   4317505.3073   2   8   0.0544   0.0840   0.0682   0.0516  -0.0576  -0.0372   0.00    1.0
2173 281561.000  -1787004.8001  -4328786.0858   4317505.2888   2   8   0.0541   0.0835   0.0676   0.0513  -0.0572  -0.0369   0.00    1.0
2173 281562.000  -1787004.8031  -4328786.0859   4317505.2784   2   8   0.0538   0.0830   0.0671   0.0510  -0.0568  -0.0366   0.00    1.0
2173 281563.000  -1787004.8011  -4328786.0731   4317505.2663   2   8   0.0535   0.0826   0.0665   0.0507  -0.0564  -0.0364   0.00    1.0
2173 281564.000  -1787004.8045  -4328786.0703   4317505.2575   2   8   0.0533   0.0821   0.0660   0.0504  -0.0560  -0.0361   0.00    1.0
2173 281565.000  -1787004.8060  -4328786.0711   4317505.2545   2   8   0.0530   0.0817   0.0655   0.0501  -0.0555  -0.0358   0.00    1.0
2173 281566.000  -1787004.8063  -4328786.0730   4317505.2509   2   8   0.0527   0.0812   0.0649   0.0499  -0.0551  -0.0356   0.00    1.0
2173 281567.000  -1787004.8019  -4328786.0630   4317505.2446   2   8   0.0524   0.0807   0.0644   0.0496  -0.0548  -0.0353   0.00    1.0
2173 281568.000  -1787004.7986  -4328786.0613   4317505.2367   2   8   0.0522   0.0803   0.0640   0.0493  -0.0543  -0.0351   0.00    1.0
2173 281569.000  -1787004.7989  -4328786.0624   4317505.2358   2   8   0.0519   0.0799   0.0635   0.0490  -0.0539  -0.0348   0.00    1.0
2173 281570.000  -1787004.8003  -4328786.0552   4317505.2303   2   8   0.0516   0.0794   0.0630   0.0488  -0.0536  -0.0346   0.00    1.0
2173 281571.000  -1787004.7954  -4328786.0503   4317505.2200   2   8   0.0514   0.0790   0.0624   0.0485  -0.0532  -0.0344   0.00    1.0
2173 281572.000  -1787004.7988  -4328786.0481   4317505.2223   2   8   0.0511   0.0786   0.0620   0.0482  -0.0528  -0.0341   0.00    1.0
2173 281573.000  -1787004.7979  -4328786.0438   4317505.2135   2   8   0.0508   0.0782   0.0615   0.0480  -0.0524  -0.0339   0.00    1.0
2173 281574.000  -1787004.7951  -4328786.0313   4317505.2037   2   8   0.0506   0.0778   0.0611   0.0477  -0.0520  -0.0337   0.00    1.0
2173 281575.000  -1787004.7972  -4328786.0251   4317505.1927   2   8   0.0503   0.0774   0.0606   0.0475  -0.0517  -0.0335   0.00    1.0
2173 281576.000  -1787004.7969  -4328786.0155   4317505.1814   2   8   0.0501   0.0770   0.0601   0.0472  -0.0513  -0.0333   0.00    1.0
2173 281577.000  -1787004.7977  -4328785.9983   4317505.1595   2   8   0.0499   0.0766   0.0596   0.0470  -0.0510  -0.0330   0.00    1.0
2173 281578.000  -1787004.7973  -4328785.9935   4317505.1439   2   8   0.0497   0.0762   0.0592   0.0467  -0.0506  -0.0328   0.00    1.0
2173 281579.000  -1787004.7909  -4328785.9769   4317505.1251   2   8   0.0494   0.0758   0.0587   0.0465  -0.0503  -0.0326   0.00    1.0
2173 281580.000  -1787004.7872  -4328785.9691   4317505.1114   2   8   0.0492   0.0754   0.0583   0.0463  -0.0499  -0.0324   0.00    1.0
2173 281581.000  -1787004.7844  -4328785.9546   4317505.0935   2   8   0.0490   0.0751   0.0579   0.0461  -0.0496  -0.0322   0.00    1.0
2173 281582.000  -1787004.7823  -4328785.9511   4317505.0861   2   8   0.0487   0.0747   0.0574   0.0459  -0.0493  -0.0320   0.00    1.0
2173 281583.000  -1787004.7775  -4328785.9448   4317505.0761   2   8   0.0485   0.0743   0.0569   0.0456  -0.0489  -0.0317   0.00    1.0
2173 281584.000  -1787004.7782  -4328785.9419   4317505.0704   2   8   0.0483   0.0740   0.0565   0.0454  -0.0486  -0.0315   0.00    1.0
2173 281585.000  -1787004.7746  -4328785.9333   4317505.0594   2   8   0.0481   0.0736   0.0561   0.0452  -0.0482  -0.0313   0.00    1.0
2173 281586.000  -1787004.7733  -4328785.9290   4317505.0537   2   8   0.0479   0.0733   0.0557   0.0450  -0.0479  -0.0312   0.00    1.0
2173 281587.000  -1787004.7753  -4328785.9272   4317505.0475   2   8   0.0476   0.0729   0.0553   0.0447  -0.0476  -0.0310   0.00    1.0
2173 281588.000  -1787004.7706  -4328785.9096   4317505.0290   2   8   0.0474   0.0726   0.0549   0.0445  -0.0473  -0.0308   0.00    1.0
2173 281589.000  -1787004.7652  -4328785.8976   4317505.0144   2   8   0.0472   0.0722   0.0545   0.0443  -0.0470  -0.0306   0.00    1.0
2173 281590.000  -1787004.7664  -4328785.8924   4317505.0088   2   8   0.0470   0.0719   0.0541   0.0441  -0.0467  -0.0304   0.00    1.0
2173 281591.000  -1787004.7650  -4328785.8875   4317504.9962   2   8   0.0468   0.0716   0.0537   0.0439  -0.0463  -0.0302   0.00    1.0
2173 281592.000  -1787004.7639  -4328785.8786   4317504.9834   2   8   0.0467   0.0712   0.0533   0.0437  -0.0461  -0.0300   0.00    1.0
2173 281593.000  -1787004.7635  -4328785.8747   4317504.9771   2   8   0.0465   0.0709   0.0529   0.0435  -0.0457  -0.0299   0.00    1.0
2173 281594.000  -1787004.7663  -4328785.8743   4317504.9782   2   8   0.0462   0.0706   0.0525   0.0433  -0.0455  -0.0297   0.00    1.0
2173 281595.000  -1787004.7721  -4328785.8824   4317504.9900   2   8   0.0461   0.0703   0.0521   0.0431  -0.0452  -0.0295   0.00    1.0
2173 281596.000  -1787004.7776  -4328785.8842   4317504.9963   2   8   0.0459   0.0700   0.0518   0.0429  -0.0449  -0.0293   0.00    1.0
2173 281597.000  -1787004.7823  -4328785.8880   4317505.0059   2   8   0.0457   0.0697   0.0514   0.0427  -0.0446  -0.0291   0.00    1.0
2173 281598.000  -1787004.7907  -4328785.8886   4317505.0044   2   8   0.0454   0.0694   0.0510   0.0425  -0.0443  -0.0289   0.00    1.0
2173 281599.000  -1787004.7938  -4328785.8746   4317504.9994   2   8   0.0453   0.0691   0.0507   0.0423  -0.0440  -0.0288   0.00    1.0
2173 281600.000  -1787004.7933  -4328785.8658   4317504.9891   2   8   0.0451   0.0688   0.0503   0.0422  -0.0437  -0.0286   0.00    1.0
2173 281601.000  -1787004.7949  -4328785.8555   4317504.9826   2   8   0.0449   0.0685   0.0500   0.0420  -0.0435  -0.0285   0.00    1.0
2173 281602.000  -1787004.7911  -4328785.8460   4317504.9734   2   8   0.0447   0.0682   0.0496   0.0418  -0.0432  -0.0283   0.00    1.0
2173 281603.000  -1787004.7918  -4328785.8352   4317504.9592   2   8   0.0446   0.0679   0.0492   0.0416  -0.0429  -0.0282   0.00    1.0
2173 281604.000  -1787004.7904  -4328785.8306   4317504.9521   2   8   0.0444   0.0676   0.0489   0.0415  -0.0427  -0.0279   0.00    1.0
2173 281605.000  -1787004.7924  -4328785.8220   4317504.9398   2   8   0.0442   0.0673   0.0486   0.0413  -0.0424  -0.0278   0.00    1.0
2173 281606.000  -1787004.7970  -4328785.8183   4317504.9324   2   8   0.0441   0.0670   0.0482   0.0411  -0.0421  -0.0276   0.00    1.0
2173 281607.000  -1787004.7935  -4328785.8056   4317504.9235   2   8   0.0439   0.0668   0.0479   0.0409  -0.0418  -0.0275   0.00    1.0
2173 281608.000  -1787004.7655  -4328785.7693   4317504.8901   2   8   0.0437   0.0665   0.0476   0.0407  -0.0416  -0.0274   0.00    1.0
2173 281609.000  -1787004.7758  -4328785.7815   4317504.9107   2   8   0.0435   0.0662   0.0472   0.0406  -0.0413  -0.0272   0.00    1.0
2173 281610.000  -1787004.7794  -4328785.7963   4317504.9300   2   8   0.0434   0.0660   0.0469   0.0404  -0.0411  -0.0270   0.00    1.0
2173 281611.000  -1787004.7863  -4328785.8076   4317504.9503   2   8   0.0433   0.0657   0.0466   0.0403  -0.0409  -0.0269   0.00    1.0
2173 281612.000  -1787004.7917  -4328785.8157   4317504.9702   2   8   0.0430   0.0654   0.0462   0.0401  -0.0406  -0.0267   0.00    1.0
2173 281613.000  -1787004.7957  -4328785.8243   4317504.9871   2   8   0.0429   0.0652   0.0460   0.0399  -0.0404  -0.0266   0.00    1.0
2173 281614.000  -1787004.8087  -4328785.8424   4317505.0074   2   8   0.0428   0.0649   0.0456   0.0398  -0.0401  -0.0265   0.00    1.0
2173 281615.000  -1787004.8145  -4328785.8536   4317505.0287   2   8   0.0426   0.0647   0.0454   0.0396  -0.0399  -0.0263   0.00    1.0
2173 281616.000  -1787004.8198  -4328785.8554   4317505.0388   2   8   0.0424   0.0644   0.0451   0.0395  -0.0396  -0.0261   0.00    1.0
2173 281617.000  -1787004.8211  -4328785.8646   4317505.0494   2   8   0.0423   0.0642   0.0447   0.0393  -0.0395  -0.0261   0.00    1.0
2173 281618.000  -1787004.8267  -4328785.8720   4317505.0632   2   8   0.0421   0.0639   0.0444   0.0392  -0.0392  -0.0258   0.00    1.0
2173 281619.000  -1787004.8273  -4328785.8757   4317505.0751   2   8   0.0419   0.0637   0.0441   0.0390  -0.0390  -0.0258   0.00    1.0
2173 281620.000  -1787004.8316  -4328785.8800   4317505.0838   2   8   0.0419   0.0635   0.0438   0.0389  -0.0387  -0.0256   0.00    1.0
2173 281621.000  -1787004.8307  -4328785.8889   4317505.0997   2   8   0.0417   0.0632   0.0435   0.0387  -0.0385  -0.0254   0.00    1.0
2173 281622.000  -1787004.8364  -4328785.9025   4317505.1200   2   8   0.0415   0.0630   0.0432   0.0386  -0.0383  -0.0253   0.00    1.0
2173 281623.000  -1787004.8388  -4328785.9086   4317505.1341   2   8   0.0414   0.0627   0.0430   0.0384  -0.0381  -0.0252   0.00    1.0
2173 281624.000  -1787004.8452  -4328785.9248   4317505.1580   2   8   0.0412   0.0625   0.0427   0.0383  -0.0379  -0.0250   0.00    1.0
2173 281625.000  -1787004.8523  -4328785.9389   4317505.1787   2   8   0.0411   0.0623   0.0424   0.0381  -0.0376  -0.0249   0.00    1.0
2173 281626.000  -1787004.8558  -4328785.9475   4317505.1927   2   8   0.0410   0.0620   0.0421   0.0380  -0.0374  -0.0248   0.00    1.0
2173 281627.000  -1787004.8606  -4328785.9577   4317505.2073   2   8   0.0408   0.0618   0.0418   0.0378  -0.0372  -0.0246   0.00    1.0
2173 281628.000  -1787004.8686  -4328785.9641   4317505.2179   2   8   0.0407   0.0616   0.0416   0.0377  -0.0370  -0.0245   0.00    1.0
2173 281629.000  -1787004.8749  -4328785.9671   4317505.2238   2   8   0.0406   0.0614   0.0413   0.0376  -0.0368  -0.0244   0.00    1.0
2173 281630.000  -1787004.8794  -4328785.9684   4317505.2293   2   8   0.0404   0.0612   0.0410   0.0375  -0.0366  -0.0243   0.00    1.0
2173 281631.000  -1787004.8806  -4328785.9671   4317505.2323   2   8   0.0403   0.0610   0.0408   0.0373  -0.0364  -0.0241   0.00    1.0
2173 281632.000  -1787004.8822  -4328785.9688   4317505.2276   2   8   0.0402   0.0607   0.0405   0.0372  -0.0362  -0.0240   0.00    1.0
2173 281633.000  -1787004.8834  -4328785.9652   4317505.2279   2   8   0.0401   0.0605   0.0402   0.0370  -0.0360  -0.0239   0.00    1.0
2173 281634.000  -1787004.8806  -4328785.9666   4317505.2303   2   8   0.0399   0.0603   0.0400   0.0370  -0.0358  -0.0238   0.00    1.1
2173 281635.000  -1787004.8759  -4328785.9622   4317505.2277   2   8   0.0398   0.0601   0.0398   0.0368  -0.0356  -0.0236   0.00    1.1
2173 281636.000  -1787004.8752  -4328785.9647   4317505.2278   2   8   0.0396   0.0599   0.0395   0.0367  -0.0354  -0.0236   0.00    1.1
2173 281637.000  -1787004.8778  -4328785.9688   4317505.2315   2   8   0.0395   0.0597   0.0393   0.0365  -0.0352  -0.0234   0.00    1.1
2173 281638.000  -1787004.8760  -4328785.9686   4317505.2331   2   8   0.0394   0.0595   0.0390   0.0364  -0.0351  -0.0233   0.00    1.1
2173 281639.000  -1787004.8765  -4328785.9762   4317505.2363   2   8   0.0393   0.0593   0.0387   0.0363  -0.0349  -0.0232   0.00    1.1
2173 281640.000  -1787004.8786  -4328785.9747   4317505.2384   2   8   0.0391   0.0591   0.0385   0.0362  -0.0347  -0.0231   0.00    1.1
2173 281641.000  -1787004.8800  -4328785.9789   4317505.2427   2   8   0.0390   0.0589   0.0383   0.0360  -0.0345  -0.0230   0.00    1.1
2173 281642.000  -1787004.8802  -4328785.9815   4317505.2439   2   8   0.0389   0.0587   0.0381   0.0359  -0.0343  -0.0229   0.00    1.1
2173 281643.000  -1787004.8815  -4328785.9806   4317505.2371   2   8   0.0388   0.0585   0.0378   0.0358  -0.0341  -0.0227   0.00    1.1
2173 281644.000  -1787004.8807  -4328785.9801   4317505.2402   2   8   0.0386   0.0583   0.0375   0.0357  -0.0340  -0.0226   0.00    1.1
2173 281645.000  -1787004.8803  -4328785.9788   4317505.2406   2   8   0.0385   0.0581   0.0373   0.0356  -0.0338  -0.0226   0.00    1.1
2173 281646.000  -1787004.8777  -4328785.9835   4317505.2405   2   8   0.0384   0.0579   0.0371   0.0354  -0.0336  -0.0224   0.00    1.1
2173 281647.000  -1787004.8733  -4328785.9831   4317505.2420   2   8   0.0383   0.0578   0.0369   0.0353  -0.0334  -0.0223   0.00    1.1
2173 281648.000  -1787004.8764  -4328785.9846   4317505.2454   2   8   0.0382   0.0576   0.0367   0.0352  -0.0333  -0.0222   0.00    1.1
2173 281649.000  -1787004.8747  -4328785.9865   4317505.2450   2   8   0.0381   0.0574   0.0364   0.0351  -0.0331  -0.0222   0.00    1.1
2173 281650.000  -1787004.8731  -4328785.9820   4317505.2463   2   8   0.0379   0.0572   0.0362   0.0350  -0.0329  -0.0221   0.00    1.1
2173 281651.000  -1787004.8760  -4328785.9880   4317505.2491   2   8   0.0378   0.0570   0.0360   0.0349  -0.0328  -0.0219   0.00    1.1
2173 281652.000  -1787004.8720  -4328785.9883   4317505.2488   2   8   0.0377   0.0568   0.0358   0.0348  -0.0326  -0.0218   0.00    1.1
2173 281653.000  -1787004.8748  -4328785.9856   4317505.2527   2   8   0.0376   0.0567   0.0356   0.0346  -0.0324  -0.0217   0.00    1.1
2173 281654.000  -1787004.8791  -4328785.9896   4317505.2521   2   8   0.0375   0.0565   0.0353   0.0346  -0.0323  -0.0216   0.00    1.1
2173 281655.000  -1787004.8882  -4328785.9928   4317505.2379   2   8   0.0374   0.0563   0.0351   0.0345  -0.0321  -0.0214   0.00    1.1
2173 281656.000  -1787004.8882  -4328785.9878   4317505.2299   2   8   0.0373   0.0562   0.0350   0.0343  -0.0319  -0.0214   0.00    1.1
2173 281657.000  -1787004.8858  -4328785.9825   4317505.2222   2   8   0.0372   0.0560   0.0348   0.0342  -0.0318  -0.0213   0.00    1.1
2173 281658.000  -1787004.8844  -4328785.9820   4317505.2128   2   8   0.0371   0.0558   0.0345   0.0341  -0.0317  -0.0212   0.00    1.1
2173 281659.000  -1787004.8816  -4328785.9769   4317505.2071   2   8   0.0370   0.0556   0.0344   0.0340  -0.0315  -0.0212   0.00    1.1
2173 281660.000  -1787004.8765  -4328785.9741   4317505.1998   2   8   0.0368   0.0555   0.0341   0.0339  -0.0314  -0.0210   0.00    1.1
2173 281661.000  -1787004.8769  -4328785.9783   4317505.1938   2   8   0.0367   0.0553   0.0340   0.0338  -0.0312  -0.0210   0.00    1.1
2173 281662.000  -1787004.8691  -4328785.9663   4317505.1893   2   8   0.0367   0.0551   0.0338   0.0337  -0.0310  -0.0209   0.00    1.1
2173 281663.000  -1787004.8700  -4328785.9773   4317505.1926   2   8   0.0365   0.0550   0.0336   0.0336  -0.0309  -0.0208   0.00    1.1
2173 281664.000  -1787004.8722  -4328785.9780   4317505.1912   2   8   0.0364   0.0548   0.0333   0.0335  -0.0308  -0.0206   0.00    1.1
2173 281665.000  -1787004.8780  -4328785.9804   4317505.1969   2   8   0.0363   0.0547   0.0332   0.0334  -0.0306  -0.0206   0.00    1.1
2173 281666.000  -1787004.8776  -4328785.9800   4317505.1965   2   8   0.0362   0.0545   0.0330   0.0333  -0.0305  -0.0205   0.00    1.1
2173 281667.000  -1787004.8801  -4328785.9850   4317505.2010   2   8   0.0361   0.0543   0.0328   0.0332  -0.0304  -0.0204   0.00    1.1
2173 281668.000  -1787004.8838  -4328785.9843   4317505.2023   2   8   0.0360   0.0542   0.0326   0.0331  -0.0301  -0.0203   0.00    1.1
2173 281669.000  -1787004.8847  -4328785.9851   4317505.2019   2   8   0.0360   0.0541   0.0325   0.0330  -0.0300  -0.0203   0.00    1.1
2173 281670.000  -1787004.8880  -4328785.9951   4317505.2080   2   8   0.0358   0.0539   0.0322   0.0329  -0.0299  -0.0202   0.00    1.1
2173 281671.000  -1787004.8844  -4328785.9943   4317505.2042   2   8   0.0357   0.0537   0.0321   0.0328  -0.0298  -0.0201   0.00    1.1
2173 281672.000  -1787004.8861  -4328786.0018   4317505.2098   2   8   0.0356   0.0536   0.0319   0.0327  -0.0297  -0.0200   0.00    1.1
2173 281673.000  -1787004.8891  -4328786.0028   4317505.2131   2   8   0.0355   0.0534   0.0318   0.0327  -0.0295  -0.0199   0.00    1.1
2173 281674.000  -1787004.8880  -4328786.0013   4317505.2091   2   8   0.0354   0.0533   0.0316   0.0325  -0.0294  -0.0199   0.00    1.1
2173 281675.000  -1787004.8914  -4328786.0055   4317505.2092   2   8   0.0354   0.0531   0.0314   0.0325  -0.0293  -0.0198   0.00    1.1
2173 281676.000  -1787004.8957  -4328786.0019   4317505.2090   2   8   0.0353   0.0530   0.0312   0.0324  -0.0291  -0.0197   0.00    1.1
2173 281677.000  -1787004.8948  -4328786.0054   4317505.1999   2   8   0.0352   0.0528   0.0311   0.0323  -0.0290  -0.0196   0.00    1.1
2173 281678.000  -1787004.8975  -4328786.0049   4317505.1962   2   8   0.0351   0.0527   0.0309   0.0322  -0.0289  -0.0195   0.00    1.1
2173 281679.000  -1787004.8946  -4328786.0021   4317505.1888   2   8   0.0350   0.0526   0.0307   0.0321  -0.0287  -0.0194   0.00    1.1
2173 281680.000  -1787004.8981  -4328785.9999   4317505.1877   2   8   0.0349   0.0524   0.0306   0.0320  -0.0286  -0.0193   0.00    1.1
2173 281681.000  -1787004.8977  -4328786.0019   4317505.1841   2   8   0.0348   0.0523   0.0304   0.0319  -0.0284  -0.0193   0.00    1.1
2173 281682.000  -1787004.8969  -4328785.9982   4317505.1823   2   8   0.0347   0.0521   0.0303   0.0318  -0.0283  -0.0192   0.00    1.1
2173 281683.000  -1787004.9005  -4328786.0009   4317505.1819   2   8   0.0346   0.0520   0.0301   0.0318  -0.0282  -0.0192   0.00    1.1
2173 281684.000  -1787004.9011  -4328785.9969   4317505.1755   2   8   0.0345   0.0519   0.0299   0.0317  -0.0281  -0.0190   0.00    1.1
2173 281685.000  -1787004.9030  -4328785.9947   4317505.1740   2   8   0.0344   0.0517   0.0298   0.0316  -0.0280  -0.0190   0.00    1.1
2173 281686.000  -1787004.9006  -4328785.9901   4317505.1690   2   8   0.0343   0.0516   0.0296   0.0315  -0.0279  -0.0189   0.00    1.1
2173 281687.000  -1787004.9039  -4328785.9825   4317505.1591   2   8   0.0343   0.0515   0.0294   0.0314  -0.0277  -0.0189   0.00    1.0
2173 281688.000  -1787004.9029  -4328785.9811   4317505.1506   2   8   0.0342   0.0513   0.0293   0.0314  -0.0276  -0.0188   0.00    1.0
2173 281689.000  -1787004.9002  -4328785.9740   4317505.1423   2   8   0.0341   0.0512   0.0291   0.0313  -0.0276  -0.0187   0.00    1.0
2173 281690.000  -1787004.8963  -4328785.9678   4317505.1314   2   8   0.0340   0.0510   0.0290   0.0312  -0.0274  -0.0186   0.00    1.0
2173 281691.000  -1787004.8964  -4328785.9638   4317505.1268   2   8   0.0339   0.0509   0.0288   0.0311  -0.0273  -0.0186   0.00    1.0
2173 281692.000  -1787004.8967  -4328785.9630   4317505.1197   2   8   0.0338   0.0508   0.0287   0.0310  -0.0271  -0.0185   0.00    1.0
2173 281693.000  -1787004.8916  -4328785.9584   4317505.1148   2   8   0.0337   0.0507   0.0285   0.0310  -0.0271  -0.0184   0.00    1.0
2173 281694.000  -1787004.8933  -4328785.9597   4317505.1048   2   8   0.0337   0.0505   0.0284   0.0308  -0.0270  -0.0184   0.00    1.0
2173 281695.000  -1787004.8932  -4328785.9504   4317505.0944   2   8   0.0335   0.0504   0.0283   0.0308  -0.0268  -0.0183   0.00    1.0
2173 281696.000  -1787004.8930  -4328785.9490   4317505.0875   2   8   0.0335   0.0503   0.0281   0.0307  -0.0267  -0.0182   0.00    1.0
2173 281697.000  -1787004.8876  -4328785.9480   4317505.0806   2   8   0.0334   0.0502   0.0280   0.0306  -0.0266  -0.0181   0.00    1.0
2173 281698.000  -1787004.8855  -4328785.9435   4317505.0719   2   8   0.0333   0.0500   0.0279   0.0305  -0.0265  -0.0181   0.00    1.0
2173 281699.000  -1787004.8810  -4328785.9334   4317505.0623   2   8   0.0332   0.0499   0.0276   0.0305  -0.0265  -0.0180   0.00    1.0
2173 281700.000  -1787004.8806  -4328785.9310   4317505.0540   2   8   0.0332   0.0498   0.0276   0.0304  -0.0263  -0.0179   0.00    1.0
2173 281701.000  -1787004.8772  -4328785.9313   4317505.0486   2   8   0.0331   0.0497   0.0274   0.0303  -0.0263  -0.0179   0.00    1.0
2173 281702.000  -1787004.8779  -4328785.9244   4317505.0389   2   8   0.0330   0.0495   0.0273   0.0303  -0.0261  -0.0178   0.00    1.0
2173 281703.000  -1787004.8811  -4328785.9211   4317505.0326   2   8   0.0329   0.0494   0.0272   0.0301  -0.0260  -0.0179   0.00    1.0
2173 281704.000  -1787004.8790  -4328785.9181   4317505.0287   2   8   0.0329   0.0493   0.0271   0.0301  -0.0259  -0.0177   0.00    1.0
2173 281705.000  -1787004.8792  -4328785.9148   4317505.0224   2   8   0.0327   0.0492   0.0269   0.0300  -0.0258  -0.0177   0.00    1.0
2173 281706.000  -1787004.8748  -4328785.9136   4317505.0125   2   8   0.0327   0.0491   0.0267   0.0300  -0.0257  -0.0176   0.00    1.0
2173 281707.000  -1787004.8706  -4328785.9127   4317505.0076   2   8   0.0326   0.0490   0.0266   0.0299  -0.0256  -0.0175   0.00    1.0
2173 281708.000  -1787004.8783  -4328785.9099   4317505.0069   2   8   0.0326   0.0488   0.0265   0.0298  -0.0255  -0.0174   0.00    1.0
2173 281709.000  -1787004.8766  -4328785.9105   4317505.0047   2   8   0.0325   0.0487   0.0264   0.0297  -0.0254  -0.0174   0.00    1.0
2173 281710.000  -1787004.8813  -4328785.9091   4317505.0010   2   8   0.0324   0.0486   0.0263   0.0297  -0.0253  -0.0173   0.00    1.0
2173 281711.000  -1787004.8819  -4328785.9081   4317504.9990   2   8   0.0323   0.0485   0.0262   0.0296  -0.0252  -0.0173   0.00    1.0
2173 281712.000  -1787004.8825  -4328785.9038   4317504.9971   2   8   0.0323   0.0484   0.0260   0.0296  -0.0251  -0.0172   0.00    1.0
2173 281713.000  -1787004.8848  -4328785.9041   4317504.9946   2   8   0.0321   0.0483   0.0260   0.0295  -0.0250  -0.0173   0.00    1.0
2173 281714.000  -1787004.8829  -4328785.8964   4317504.9887   2   8   0.0320   0.0482   0.0258   0.0294  -0.0249  -0.0171   0.00    1.0
2173 281715.000  -1787004.8837  -4328785.8981   4317504.9848   2   8   0.0320   0.0481   0.0257   0.0294  -0.0249  -0.0170   0.00    1.0
2173 281716.000  -1787004.8872  -4328785.8938   4317504.9716   2   8   0.0320   0.0480   0.0256   0.0293  -0.0247  -0.0169   0.00    1.0
2173 281717.000  -1787004.8850  -4328785.8902   4317504.9590   2   8   0.0319   0.0478   0.0255   0.0292  -0.0247  -0.0169   0.00    1.1
2173 281718.000  -1787004.8864  -4328785.8863   4317504.9479   2   8   0.0318   0.0477   0.0253   0.0291  -0.0245  -0.0169   0.00    1.1
2173 281719.000  -1787004.8837  -4328785.8776   4317504.9381   2   8   0.0318   0.0476   0.0252   0.0291  -0.0245  -0.0168   0.00    1.1
2173 281720.000  -1787004.8848  -4328785.8739   4317504.9251   2   8   0.0317   0.0475   0.0250   0.0290  -0.0244  -0.0168   0.00    1.1
2173 281721.000  -1787004.8843  -4328785.8683   4317504.9111   2   8   0.0316   0.0474   0.0250   0.0289  -0.0244  -0.0167   0.00    1.1
2173 281722.000  -1787004.8864  -4328785.8592   4317504.8983   2   8   0.0315   0.0473   0.0249   0.0288  -0.0242  -0.0166   0.00    1.1
2173 281723.000  -1787004.8812  -4328785.8535   4317504.8830   2   8   0.0314   0.0472   0.0247   0.0288  -0.0242  -0.0166   0.00    1.1
2173 281724.000  -1787004.8776  -4328785.8430   4317504.8734   2   8   0.0314   0.0471   0.0247   0.0287  -0.0240  -0.0166   0.00    1.1
2173 281725.000  -1787004.8793  -4328785.8421   4317504.8624   2   8   0.0313   0.0470   0.0245   0.0287  -0.0240  -0.0165   0.00    1.1
2173 281726.000  -1787004.8793  -4328785.8369   4317504.8555   2   8   0.0312   0.0469   0.0245   0.0286  -0.0239  -0.0164   0.00    1.1
2173 281727.000  -1787004.8797  -4328785.8402   4317504.8485   2   8   0.0312   0.0468   0.0243   0.0286  -0.0238  -0.0163   0.00    1.1
2173 281728.000  -1787004.8767  -4328785.8378   4317504.8361   2   8   0.0311   0.0467   0.0241   0.0285  -0.0237  -0.0163   0.00    1.1
2173 281729.000  -1787004.8765  -4328785.8318   4317504.8258   2   8   0.0310   0.0466   0.0242   0.0284  -0.0236  -0.0163   0.00    1.1
2173 281730.000  -1787004.8738  -4328785.8299   4317504.8214   2   8   0.0310   0.0465   0.0240   0.0284  -0.0236  -0.0163   0.00    1.1
2173 281731.000  -1787004.8718  -4328785.8228   4317504.8102   2   8   0.0309   0.0464   0.0239   0.0283  -0.0235  -0.0162   0.00    1.1
2173 281732.000  -1787004.8700  -4328785.8254   4317504.8032   2   8   0.0308   0.0463   0.0238   0.0282  -0.0234  -0.0162   0.00    1.1
2173 281733.000  -1787004.8629  -4328785.8155   4317504.7935   2   8   0.0308   0.0462   0.0237   0.0282  -0.0233  -0.0161   0.00    1.1
2173 281734.000  -1787004.8658  -4328785.8159   4317504.7925   2   8   0.0307   0.0461   0.0236   0.0281  -0.0232  -0.0162   0.00    1.1
2173 281735.000  -1787004.8669  -4328785.8172   4317504.7878   2   8   0.0306   0.0460   0.0235   0.0281  -0.0231  -0.0161   0.00    1.1
2173 281736.000  -1787004.8675  -4328785.8134   4317504.7838   2   8   0.0306   0.0459   0.0234   0.0280  -0.0231  -0.0159   0.00    1.1
2173 281737.000  -1787004.8675  -4328785.8100   4317504.7793   2   8   0.0305   0.0458   0.0233   0.0279  -0.0230  -0.0159   0.00    1.1
2173 281738.000  -1787004.8661  -4328785.8146   4317504.7779   2   8   0.0305   0.0457   0.0232   0.0279  -0.0230  -0.0158   0.00    1.1
2173 281739.000  -1787004.8679  -4328785.8178   4317504.7790   2   8   0.0304   0.0456   0.0230   0.0278  -0.0229  -0.0157   0.00    1.1
2173 281740.000  -1787004.8684  -4328785.8210   4317504.7813   2   8   0.0303   0.0455   0.0229   0.0278  -0.0228  -0.0157   0.00    1.1
2173 281741.000  -1787004.8690  -4328785.8266   4317504.7848   2   8   0.0303   0.0454   0.0229   0.0277  -0.0227  -0.0158   0.00    1.1
2173 281742.000  -1787004.8713  -4328785.8276   4317504.7820   2   8   0.0302   0.0453   0.0228   0.0276  -0.0226  -0.0157   0.00    1.1
2173 281743.000  -1787004.8763  -4328785.8313   4317504.7818   2   8   0.0301   0.0452   0.0227   0.0276  -0.0226  -0.0157   0.00    1.1
2173 281744.000  -1787004.8764  -4328785.8388   4317504.7790   2   8   0.0300   0.0452   0.0226   0.0275  -0.0225  -0.0157   0.00    1.1
2173 281745.000  -1787004.8785  -4328785.8400   4317504.7739   2   8   0.0300   0.0451   0.0225   0.0275  -0.0224  -0.0155   0.00    1.1
2173 281746.000  -1787004.8811  -4328785.8409   4317504.7711   2   8   0.0299   0.0450   0.0225   0.0274  -0.0223  -0.0155   0.00    1.1
2173 281747.000  -1787004.8774  -4328785.8311   4317504.7572   2   8   0.0299   0.0449   0.0223   0.0274  -0.0222  -0.0155   0.00    1.1
2173 281748.000  -1787004.8786  -4328785.8282   4317504.7495   2   8   0.0299   0.0448   0.0222   0.0273  -0.0222  -0.0154   0.00    1.1
2173 281749.000  -1787004.8800  -4328785.8238   4317504.7393   2   8   0.0297   0.0447   0.0221   0.0273  -0.0222  -0.0154   0.00    1.1
2173 281750.000  -1787004.8766  -4328785.8164   4317504.7265   2   8   0.0297   0.0446   0.0219   0.0272  -0.0221  -0.0153   0.00    1.1
2173 281751.000  -1787004.8760  -4328785.8142   4317504.7191   2   8   0.0296   0.0445   0.0219   0.0272  -0.0220  -0.0153   0.00    1.1
2173 281752.000  -1787004.8732  -4328785.8065   4317504.7048   2   8   0.0295   0.0444   0.0218   0.0271  -0.0219  -0.0152   0.00    1.1
2173 281753.000  -1787004.8751  -4328785.8055   4317504.6940   2   8   0.0295   0.0444   0.0217   0.0270  -0.0219  -0.0152   0.00    1.1
2173 281754.000  -1787004.8696  -4328785.8019   4317504.6817   2   8   0.0295   0.0443   0.0216   0.0270  -0.0218  -0.0151   0.00    1.1
2173 281755.000  -1787004.8684  -4328785.7893   4317504.6657   2   8   0.0294   0.0442   0.0216   0.0269  -0.0217  -0.0151   0.00    1.1
2173 281756.000  -1787004.8703  -4328785.7870   4317504.6620   2   8   0.0293   0.0441   0.0215   0.0269  -0.0217  -0.0151   0.00    1.1
2173 281757.000  -1787004.8637  -4328785.7830   4317504.6549   2   8   0.0292   0.0440   0.0214   0.0268  -0.0216  -0.0150   0.00    1.1
2173 281758.000  -1787004.8631  -4328785.7767   4317504.6461   2   8   0.0292   0.0439   0.0214   0.0268  -0.0215  -0.0149   0.00    1.1
2173 281759.000  -1787004.8585  -4328785.7707   4317504.6358   2   8   0.0291   0.0438   0.0213   0.0267  -0.0215  -0.0150   0.00    1.1
2173 281760.000  -1787004.8554  -4328785.7702   4317504.6294   2   8   0.0290   0.0438   0.0212   0.0267  -0.0214  -0.0149   0.00    1.1
2173 281761.000  -1787004.8516  -4328785.7665   4317504.6207   2   8   0.0290   0.0437   0.0211   0.0266  -0.0214  -0.0149   0.00    1.1
2173 281762.000  -1787004.8518  -4328785.7645   4317504.6153   2   8   0.0290   0.0436   0.0212   0.0266  -0.0212  -0.0148   0.00    1.1
2173 281763.000  -1787004.8508  -4328785.7634   4317504.6062   2   8   0.0289   0.0435   0.0208   0.0265  -0.0212  -0.0147   0.00    1.1
2173 281764.000  -1787004.8495  -4328785.7643   4317504.6040   2   8   0.0289   0.0434   0.0208   0.0265  -0.0212  -0.0147   0.00    1.1
2173 281765.000  -1787004.8511  -4328785.7619   4317504.5984   2   8   0.0288   0.0434   0.0208   0.0264  -0.0211  -0.0148   0.00    1.1
2173 281766.000  -1787004.8465  -4328785.7618   4317504.5895   2   8   0.0287   0.0433   0.0207   0.0264  -0.0210  -0.0147   0.00    1.1
2173 281767.000  -1787004.8467  -4328785.7625   4317504.5885   2   8   0.0287   0.0432   0.0206   0.0263  -0.0210  -0.0147   0.00    1.1
2173 281768.000  -1787004.8487  -4328785.7614   4317504.5840   2   8   0.0286   0.0431   0.0204   0.0263  -0.0210  -0.0145   0.00    1.1
2173 281769.000  -1787004.8500  -4328785.7636   4317504.5816   2   8   0.0285   0.0430   0.0205   0.0262  -0.0208  -0.0146   0.00    1.1
2173 281770.000  -1787004.8496  -4328785.7631   4317504.5809   2   8   0.0285   0.0430   0.0205   0.0262  -0.0207  -0.0145   0.00    1.1
2173 281771.000  -1787004.8513  -4328785.7665   4317504.5825   2   8   0.0284   0.0429   0.0204   0.0262  -0.0207  -0.0145   0.00    1.1
2173 281772.000  -1787004.8536  -4328785.7724   4317504.5793   2   8   0.0284   0.0428   0.0203   0.0261  -0.0207  -0.0144   0.00    1.1
2173 281773.000  -1787004.8546  -4328785.7777   4317504.5798   2   8   0.0284   0.0427   0.0202   0.0260  -0.0206  -0.0143   0.00    1.2
2173 281774.000  -1787004.8575  -4328785.7804   4317504.5793   2   8   0.0283   0.0426   0.0202   0.0260  -0.0206  -0.0144   0.00    1.2
2173 281775.000  -1787004.8536  -4328785.7708   4317504.5642   2   8   0.0283   0.0426   0.0201   0.0259  -0.0205  -0.0143   0.00    1.2
2173 281776.000  -1787004.8487  -4328785.7484   4317504.5778   2   8   0.0281   0.0425   0.0199   0.0259  -0.0205  -0.0142   0.00    1.2
2173 281777.000  -1787004.8470  -4328785.7522   4317504.5823   2   8   0.0282   0.0424   0.0200   0.0258  -0.0204  -0.0143   0.00    1.2
2173 281778.000  -1787004.8463  -4328785.7518   4317504.5841   2   8   0.0281   0.0423   0.0198   0.0258  -0.0203  -0.0142   0.00    1.2
2173 281779.000  -1787004.8463  -4328785.7583   4317504.5921   2   8   0.0281   0.0423   0.0197   0.0258  -0.0203  -0.0142   0.00    1.2
2173 281780.000  -1787004.8448  -4328785.7625   4317504.5978   2   8   0.0280   0.0422   0.0196   0.0257  -0.0202  -0.0142   0.00    1.2
2173 281781.000  -1787004.8475  -4328785.7662   4317504.6015   2   8   0.0280   0.0421   0.0197   0.0257  -0.0201  -0.0142   0.00    1.2
2173 281782.000  -1787004.8465  -4328785.7680   4317504.6008   2   8   0.0279   0.0420   0.0195   0.0256  -0.0201  -0.0140   0.00    1.2
2173 281783.000  -1787004.8470  -4328785.7741   4317504.6121   2   8   0.0279   0.0420   0.0194   0.0256  -0.0200  -0.0140   0.00    1.2
2173 281784.000  -1787004.8460  -4328785.7755   4317504.6141   2   8   0.0278   0.0419   0.0193   0.0255  -0.0200  -0.0140   0.00    1.2
2173 281785.000  -1787004.8461  -4328785.7839   4317504.6220   2   8   0.0277   0.0418   0.0193   0.0255  -0.0199  -0.0139   0.00    1.2
2173 281786.000  -1787004.8430  -4328785.7837   4317504.6256   2   8   0.0277   0.0417   0.0192   0.0255  -0.0199  -0.0138   0.00    1.2
2173 281787.000  -1787004.8482  -4328785.7970   4317504.6347   2   8   0.0276   0.0417   0.0192   0.0254  -0.0199  -0.0139   0.00    1.2
2173 281788.000  -1787004.8498  -4328785.7981   4317504.6403   2   8   0.0276   0.0416   0.0191   0.0254  -0.0198  -0.0138   0.00    1.2
2173 281789.000  -1787004.8543  -4328785.8067   4317504.6516   2   8   0.0276   0.0415   0.0191   0.0253  -0.0197  -0.0138   0.00    1.2
2173 281790.000  -1787004.8575  -4328785.8131   4317504.6546   2   8   0.0275   0.0414   0.0189   0.0253  -0.0197  -0.0138   0.00    1.2
2173 281791.000  -1787004.8575  -4328785.8118   4317504.6563   2   8   0.0274   0.0414   0.0188   0.0252  -0.0197  -0.0137   0.00    1.2
2173 281792.000  -1787004.8589  -4328785.8131   4317504.6650   2   8   0.0273   0.0413   0.0188   0.0252  -0.0197  -0.0137   0.00    1.2
2173 281793.000  -1787004.8671  -4328785.8227   4317504.6657   2   8   0.0273   0.0412   0.0189   0.0251  -0.0195  -0.0138   0.00    1.2
2173 281794.000  -1787004.8670  -4328785.8227   4317504.6739   2   8   0.0273   0.0412   0.0188   0.0251  -0.0194  -0.0138   0.00    1.2
2173 281795.000  -1787004.8671  -4328785.8259   4317504.6769   2   8   0.0272   0.0411   0.0187   0.0251  -0.0195  -0.0137   0.00    1.2
2173 281796.000  -1787004.8709  -4328785.8344   4317504.6799   2   8   0.0272   0.0410   0.0186   0.0250  -0.0194  -0.0136   0.00    1.2
2173 281797.000  -1787004.8670  -4328785.8309   4317504.6789   2   8   0.0272   0.0410   0.0186   0.0250  -0.0193  -0.0136   0.00    1.2
2173 281798.000  -1787004.8665  -4328785.8360   4317504.6865   2   8   0.0271   0.0409   0.0185   0.0249  -0.0193  -0.0136   0.00    1.2
2173 281799.000  -1787004.8667  -4328785.8410   4317504.6895   2   8   0.0271   0.0408   0.0184   0.0249  -0.0193  -0.0136   0.00    1.2
2173 281800.000  -1787004.8703  -4328785.8433   4317504.6895   2   8   0.0270   0.0408   0.0183   0.0248  -0.0192  -0.0135   0.00    1.2
2173 281801.000  -1787004.8726  -4328785.8485   4317504.6958   2   8   0.0269   0.0407   0.0183   0.0248  -0.0192  -0.0135   0.00    1.2
2173 281802.000  -1787004.8738  -4328785.8546   4317504.6969   2   8   0.0269   0.0406   0.0183   0.0247  -0.0191  -0.0134   0.00    1.2
2173 281803.000  -1787004.8770  -4328785.8556   4317504.7025   2   8   0.0268   0.0406   0.0183   0.0247  -0.0190  -0.0134   0.00    1.2
2173 281804.000  -1787004.8808  -4328785.8590   4317504.7070   2   8   0.0268   0.0405   0.0182   0.0247  -0.0190  -0.0134   0.00    1.2
2173 281805.000  -1787004.8807  -4328785.8581   4317504.7088   2   8   0.0267   0.0404   0.0181   0.0246  -0.0189  -0.0133   0.00    1.2
2173 281806.000  -1787004.8860  -4328785.8663   4317504.7162   2   8   0.0267   0.0404   0.0180   0.0246  -0.0189  -0.0134   0.00    1.2
2173 281807.000  -1787004.8915  -4328785.8692   4317504.7194   2   8   0.0266   0.0403   0.0179   0.0246  -0.0189  -0.0133   0.00    1.2
2173 281808.000  -1787004.8960  -4328785.8659   4317504.7163   2   8   0.0266   0.0402   0.0178   0.0245  -0.0189  -0.0132   0.00    1.2
2173 281809.000  -1787004.8945  -4328785.8609   4317504.7109   2   8   0.0266   0.0402   0.0178   0.0245  -0.0188  -0.0131   0.00    1.2
2173 281810.000  -1787004.8972  -4328785.8641   4317504.7141   2   8   0.0265   0.0401   0.0179   0.0244  -0.0187  -0.0132   0.00    1.2
2173 281811.000  -1787004.8973  -4328785.8627   4317504.7141   2   8   0.0265   0.0400   0.0178   0.0244  -0.0187  -0.0131   0.00    1.2
2173 281812.000  -1787004.8995  -4328785.8665   4317504.7125   2   8   0.0265   0.0400   0.0179   0.0244  -0.0186  -0.0132   0.00    1.2
2173 281813.000  -1787004.8945  -4328785.8609   4317504.7100   2   8   0.0264   0.0399   0.0177   0.0243  -0.0186  -0.0131   0.00    1.2
2173 281814.000  -1787004.8962  -4328785.8606   4317504.7106   2   8   0.0263   0.0398   0.0175   0.0243  -0.0186  -0.0130   0.00    1.2
2173 281815.000  -1787004.8952  -4328785.8617   4317504.7088   2   8   0.0263   0.0398   0.0175   0.0243  -0.0186  -0.0130   0.00    1.2
2173 281816.000  -1787004.8973  -4328785.8650   4317504.7100   2   8   0.0263   0.0397   0.0175   0.0242  -0.0185  -0.0131   0.00    1.2
2173 281817.000  -1787004.8950  -4328785.8626   4317504.7086   2   8   0.0262   0.0397   0.0174   0.0241  -0.0184  -0.0130   0.00    1.2
2173 281818.000  -1787004.8986  -4328785.8675   4317504.7152   2   8   0.0262   0.0396   0.0172   0.0241  -0.0184  -0.0129   0.00    1.2
2173 281819.000  -1787004.9011  -4328785.8646   4317504.7115   2   8   0.0261   0.0395   0.0172   0.0241  -0.0184  -0.0130   0.00    1.2
2173 281820.000  -1787004.8948  -4328785.8563   4317504.7065   2   8   0.0260   0.0395   0.0173   0.0241  -0.0183  -0.0129   0.00    1.2
2173 281821.000  -1787004.8995  -4328785.8607   4317504.7061   2   8   0.0260   0.0394   0.0173   0.0240  -0.0182  -0.0130   0.00    1.2
2173 281822.000  -1787004.9005  -4328785.8600   4317504.7112   2   8   0.0260   0.0394   0.0173   0.0240  -0.0182  -0.0129   0.00    1.2
2173 281823.000  -1787004.9030  -4328785.8582   4317504.7113   2   8   0.0259   0.0393   0.0171   0.0239  -0.0182  -0.0128   0.00    1.2
2173 281824.000  -1787004.9065  -4328785.8597   4317504.7130   2   8   0.0259   0.0392   0.0170   0.0239  -0.0181  -0.0128   0.00    1.2
2173 281825.000  -1787004.9121  -4328785.8603   4317504.7171   2   8   0.0259   0.0392   0.0169   0.0239  -0.0181  -0.0128   0.00    1.2
2173 281826.000  -1787004.9114  -4328785.8553   4317504.7147   2   8   0.0258   0.0391   0.0169   0.0238  -0.0180  -0.0127   0.00    1.2
2173 281827.000  -1787004.9145  -4328785.8584   4317504.7210   2   8   0.0258   0.0390   0.0169   0.0238  -0.0180  -0.0127   0.00    1.2
2173 281828.000  -1787004.9154  -4328785.8547   4317504.7161   2   8   0.0257   0.0390   0.0169   0.0238  -0.0179  -0.0128   0.00    1.2
2173 281829.000  -1787004.9115  -4328785.8492   4317504.7164   2   8   0.0257   0.0389   0.0167   0.0237  -0.0180  -0.0127   0.00    1.2
2173 281830.000  -1787004.9126  -4328785.8521   4317504.7158   2   8   0.0256   0.0389   0.0167   0.0237  -0.0179  -0.0127   0.00    1.2
2173 281831.000  -1787004.9137  -4328785.8525   4317504.7120   2   8   0.0257   0.0388   0.0167   0.0236  -0.0178  -0.0126   0.00    1.2
2173 281832.000  -1787004.9188  -4328785.8562   4317504.7176   2   8   0.0256   0.0387   0.0166   0.0236  -0.0179  -0.0126   0.00    1.2
2173 281833.000  -1787004.9152  -4328785.8492   4317504.7138   2   8   0.0255   0.0387   0.0167   0.0236  -0.0177  -0.0126   0.00    1.2
2173 281834.000  -1787004.9074  -4328785.8419   4317504.6949   2   8   0.0255   0.0386   0.0166   0.0235  -0.0178  -0.0125   0.00    1.2
2173 281835.000  -1787004.9081  -4328785.8427   4317504.6990   2   8   0.0255   0.0386   0.0164   0.0235  -0.0177  -0.0124   0.00    1.2
2173 281836.000  -1787004.9065  -4328785.8433   4317504.6989   2   8   0.0254   0.0385   0.0164   0.0235  -0.0177  -0.0125   0.00    1.2
2173 281837.000  -1787004.9071  -4328785.8465   4317504.6998   2   8   0.0253   0.0385   0.0164   0.0235  -0.0177  -0.0124   0.00    1.2
2173 281838.000  -1787004.9095  -4328785.8443   4317504.6961   2   8   0.0253   0.0384   0.0162   0.0234  -0.0176  -0.0124   0.00    1.2
2173 281839.000  -1787004.9118  -4328785.8427   4317504.6983   2   8   0.0253   0.0383   0.0162   0.0234  -0.0176  -0.0124   0.00    1.2
2173 281840.000  -1787004.9111  -4328785.8402   4317504.6952   2   8   0.0252   0.0383   0.0162   0.0234  -0.0175  -0.0124   0.00    1.2
2173 281841.000  -1787004.9127  -4328785.8355   4317504.6940   2   8   0.0252   0.0383   0.0162   0.0233  -0.0175  -0.0124   0.00    1.2
2173 281842.000  -1787004.9105  -4328785.8276   4317504.6930   2   8   0.0251   0.0382   0.0161   0.0233  -0.0174  -0.0124   0.00    1.2
2173 281843.000  -1787004.9129  -4328785.8312   4317504.6925   2   8   0.0251   0.0381   0.0162   0.0232  -0.0174  -0.0126   0.00    1.2
2173 281844.000  -1787004.9098  -4328785.8243   4317504.6854   2   8   0.0251   0.0381   0.0162   0.0232  -0.0173  -0.0123   0.00    1.2
2173 281845.000  -1787004.9092  -4328785.8225   4317504.6918   2   8   0.0249   0.0380   0.0161   0.0232  -0.0174  -0.0123   0.00    1.2
2173 281846.000  -1787004.9115  -4328785.8232   4317504.6922   2   8   0.0249   0.0380   0.0161   0.0232  -0.0173  -0.0124   0.00    1.2
2173 281847.000  -1787004.9099  -4328785.8263   4317504.6938   2   8   0.0249   0.0379   0.0159   0.0231  -0.0173  -0.0122   0.00    1.2
2173 281848.000  -1787004.9120  -4328785.8227   4317504.6932   2   8   0.0249   0.0379   0.0160   0.0231  -0.0172  -0.0122   0.00    1.2
2173 281849.000  -1787004.9127  -4328785.8214   4317504.6911   2   8   0.0249   0.0378   0.0158   0.0230  -0.0172  -0.0121   0.00    1.2
2173 281850.000  -1787004.9157  -4328785.8195   4317504.6873   2   8   0.0249   0.0378   0.0160   0.0230  -0.0171  -0.0122   0.00    1.2
2173 281851.000  -1787004.9136  -4328785.8142   4317504.6875   2   8   0.0248   0.0377   0.0159   0.0230  -0.0171  -0.0122   0.00    1.2
2173 281852.000  -1787004.9181  -4328785.8111   4317504.6932   2   8   0.0247   0.0376   0.0158   0.0229  -0.0171  -0.0124   0.00    1.2
2173 281853.000  -1787004.9174  -4328785.8089   4317504.6911   2   8   0.0247   0.0376   0.0157   0.0229  -0.0170  -0.0121   0.00    1.2
2173 281854.000  -1787004.9173  -4328785.8062   4317504.6873   2   8   0.0246   0.0375   0.0156   0.0229  -0.0171  -0.0121   0.00    1.2
2173 281855.000  -1787004.9179  -4328785.7964   4317504.6856   2   8   0.0246   0.0375   0.0156   0.0228  -0.0170  -0.0121   0.00    1.2
2173 281856.000  -1787004.9187  -4328785.7995   4317504.6848   2   8   0.0246   0.0374   0.0155   0.0228  -0.0170  -0.0120   0.00    1.2
2173 281857.000  -1787004.9172  -4328785.8015   4317504.6878   2   8   0.0245   0.0374   0.0154   0.0228  -0.0170  -0.0119   0.00    1.2
2173 281858.000  -1787004.9196  -4328785.8018   4317504.6888   2   8   0.0245   0.0373   0.0156   0.0228  -0.0169  -0.0121   0.00    1.2
2173 281859.000  -1787004.9135  -4328785.7998   4317504.6889   2   8   0.0244   0.0373   0.0156   0.0227  -0.0168  -0.0120   0.00    1.2
2173 281860.000  -1787004.9115  -4328785.7981   4317504.6869   2   8   0.0245   0.0372   0.0155   0.0227  -0.0168  -0.0120   0.00    1.2
2173 281861.000  -1787004.9128  -4328785.7979   4317504.6914   2   8   0.0245   0.0372   0.0154   0.0227  -0.0168  -0.0120   0.00    1.2
2173 281862.000  -1787004.9141  -4328785.7957   4317504.6918   2   8   0.0243   0.0371   0.0153   0.0227  -0.0168  -0.0119   0.00    1.2
2173 281863.000  -1787004.9162  -4328785.7922   4317504.6884   2   8   0.0243   0.0371   0.0154   0.0226  -0.0167  -0.0119   0.00    1.2
2173 281864.000  -1787004.9212  -4328785.7955   4317504.6922   2   8   0.0242   0.0370   0.0153   0.0226  -0.0167  -0.0119   0.00    1.2
2173 281865.000  -1787004.9240  -4328785.7909   4317504.6883   2   8   0.0243   0.0370   0.0152   0.0225  -0.0167  -0.0117   0.00    1.2
2173 281866.000  -1787004.9207  -4328785.7848   4317504.6878   2   8   0.0243   0.0369   0.0153   0.0225  -0.0166  -0.0118   0.00    1.2
2173 281867.000  -1787004.9239  -4328785.7912   4317504.6882   2   8   0.0242   0.0368   0.0151   0.0225  -0.0166  -0.0117   0.00    1.2
2173 281868.000  -1787004.9228  -4328785.7864   4317504.6849   2   8   0.0242   0.0368   0.0152   0.0224  -0.0165  -0.0119   0.00    1.2
2173 281869.000  -1787004.9244  -4328785.7805   4317504.6815   2   8   0.0241   0.0368   0.0151   0.0224  -0.0166  -0.0118   0.00    1.1
2173 281870.000  -1787004.9237  -4328785.7856   4317504.6846   2   8   0.0242   0.0367   0.0152   0.0224  -0.0165  -0.0117   0.00    1.1
2173 281871.000  -1787004.9229  -4328785.7805   4317504.6822   2   8   0.0241   0.0367   0.0152   0.0223  -0.0165  -0.0117   0.00    1.1
2173 281872.000  -1787004.9224  -4328785.7760   4317504.6776   2   8   0.0240   0.0366   0.0149   0.0223  -0.0164  -0.0117   0.00    1.1
2173 281873.000  -1787004.9250  -4328785.7784   4317504.6812   2   8   0.0239   0.0365   0.0150   0.0223  -0.0165  -0.0117   0.00    1.1
2173 281874.000  -1787004.9181  -4328785.7722   4317504.6738   2   8   0.0238   0.0365   0.0149   0.0223  -0.0164  -0.0117   0.00    1.1
2173 281875.000  -1787004.9191  -4328785.7709   4317504.6738   2   8   0.0239   0.0364   0.0148   0.0222  -0.0164  -0.0116   0.00    1.1
2173 281876.000  -1787004.9182  -4328785.7721   4317504.6746   2   8   0.0239   0.0364   0.0149   0.0222  -0.0163  -0.0116   0.00    1.1
2173 281877.000  -1787004.9215  -4328785.7721   4317504.6756   2   8   0.0238   0.0364   0.0148   0.0222  -0.0163  -0.0116   0.00    1.1
2173 281878.000  -1787004.9219  -4328785.7695   4317504.6745   2   8   0.0238   0.0363   0.0148   0.0222  -0.0163  -0.0116   0.00    1.1
2173 281879.000  -1787004.9185  -4328785.7638   4317504.6715   2   8   0.0238   0.0363   0.0149   0.0221  -0.0162  -0.0117   0.00    1.1
2173 281880.000  -1787004.9233  -4328785.7659   4317504.6715   2   8   0.0237   0.0362   0.0147   0.0220  -0.0162  -0.0116   0.00    1.1
2173 281881.000  -1787004.9201  -4328785.7622   4317504.6730   2   8   0.0236   0.0362   0.0145   0.0221  -0.0162  -0.0116   0.00    1.1
2173 281882.000  -1787004.9201  -4328785.7549   4317504.6654   2   8   0.0237   0.0361   0.0146   0.0220  -0.0162  -0.0116   0.00    1.1
2173 281883.000  -1787004.9238  -4328785.7595   4317504.6694   2   8   0.0236   0.0361   0.0147   0.0220  -0.0161  -0.0115   0.00    1.1
2173 281884.000  -1787004.9230  -4328785.7561   4317504.6660   2   8   0.0236   0.0360   0.0144   0.0220  -0.0162  -0.0115   0.00    1.1
2173 281885.000  -1787004.9238  -4328785.7537   4317504.6679   2   8   0.0236   0.0360   0.0146   0.0219  -0.0161  -0.0115   0.00    1.1
2173 281886.000  -1787004.9276  -4328785.7561   4317504.6681   2   8   0.0236   0.0359   0.0145   0.0219  -0.0161  -0.0114   0.00    1.1
2173 281887.000  -1787004.9218  -4328785.7518   4317504.6625   2   8   0.0235   0.0359   0.0145   0.0219  -0.0160  -0.0114   0.00    1.1
2173 281888.000  -1787004.9265  -4328785.7568   4317504.6671   2   8   0.0234   0.0358   0.0145   0.0219  -0.0160  -0.0114   0.00    1.1
2173 281889.000  -1787004.9228  -4328785.7467   4317504.6617   2   8   0.0234   0.0358   0.0144   0.0218  -0.0160  -0.0114   0.00    1.1
2173 281890.000  -1787004.9256  -4328785.7550   4317504.6672   2   8   0.0234   0.0357   0.0141   0.0218  -0.0160  -0.0113   0.00    1.1
2173 281891.000  -1787004.9250  -4328785.7533   4317504.6649   2   8   0.0234   0.0357   0.0144   0.0218  -0.0160  -0.0114   0.00    1.1
2173 281892.000  -1787004.9282  -4328785.7542   4317504.6681   2   8   0.0234   0.0357   0.0144   0.0217  -0.0159  -0.0114   0.00    1.1
2173 281893.000  -1787004.9269  -4328785.7505   4317504.6626   2   8   0.0233   0.0356   0.0145   0.0217  -0.0159  -0.0112   0.00    1.1
2173 281894.000  -1787004.9281  -4328785.7523   4317504.6669   2   8   0.0233   0.0356   0.0143   0.0217  -0.0158  -0.0113   0.00    1.1
2173 281895.000  -1787004.9301  -4328785.7516   4317504.6684   2   8   0.0232   0.0355   0.0142   0.0217  -0.0158  -0.0113   0.00    1.1
2173 281896.000  -1787004.9195  -4328785.7256   4317504.6749   2   8   0.0231   0.0355   0.0142   0.0216  -0.0157  -0.0113   0.00    1.1
2173 281897.000  -1787004.9169  -4328785.7211   4317504.6706   2   8   0.0231   0.0354   0.0141   0.0216  -0.0158  -0.0112   0.00    1.1
2173 281898.000  -1787004.9198  -4328785.7247   4317504.6745   2   8   0.0231   0.0354   0.0141   0.0216  -0.0157  -0.0112   0.00    1.1
