     2.11           OBSERVATION DATA    M (MIXED)           RINEX VERSION / TYPE
CONVBIN 2.4.3                           20210901 190546 UTC PGM / RUN BY / DATE 
log: logs/21_09_01_06_11_31_idpo_SW.rtcm                    COMMENT             
format: RTCM 3, station ID: 4007                            COMMENT             
4007                                                        MARKER NAME         
                                                            MARKER NUMBER       
                                                            OBSERVER / AGENCY   
                    SWFT                                    REC # / TYPE / VERS 
                    NULL                                    ANT # / TYPE        
 -1812304.5688 -4390074.7104  4242907.3971                  APPROX POSITION XYZ 
        0.0000        0.0000        0.0000                  ANTENNA: DELTA H/E/N
     1     1                                                WAVELENGTH FACT L1/2
     5    C1    L1    P2    L2    C2                        # / TYPES OF OBSERV 
  2021     9     1     6    11   36.0000000     GPS         TIME OF FIRST OBS   
  2021     9     1     6    41   34.0000000     GPS         TIME OF LAST OBS    
                                                            END OF HEADER       
 21  9  1  6 11 36.0000000  0  9G 4G 7G 8G 9G14G20G27G30E21
  23269974.808   122284533.779    23269976.363    95286648.730                  
  20636538.842   108445759.570    20636538.038    84503193.055                  
  21499775.545   112982042.663    21499777.886    88037945.434                  
  20981548.523   110258751.657    20981550.399    85915902.813                  
  23577715.854   123901730.203    23577716.873    96546804.137                  
  23805173.453   125097027.125    23805173.024    97478202.874                  
  22448961.248   117970062.813    22448962.767    91924719.063                  
  22103712.819   116155758.185    22103714.802    90510971.367                  
  26153783.805   137439031.788                                                  
 21  9  1  6 11 37.0000000  0  9G 4G 7G 8G 9G14G20G27G30E21
  23270637.892   122288018.339    23270639.464    95289363.972                  
  20636405.861   108445060.775    20636405.056    84502648.539                  
  21499660.683   112981439.161    21499663.042    88037475.169                  
  20981942.856   110260823.950    20981944.733    85917517.587                  
  23577103.036   123898509.793    23577104.037    96544294.726                  
  23805308.418   125097736.387    23805308.007    97478755.544                  
  22449218.776   117971416.216    22449220.295    91925773.665                  
  22103290.056   116153536.593    22103292.039    90509240.257                  
  26153375.069   137436883.751                                                  
 21  9  1  6 11 38.0000000  0  9G 4G 7G 8G 9G14G20G27G30E21
  23271301.047   122291503.143    23271302.602    95292079.407                  
  20636272.933   108444362.235    20636272.147    84502104.223                  
  21499545.982   112980836.334    21499548.323    88037005.438                  
  20982337.297   110262896.753    20982339.174    85919132.758                  
  23576490.236   123895289.597    23576491.254    96541785.485                  
  23805443.508   125098446.206    23805443.061    97479308.648                  
  22449476.466   117972770.290    22449477.984    91926828.788                  
  22102867.346   116151315.151    22102869.312    90507509.261                  
  26152966.315   137434735.902                                                  
 21  9  1  6 11 39.0000000  0  9G 4G 7G 8G 9G14G20G27G30E21
  23271964.220   122294988.191    23271965.775    95294795.024                  
  20636140.059   108443663.957    20636139.255    84501560.110                  
  21499431.388   112980234.183    21499433.746    88036536.227                  
  20982731.863   110264970.105    20982733.722    85920748.355                  
  23575877.507   123892069.629    23575878.526    96539276.417                  
  23805578.687   125099156.581    23805578.240    97479862.188                  
  22449734.262   117974125.055    22449735.781    91927884.444                  
  22102444.637   116149093.870    22102446.620    90505778.395                  
  26152557.632   137432588.247                                                  
 21  9  1  6 11 40.0000000  0  9G 4G 7G 8G 9G14G20G27G30E21
  23272627.447   122298473.468    23272629.001    95297510.828                  
  20636007.238   108442965.945    20636006.434    84501016.202                  
  21499316.937   112979632.724    21499319.277    88036067.555                  
  20983126.501   110267043.980    20983128.377    85922364.364                  
  23575264.814   123888849.882    23575265.815    96536767.523                  
  23805713.955   125099867.515    23805713.544    97480416.163                  
  22449992.183   117975480.488    22449993.702    91928940.628                  
  22102021.981   116146872.766    22102023.964    90504047.664                  
  26152149.004   137430440.770                                                  
 21  9  1  6 11 41.0000000  0  9G 4G 7G 8G 9G14G20G27G30E21
  23273290.727   122301959.000    23273292.282    95300226.825                  
  20635874.454   108442268.192    20635873.667    84500472.501                  
  21499202.628   112979031.954    21499204.951    88035599.425                  
  20983521.245   110269118.397    20983523.121    85923980.788                  
  23574652.157   123885630.352    23574653.175    96534258.796                  
  23805849.367   125100579.019    23805848.920    97480970.582                  
  22450250.248   117976836.608    22450251.767    91929997.348                  
  22101599.342   116144651.823    22101601.326    90502317.059                  
  26151740.375   137428293.488                                                  
 21  9  1  6 11 42.0000000  0 14G 4G 7G 8G 9G14G20G27G30C23C24C25C32
                                C34E21
  23273954.043   122305444.767    23273955.598    95302943.004                  
  20635741.723   108441570.694    20635740.918    84499928.996                  
  21499088.427   112978431.859    21499090.786    88035131.821                  
  20983916.097   110271193.351    20983917.973    85925597.636                  
  23574039.535   123882411.039    23574040.554    96531750.247                  
  23805984.867   125101291.069    23805984.421    97481525.426                  
  22450508.437   117978193.398    22450509.956    91931054.586                  
  22101176.740   116142431.056    22101178.723    90500586.589                  
                 120164443.599                   120164443.599    23076308.747  
                 134472440.544                   134472440.544    25824012.594  
                 115458684.277                   115458684.277    22172622.186  
                 124559416.829                   124559416.829    23920329.389  
                 127752106.899                   127752106.899    24533449.285  
  26151331.800   137426146.399                                                  
 21  9  1  6 11 43.0000000  0 14G 4G 7G 8G 9G14G20G27G30C23C24C25C32
                                C34E21
  23274617.395   122308930.777    23274618.967    95305659.376                  
  20635609.063   108440873.461    20635608.241    84499385.699                  
  21498974.352   112977832.460    21498976.692    88034664.757                  
  20984311.038   110273268.828    20984312.914    85927214.890                  
  23573426.967   123879191.940    23573427.986    96529241.856                  
  23806120.458   125102003.682    23806120.047    97482080.707                  
  22450766.752   117979550.867    22450768.289    91932112.355                  
  22100754.173   116140210.438    22100756.157    90498856.238                  
                 120162899.429                   120162899.429    23076012.193  
                 134474975.327                   134474975.327    25824499.382  
                 115459480.585                   115459480.585    22172775.092  
                 124558969.931                   124558969.931    23920243.564  
                 127750189.965                   127750189.965    24533081.166  
  26150923.260   137423999.492                                                  
 21  9  1  6 11 44.0000000  0 14G 4G 7G 8G 9G14G20G27G30C23C24C25C32
                                C34E21
  23275280.818   122312417.028    23275282.373    95308375.933                  
  20635476.421   108440176.485    20635475.617    84498842.597                  
  21498860.419   112977233.765    21498862.777    88034198.241                  
  20984706.104   110275344.845    20984707.981    85928832.566                  
  23572814.435   123875973.070    23572815.453    96526733.644                  
  23806256.173   125102716.856    23806255.744    97482636.427                  
  22451025.192   117980909.012    22451026.728    91933170.650                  
  22100331.642   116137989.997    22100333.626    90497126.024                  
                 120161355.464                   120161355.464    23075715.692  
                 134477510.136                   134477510.136    25824986.152  
                 115460277.108                   115460277.108    22172928.068  
                 124558523.594                   124558523.594    23920157.846  
                 127748273.421                   127748273.421    24532713.100  
  26150514.756   137421852.779                                                  
 21  9  1  6 11 45.0000000  0 14G 4G 7G 8G 9G14G20G27G30C23C24C25C32
                                C34E21
  23275944.277   122315903.516    23275945.831    95311092.680                  
  20635343.833   108439479.777    20635343.047    84498299.712                  
  21498746.647   112976635.768    21498748.988    88033732.270                  
  20985101.260   110277421.384    20985103.118    85930450.648                  
  23572201.938   123872754.418    23572202.957    96524225.600                  
  23806391.995   125103430.587    23806391.566    97483192.583                  
  22451283.774   117982267.829    22451285.293    91934229.466                  
  22099909.147   116135769.726    22099911.113    90495395.944                  
                 120159811.696                   120159811.696    23075419.245  
                 134480044.969                   134480044.969    25825472.940  
                 115461073.861                   115461073.861    22173081.081  
                 124558077.830                   124558077.830    23920072.236  
                 127746357.269                   127746357.269    24532345.141  
  26150106.288   137419706.250                                                  
 21  9  1  6 11 46.0000000  0 14G 4G 7G 8G 9G14G20G27G30C23C24C25C32
                                C34E21
  23276607.772   122319390.246    23276609.344    95313809.609                  
  20635211.298   108438783.318    20635210.494    84497757.012                  
  21498632.964   112976038.441    21498635.323    88033266.820                  
  20985496.505   110279498.460    20985498.381    85932069.149                  
  23571589.495   123869535.979    23571590.514    96521717.731                  
  23806527.925   125104144.882    23806527.478    97483749.172                  
  22451542.482   117983627.324    22451544.001    91935288.812                  
  22099486.652   116133549.613    22099488.636    90493665.989                  
                 120158268.126                   120158268.126    23075122.798  
                 134482579.821                   134482579.821    25825959.746  
                 115461870.829                   115461870.829    22173234.111  
                 124557632.629                   124557632.629    23919986.732  
                 127744441.507                   127744441.507    24531977.235  
  26149697.838   137417559.906                                                  
 21  9  1  6 11 47.0000000  0 14G 4G 7G 8G 9G14G20G27G30C23C24C25C32
                                C34E21
  23277271.320   122322877.210    23277272.874    95316526.726                  
  20635078.818   108438087.123    20635078.013    84497214.525                  
  21498519.424   112975441.794    21498521.783    88032801.898                  
  20985891.857   110281576.067    20985893.733    85933688.063                  
  23570977.088   123866317.758    23570978.107    96519210.024                  
  23806663.944   125104859.722    23806663.515    97484306.192                  
  22451801.297   117984987.491    22451802.816    91936348.685                  
  22099064.228   116131329.668    22099066.194    90491936.161                  
                 120156724.753                   120156724.753    23074826.422  
                 134485114.700                   134485114.700    25826446.534  
                 115462668.020                   115462668.020    22173387.213  
                 124557187.993                   124557187.993    23919901.354  
                 127742526.138                   127742526.138    24531609.402  
  26149289.442   137415413.754                                                  
 21  9  1  6 11 48.0000000  0 14G 4G 7G 8G 9G14G20G27G30C23C24C25C32
                                C34E21
  23277934.922   122326364.429    23277936.476    95319244.035                  
  20634946.408   108437391.192    20634945.604    84496672.243                  
  21498406.027   112974845.849    21498408.386    88032337.527                  
  20986287.316   110283654.208    20986289.193    85935307.394                  
  23570364.717   123863099.763    23570365.735    96516702.497                  
  23806800.088   125105575.129    23806799.659    97484863.652                  
  22452060.255   117986348.347    22452061.792    91937409.094                  
  22098641.805   116129109.889    22098643.806    90490206.462                  
                 120155181.581                   120155181.581    23074530.064  
                 134487649.594                   134487649.594    25826933.340  
                 115463465.430                   115463465.430    22173540.368  
                 124556743.927                   124556743.927    23919816.083  
                 127740611.161                   127740611.161    24531241.657  
  26148881.081   137413267.788                                                  
 21  9  1  6 11 49.0000000  0 14G 4G 7G 8G 9G14G20G27G30C23C24C25C32
                                C34E21
  23278598.559   122329851.880    23278600.114    95321961.527                  
  20634814.016   108436695.510    20634813.212    84496130.151                  
  21498292.738   112974250.590    21498295.096    88031873.687                  
  20986682.883   110285732.871    20986684.759    85936927.132                  
  23569752.399   123859881.984    23569753.418    96514195.137                  
  23806936.321   125106291.093    23806935.893    97485421.547                  
  22452319.356   117987709.867    22452320.875    91938470.016                  
  22098219.435   116126890.281    22098221.418    90488476.899                  
                 120153638.610                   120153638.610    23074233.760  
                 134490184.517                   134490184.517    25827420.145  
                 115464263.064                   115464263.064    22173693.524  
                 124556300.425                   124556300.425    23919730.902  
                 127738696.570                   127738696.570    24530873.984  
  26148472.756   137411122.014                                                  
 21  9  1  6 11 50.0000000  0 14G 4G 7G 8G 9G14G20G27G30C23C24C25C32
                                C34E21
  23279262.233   122333339.572    23279263.805    95324679.212                  
  20634681.678   108436000.093    20634680.874    84495588.270                  
  21498179.591   112973656.033    21498181.968    88031410.398                  
  20987078.539   110287812.078    20987080.415    85938547.293                  
  23569140.117   123856664.426    23569141.136    96511687.949                  
  23807072.680   125107007.621    23807072.251    97485979.880                  
  22452578.582   117989072.067    22452580.100    91939531.474                  
  22097797.082   116124670.829    22097799.066    90486747.454                  
                 120152095.837                   120152095.837    23073937.474  
                 134492719.459                   134492719.459    25827906.951  
                 115465060.913                   115465060.913    22173846.733  
                 124555857.493                   124555857.493    23919645.845  
                 127736782.370                   127736782.370    24530506.382  
  26148064.467   137408976.422                                                  
 21  9  1  6 11 51.0000000  0 14G 4G 7G 8G 9G14G20G27G30C23C24C25C32
                                C34E21
  23279925.978   122336827.495    23279927.532    95327397.074                  
  20634549.394   108435304.937    20634548.608    84495046.585                  
  21498066.605   112973062.153    21498068.946    88030947.637                  
  20987474.302   110289891.821    20987476.178    85940167.872                  
  23568527.889   123853447.082    23568528.907    96509180.926                  
  23807209.146   125107724.701    23807208.699    97486538.641                  
  22452837.915   117990434.948    22452839.434    91940593.461                  
  22097374.766   116122451.544    22097376.767    90485018.140                  
                 120150553.261                   120150553.261    23073641.241  
                 134495254.426                   134495254.426    25828393.757  
                 115465858.988                   115465858.988    22173999.995  
                 124555415.122                   124555415.122    23919560.896  
                 127734868.568                   127734868.568    24530138.835  
  26147656.195   137406831.026                                                  
 21  9  1  6 11 52.0000000  0 14G 4G 7G 8G 9G14G20G27G30C23C24C25C32
                                C34E21
  23280589.758   122340315.677    23280591.313    95330115.133                  
  20634417.163   108434610.042    20634416.359    84494505.109                  
  21497953.727   112972468.960    21497956.068    88030485.411                  
  20987870.154   110291972.081    20987872.048    85941788.856                  
  23567915.678   123850229.964    23567916.696    96506674.083                  
  23807345.701   125108442.343    23807345.254    97487097.843                  
  22453097.409   117991798.501    22453098.928    91941655.965                  
  22096952.485   116120232.426    22096954.469    90483288.960                  
                 120149010.906                   120149010.906    23073345.062  
                 134497789.427                   134497789.427    25828880.581  
                 115466657.274                   115466657.274    22174153.312  
                 124554973.324                   124554973.324    23919476.036  
                 127732955.149                   127732955.149    24529771.394  
  26147247.977   137404685.815                                                  
 21  9  1  6 11 53.0000000  0 14G 4G 7G 8G 9G14G20G27G30C23C24C25C32
                                C34E21
  23281253.575   122343804.085    23281255.147    95332833.375                  
  20634284.986   108433915.402    20634284.182    84493963.836                  
  21497840.955   112971876.442    21497843.314    88030023.706                  
  20988266.114   110294052.895    20988268.008    85943410.265                  
  23567303.521   123847013.066    23567304.539    96504167.407                  
  23807482.363   125109160.544    23807481.934    97487657.480                  
  22453356.992   117993162.717    22453358.529    91942718.991                  
  22096530.240   116118013.475    22096532.224    90481559.910                  
                 120147468.726                   120147468.726    23073048.901  
                 134500324.437                   134500324.437    25829367.404  
                 115467455.788                   115467455.788    22174306.664  
                 124554532.090                   124554532.090    23919391.319  
                 127731042.120                   127731042.120    24529404.025  
  26146839.795   137402540.804                                                  
 21  9  1  6 11 54.0000000  0 14G 4G 7G 8G 9G14G20G27G30C23C24C25C32
                                C34E21
  23281917.445   122347292.742    23281918.999    95335551.810                  
  20634152.845   108433221.012    20634152.041    84493422.750                  
  21497728.345   112971284.614    21497730.703    88029562.539                  
  20988662.199   110296134.229    20988664.057    85945032.086                  
  23566691.418   123843796.380    23566692.436    96501660.898                  
  23807619.133   125109879.293    23807618.722    97488217.546                  
  22453616.736   117994527.638    22453618.255    91943782.565                  
  22096107.995   116115794.683    22096109.996    90479830.976                  
                 120145926.749                   120145926.749    23072752.776  
                 134502859.470                   134502859.470    25829854.246  
                 115468254.524                   115468254.524    22174460.033  
                 124554091.417                   124554091.417    23919306.673  
                 127729129.487                   127729129.487    24529036.727  
  26146431.667   137400395.954                                                  
 21  9  1  6 11 55.0000000  0 14G 4G 7G 8G 9G14G20G27G30C23C24C25C32
                                C34E21
  23282581.368   122350781.628    23282582.923    95338270.422                  
  20634020.757   108432526.894    20634019.935    84492881.879                  
  21497615.859   112970693.493    21497618.200    88029101.925                  
  20989058.355   110298216.103    20989060.231    85946654.321                  
  23566079.332   123840579.922    23566080.368    96499154.569                  
  23807756.027   125110598.614    23807755.598    97488778.052                  
  22453876.605   117995893.219    22453878.124    91944846.657                  
  22095685.822   116113576.067    22095687.805    90478102.187                  
                 120144384.973                   120144384.973    23072456.704  
                 134505394.523                   134505394.523    25830341.052  
                 115469053.484                   115469053.484    22174613.475  
                 124553651.317                   124553651.317    23919222.188  
                 127727217.246                   127727217.246    24528669.501  
  26146023.538   137398251.315                                                  
 21  9  1  6 11 56.0000000  0 14G 4G 7G 8G 9G14G20G27G30C23C24C25C32
                                C34E21
  23283245.327   122354270.758    23283246.882    95340989.222                  
  20633888.723   108431833.035    20633887.919    84492341.210                  
  21497503.499   112970103.047    21497505.840    88028641.840                  
  20989454.618   110300298.487    20989456.495    85948276.960                  
  23565467.318   123837363.685    23565468.319    96496648.410                  
  23807893.011   125111318.493    23807892.582    97489338.996                  
  22454136.582   117997259.466    22454138.101    91945911.262                  
  22095263.666   116111357.606    22095265.631    90476373.516                  
                 120142843.392                   120142843.392    23072160.632  
                 134507929.603                   134507929.603    25830827.893  
                 115469852.662                   115469852.662    22174766.952  
                 124553211.781                   124553211.781    23919137.757  
                 127725305.395                   127725305.395    24528302.346  
  26145615.463   137396106.852                                                  
 21  9  1  6 11 57.0000000  0 14G 4G 7G 8G 9G14G20G27G30C23C24C25C32
                                C34E21
  23283909.322   122357760.128    23283910.877    95343708.212                  
  20633756.724   108431139.449    20633755.920    84491800.753                  
  21497391.263   112969513.278    21497393.622    88028182.278                  
  20989851.007   110302381.426    20989852.865    85949900.032                  
  23564855.322   123834147.655    23564856.340    96494142.418                  
  23808030.102   125112038.930    23808029.673    97489900.375                  
  22454396.701   117998626.393    22454398.220    91946976.403                  
  22094841.546   116109139.316    22094843.512    90474644.980                  
                 120141302.011                   120141302.011    23071864.631  
                 134510464.700                   134510464.700    25831314.735  
                 115470652.063                   115470652.063    22174920.464  
                 124552772.812                   124552772.812    23919053.451  
                 127723393.937                   127723393.937    24527935.262  
  26145207.424   137393962.589                                                  
 21  9  1  6 11 58.0000000  0 14G 4G 7G 8G 9G14G20G27G30C23C24C25C32
                                C34E21
  23284573.389   122361249.739    23284574.943    95346427.387                  
  20633624.797   108430446.109    20633623.975    84491260.488                  
  21497279.153   112968924.211    21497281.512    88027723.267                  
  20990247.467   110304464.888    20990249.343    85951523.503                  
  23564243.379   123830931.855    23564244.398    96491636.597                  
  23808167.301   125112759.918    23808166.872    97490462.184                  
  22454656.946   117999993.999    22454658.482    91948042.070                  
  22094419.444   116106921.196    22094421.427    90472916.570                  
                 120139760.828                   120139760.828    23071568.685  
                 134512999.823                   134512999.823    25831801.576  
                 115471451.683                   115471451.683    22175074.013  
                 124552334.414                   124552334.414    23918969.288  
                 127721482.868                   127721482.868    24527568.268  
  26144799.421   137391818.508                                                  
 21  9  1  6 11 59.0000000  0 14G 4G 7G 8G 9G14G20G27G30C23C24C25C32
                                C34E21
  23285237.473   122364739.587    23285239.046    95349146.749                  
  20633492.906   108429753.040    20633492.102    84490720.434                  
  21497167.204   112968335.848    21497169.562    88027264.800                  
  20990644.034   110306548.883    20990645.928    85953147.398                  
  23563631.472   123827716.277    23563632.473    96489130.950                  
  23808304.624   125113481.460    23808304.177    97491024.425                  
  22454917.315   118001362.282    22454918.834    91949108.265                  
  22093997.378   116104703.234    22093999.361    90471188.293                  
                 120138219.843                   120138219.843    23071272.738  
                 134515534.964                   134515534.964    25832288.436  
                 115472251.524                   115472251.524    22175227.615  
                 124551896.579                   124551896.579    23918885.196  
                 127719572.191                   127719572.191    24527201.346  
  26144391.435   137389674.612                                                  
 21  9  1  6 12  0.0000000  0 14G 4G 7G 8G 9G14G20G27G30C23C24C25C32
                                C34E21
  23285901.611   122368229.676    23285903.184    95351866.297                  
  20633361.068   108429060.225    20633360.264    84490180.583                  
  21497055.379   112967748.184    21497057.738    88026806.882                  
  20991040.709   110308633.404    20991042.585    85954771.700                  
  23563019.601   123824500.926    23563020.620    96486625.482                  
  23808442.019   125114203.558    23808441.608    97491587.101                  
  22455177.828   118002731.246    22455179.364    91950174.988                  
  22093575.347   116102485.442    22093577.313    90469460.141                  
                 120136679.061                   120136679.061    23070976.863  
                 134518070.134                   134518070.134    25832775.277  
                 115473051.585                   115473051.585    22175381.289  
                 124551459.308                   124551459.308    23918801.212  
                 127717661.908                   127717661.908    24526834.477  
  26143983.521   137387530.915                                                  
 21  9  1  6 12  1.0000000  0 14G 4G 7G 8G 9G14G20G27G30C23C24C25C32
                                C34E21
  23286565.803   122371720.012    23286567.357    95354586.039                  
  20633229.284   108428367.675    20633228.480    84489640.933                  
  21496943.680   112967161.194    21496946.039    88026349.487                  
  20991437.472   110310718.464    20991439.367    85956396.423                  
  23562407.784   123821285.765    23562408.802    96484120.164                  
  23808579.539   125114926.221    23808579.128    97492150.215                  
  22455438.465   118004100.880    22455439.984    91951242.234                  
  22093153.334   116100267.821    22093155.318    90467732.125                  
                 120135138.477                   120135138.477    23070681.005  
                 134520605.324                   134520605.324    25833262.137  
                 115473851.871                   115473851.871    22175534.962  
                 124551022.604                   124551022.604    23918717.353  
                 127715752.016                   127715752.016    24526467.715  
  26143575.625   137385387.395                                                  
 21  9  1  6 12  2.0000000  0 14G 4G 7G 8G 9G14G20G27G30C23C24C25C32
                                C34E21
  23287230.048   122375210.574    23287231.603    95357305.957                  
  20633097.536   108427675.380    20633096.732    84489101.480                  
  21496832.106   112966574.883    21496834.465    88025892.621                  
  20991834.361   110312804.050    20991836.238    85958021.554                  
  23561796.002   123818070.848    23561797.021    96481615.031                  
  23808717.166   125115649.437    23808716.737    97492713.762                  
  22455699.228   118005471.191    22455700.747    91952310.012                  
  22092731.375   116098050.352    22092733.359    90466004.229                  
                 120133598.091                   120133598.091    23070385.184  
                 134523140.534                   134523140.534    25833748.996  
                 115474652.375                   115474652.375    22175688.672  
                 124550586.474                   124550586.474    23918633.601  
                 127713842.515                   127713842.515    24526101.025  
  26143167.765   137383244.073                                                  
 21  9  1  6 12  3.0000000  0 14G 4G 7G 8G 9G14G20G27G30C23C24C25C32
                                C34E21
  23287894.329   122378701.388    23287895.884    95360026.070                  
  20632965.859   108426983.352    20632965.037    84488562.233                  
  21496720.657   112965989.261    21496723.016    88025436.292                  
  20992231.322   110314890.164    20992233.198    85959647.098                  
  23561184.256   123814856.139    23561185.275    96479110.066                  
  23808854.901   125116373.221    23808854.454    97493277.746                  
  22455960.116   118006842.180    22455961.634    91953378.312                  
  22092309.434   116095833.062    22092311.417    90464276.469                  
                 120132057.903                   120132057.903    23070089.398  
                 134525675.771                   134525675.771    25834235.855  
                 115475453.102                   115475453.102    22175842.452  
                 124550150.901                   124550150.901    23918549.956  
                 127711933.406                   127711933.406    24525734.388  
  26142759.922   137381100.934                                                  
 21  9  1  6 12  4.0000000  0 14G 4G 7G 8G 9G14G20G27G30C23C24C25C32
                                C34E21
  23288558.646   122382192.425    23288560.200    95362746.363                  
  20632834.200   108426291.573    20632833.396    84488023.187                  
  21496609.369   112965404.331    21496611.727    88024980.503                  
  20992628.407   110316976.815    20992630.283    85961273.060                  
  23560572.582   123811641.657    23560573.582    96476605.274                  
  23808992.742   125117097.555    23808992.296    97493842.161                  
  22456221.128   118008213.829    22456222.665    91954447.132                  
  22091887.546   116093615.934    22091889.512    90462548.836                  
                 120130517.915                   120130517.915    23069793.665  
                 134528211.022                   134528211.022    25834722.733  
                 115476254.048                   115476254.048    22175996.251  
                 124549715.901                   124549715.901    23918466.418  
                 127710024.686                   127710024.686    24525367.841  
  26142352.133   137378957.980                                                  
 21  9  1  6 12  5.0000000  0 14G 4G 7G 8G 9G14G20G27G30C23C24C25C32
                                C34E21
  23289223.016   122385683.711    23289224.588    95365466.839                  
  20632702.613   108425600.067    20632701.826    84487484.352                  
  21496498.188   112964820.094    21496500.546    88024525.254                  
  20993025.582   110319064.000    20993027.458    85962899.433                  
  23559960.925   123808427.394    23559961.944    96474100.651                  
  23809130.673   125117822.449    23809130.244    97494407.016                  
  22456482.284   118009586.165    22456483.803    91955516.485                  
  22091465.659   116091398.973    22091467.642    90460821.336                  
                 120128978.125                   120128978.125    23069497.969  
                 134530746.299                   134530746.299    25835209.628  
                 115477055.212                   115477055.212    22176150.121  
                 124549281.466                   124549281.466    23918382.988  
                 127708116.362                   127708116.362    24525001.365  
  26141944.380   137376815.219                                                  
 21  9  1  6 12  6.0000000  0 14G 4G 7G 8G 9G14G20G27G30C23C24C25C32
                                C34E21
  23289887.422   122389175.238    23289888.976    95368187.512                  
  20632571.079   108424908.811    20632570.275    84486945.710                  
  21496387.132   112964236.547    21496389.472    88024070.544                  
  20993422.864   110321151.714    20993424.740    85964526.227                  
  23559349.304   123805213.348    23559350.323    96471596.202                  
  23809268.711   125118547.885    23809268.300    97494972.289                  
  22456743.565   118010959.173    22456745.084    91956586.359                  
  22091043.825   116089182.173    22091045.808    90459093.960                  
                 120127438.535                   120127438.535    23069202.308  
                 134533281.603                   134533281.603    25835696.487  
                 115477856.602                   115477856.602    22176304.027  
                 124548847.597                   124548847.597    23918299.664  
                 127706208.431                   127706208.431    24524634.961  
  26141536.662   137374672.649                                                  
 21  9  1  6 12  7.0000000  0 14G 4G 7G 8G 9G14G20G27G30C23C24C25C32
                                C34E21
  23290551.899   122392667.000    23290553.454    95370908.363                  
  20632439.581   108424217.816    20632438.777    84486407.273                  
  21496276.219   112963653.681    21496278.577    88023616.360                  
  20993820.235   110323239.952    20993822.111    85966153.422                  
  23558737.737   123801999.517    23558738.755    96469091.918                  
  23809406.875   125119273.880    23809406.446    97495537.997                  
  22457004.953   118012332.867    22457006.472    91957656.770                  
  22090622.008   116086965.550    22090623.974    90457366.723                  
                 120125899.143                   120125899.143    23068906.683  
                 134535816.927                   134535816.927    25836183.382  
                 115478658.208                   115478658.208    22176457.969  
                 124548414.293                   124548414.293    23918216.466  
                 127704300.892                   127704300.892    24524268.646  
  26141128.981   137372530.247                                                  
 21  9  1  6 12  8.0000000  0 14G 4G 7G 8G 9G14G20G27G30C23C24C25C32
                                C34E21
  23291216.395   122396158.996    23291217.967    95373629.399                  
  20632308.136   108423527.091    20632307.332    84485869.048                  
  21496165.448   112963071.542    21496167.807    88023162.750                  
  20994217.714   110325328.740    20994219.608    85967781.050                  
  23558126.205   123798785.935    23558127.224    96466587.828                  
  23809545.145   125120000.487    23809544.716    97496104.187                  
  22457266.484   118013707.231    22457268.021    91958727.707                  
  22090200.228   116084749.078    22090202.194    90455639.601                  
                 120124359.949                   120124359.949    23068611.093  
                 134538352.271                   134538352.271    25836670.260  
                 115479460.035                   115479460.035    22176611.946  
                 124547981.558                   124547981.558    23918133.357  
                 127702393.743                   127702393.743    24523902.403  
  26140721.335   137370388.070                                                  
 21  9  1  6 12  9.0000000  0 14G 4G 7G 8G 9G14G20G27G30C23C24C25C32
                                C34E21
  23291880.944   122399651.239    23291882.498    95376350.630                  
  20632176.763   108422836.621    20632175.959    84485331.015                  
  21496054.803   112962490.078    21496057.144    88022709.656                  
  20994615.300   110327418.046    20994617.176    85969409.082                  
  23557514.727   123795572.547    23557515.746    96464083.887                  
  23809683.523   125120727.605    23809683.076    97496670.774                  
  22457528.158   118015082.272    22457529.677    91959799.168                  
  22089778.483   116082532.781    22089780.467    90453912.617                  
                 120122820.956                   120122820.956    23068315.540  
                 134540887.636                   134540887.636    25837157.137  
                 115480262.086                   115480262.086    22176765.977  
                 124547549.390                   124547549.390    23918050.356  
                 127700486.989                   127700486.989    24523536.213  
  26140313.724   137368246.058                                                  
 21  9  1  6 12 10.0000000  0 14G 4G 7G 8G 9G14G20G27G30C23C24C25C32
                                C34E21
  23292545.546   122403143.723    23292547.101    95379072.043                  
  20632045.426   108422146.415    20632044.622    84484793.194                  
  21495944.266   112961909.277    21495946.624    88022257.087                  
  20995012.993   110329507.899    20995014.869    85971037.536                  
  23556903.285   123792359.387    23556904.304    96461580.129                  
  23809821.972   125121455.296    23809821.561    97497237.801                  
  22457789.939   118016457.989    22457791.458    91960871.153                  
  22089356.757   116080316.656    22089358.740    90452185.765                  
                 120121282.163                   120121282.163    23068020.040  
                 134543423.026                   134543423.026    25837644.032  
                 115481064.354                   115481064.354    22176920.044  
                 124547117.790                   124547117.790    23917967.479  
                 127698580.625                   127698580.625    24523170.112  
  26139906.168   137366104.242                                                  
 21  9  1  6 12 11.0000000  0 14G 4G 7G 8G 9G14G20G27G30C23C24C25C32
                                C34E21
  23293210.185   122406636.441    23293211.739    95381793.640                  
  20631914.124   108421456.462    20631913.320    84484255.570                  
  21495833.889   112961329.163    21495836.247    88021805.050                  
  20995410.775   110331598.259    20995412.651    85972666.390                  
  23556291.878   123789146.445    23556292.897    96459076.540                  
  23809960.564   125122183.535    23809960.135    97497805.263                  
  22458051.863   118017834.371    22458053.382    91961943.661                  
  22088935.083   116078100.686    22088937.067    90450459.040                  
                 120119743.565                   120119743.565    23067724.558  
                 134545958.437                   134545958.437    25838130.945  
                 115481866.847                   115481866.847    22177074.146  
                 124546686.753                   124546686.753    23917884.692  
                 127696674.653                   127696674.653    24522804.101  
  26139498.629   137363962.608                                                  
 21  9  1  6 12 12.0000000  0 14G 4G 7G 8G 9G14G20G27G30C23C24C25C32
                                C34E21
  23293874.876   122410129.398    23293876.431    95384515.426                  
  20631782.876   108420766.773    20631782.072    84483718.148                  
  21495723.619   112960749.739    21495725.960    88021353.550                  
  20995808.664   110333689.156    20995810.541    85974295.661                  
  23555680.526   123785933.732    23555681.544    96456573.125                  
  23810099.264   125122912.337    23810098.817    97498373.156                  
  22458313.895   118019211.437    22458315.414    91963016.695                  
  22088513.428   116075884.893    22088515.394    90448732.446                  
                 120118205.171                   120118205.171    23067429.147  
                 134548493.872                   134548493.872    25838617.840  
                 115482669.558                   115482669.558    22177228.302  
                 124546256.284                   124546256.284    23917802.048  
                 127694769.074                   127694769.074    24522438.161  
  26139091.108   137361821.168                                                  
 21  9  1  6 12 13.0000000  0 14G 4G 7G 8G 9G14G20G27G30C23C24C25C32
                                C34E21
  23294539.622   122413622.594    23294541.177    95387237.395                  
  20631651.682   108420077.344    20631650.878    84483180.934                  
  21495613.474   112960171.004    21495615.833    88020902.586                  
  20996206.643   110335780.593    20996208.519    85975925.348                  
  23555069.208   123782721.229    23555070.227    96454069.878                  
  23810238.034   125123641.683    23810237.623    97498941.480                  
  22458576.087   118020589.173    22458577.606    91964090.257                  
  22088091.808   116073669.261    22088093.774    90447005.981                  
                 120116666.971                   120116666.971    23067133.736  
                 134551029.329                   134551029.329    25839104.753  
                 115483472.492                   115483472.492    22177382.494  
                 124545826.387                   124545826.387    23917719.475  
                 127692863.890                   127692863.890    24522072.275  
  26138683.641   137359679.924                                                  
 21  9  1  6 12 14.0000000  0 14G 4G 7G 8G 9G14G20G27G30C23C24C25C32
                                C34E21
  23295204.385   122417116.023    23295205.958    95389959.547                  
  20631520.541   108419388.180    20631519.737    84482643.918                  
  21495503.473   112959592.941    21495505.831    88020452.152                  
  20996604.747   110337872.556    20996606.623    85977555.448                  
  23554457.927   123779508.950    23554458.946    96451566.802                  
  23810376.948   125124371.598    23810376.519    97499510.242                  
  22458838.386   118021967.589    22458839.905    91965164.348                  
  22087670.225   116071453.788    22087672.208    90445279.636                  
                 120115128.975                   120115128.975    23066838.379  
                 134553564.804                   134553564.804    25839591.666  
                 115484275.645                   115484275.645    22177536.740  
                 124545397.052                   124545397.052    23917637.027  
                 127690959.096                   127690959.096    24521706.478  
  26138276.227   137357538.860                                                  
 21  9  1  6 12 15.0000000  0 14G 4G 7G 8G 9G14G20G27G30C23C24C25C32
                                C34E21
  23295869.220   122420609.672    23295870.775    95392681.855                  
  20631389.436   108418699.263    20631388.632    84482107.101                  
  21495393.614   112959015.615    21495395.973    88020002.294                  
  20997002.923   110339965.041    20997004.799    85979185.958                  
  23553846.681   123776296.883    23553847.700    96449063.892                  
  23810515.933   125125102.058    23810515.522    97500079.434                  
  22459100.829   118023346.633    22459102.347    91966238.909                  
  22087248.659   116069238.497    22087250.642    90443553.442                  
                 120113591.177                   120113591.177    23066543.058  
                 134556100.306                   134556100.306    25840078.579  
                 115485079.019                   115485079.019    22177691.021  
                 124544968.281                   124544968.281    23917554.687  
                 127689054.698                   127689054.698    24521340.753  
  26137868.813   137355397.971                                                  
 21  9  1  6 12 16.0000000  0 14G 4G 7G 8G 9G14G20G27G30C23C24C25C32
                                C34E21
  23296534.073   122424103.576    23296535.645    95395404.371                  
  20631258.403   108418010.612    20631257.598    84481570.493                  
  21495283.880   112958438.946    21495286.239    88019552.941                  
  20997401.223   110342058.065    20997403.082    85980816.886                  
  23553235.507   123773085.055    23553236.526    96446561.165                  
  23810655.062   125125833.082    23810654.615    97500649.059                  
  22459363.378   118024726.387    22459364.897    91967314.042                  
  22086827.146   116067023.373    22086829.112    90441827.367                  
                 120112053.574                   120112053.574    23066247.772  
                 134558635.827                   134558635.827    25840565.492  
                 115485882.613                   115485882.613    22177845.338  
                 124544540.082                   124544540.082    23917472.454  
                 127687150.695                   127687150.695    24520975.117  
  26137461.453   137353257.285                                                  
 21  9  1  6 12 17.0000000  0 14G 4G 7G 8G 9G14G20G27G30C23C24C25C32
                                C34E21
  23297198.997   122427597.723    23297200.552    95398127.083                  
  20631127.405   108417322.232    20631126.601    84481034.081                  
  21495174.272   112957862.978    21495176.648    88019104.128                  
  20997799.595   110344151.624    20997801.471    85982448.226                  
  23552624.333   123769873.434    23552625.352    96444058.598                  
  23810794.261   125126564.663    23810793.833    97501219.122                  
  22459626.053   118026106.825    22459627.572    91968389.704                  
  22086405.634   116064808.401    22086407.617    90440101.417                  
                 120110516.171                   120110516.171    23065952.540  
                 134561171.372                   134561171.372    25841052.423  
                 115486686.429                   115486686.429    22177999.708  
                 124544112.448                   124544112.448    23917390.345  
                 127685247.081                   127685247.081    24520609.553  
  26137054.146   137351116.781                                                  
 21  9  1  6 12 18.0000000  0 14G 4G 7G 8G 9G14G20G27G30C23C24C25C32
                                C34E21
  23297863.957   122431092.114    23297865.512    95400849.985                  
  20630996.461   108416634.107    20630995.656    84480497.882                  
  21495064.824   112957287.706    21495067.165    88018655.867                  
  20998198.092   110346245.711    20998199.986    85984079.980                  
  23552013.248   123766662.035    23552014.267    96441556.211                  
  23810933.586   125127296.797    23810933.157    97501789.613                  
  22459888.888   118027487.946    22459890.407    91969465.902                  
  22085984.175   116062593.603    22085986.158    90438375.598                  
                 120108978.972                   120108978.972    23065657.344  
                 134563706.937                   134563706.937    25841539.354  
                 115487490.466                   115487490.466    22178154.096  
                 124543685.384                   124543685.384    23917308.327  
                 127683343.861                   127683343.861    24520244.060  
  26136646.840   137348976.465                                                  
 21  9  1  6 12 19.0000000  0 14G 4G 7G 8G 9G14G20G27G30C23C24C25C32
                                C34E21
  23298528.953   122434586.737    23298530.525    95403573.066                  
  20630865.552   108415946.240    20630864.766    84479961.882                  
  21494955.483   112956713.129    21494957.824    88018208.149                  
  20998596.679   110348340.332    20998598.555    85985712.152                  
  23551402.163   123763450.868    23551403.182    96439054.003                  
  23811073.018   125128029.484    23811072.571    97502360.539                  
  22460151.813   118028869.731    22460153.332    91970542.618                  
  22085562.734   116060378.968    22085564.718    90436649.909                  
                 120107441.970                   120107441.970    23065362.183  
                 134566242.526                   134566242.526    25842026.303  
                 115488294.723                   115488294.723    22178308.556  
                 124543258.883                   124543258.883    23917226.415  
                 127681441.035                   127681441.035    24519878.638  
  26136239.605   137346836.342                                                  
 21  9  1  6 12 20.0000000  0 14G 4G 7G 8G 9G14G20G27G30C23C24C25C32
                                C34E21
  23299194.020   122438081.600    23299195.575    95406296.336                  
  20630734.715   108415258.634    20630733.929    84479426.085                  
  21494846.268   112956139.242    21494848.627    88017760.960                  
  20998995.372   110350435.469    20998997.266    85987344.727                  
  23550791.132   123760239.915    23550792.168    96436551.960                  
  23811212.539   125128762.738    23811212.128    97502931.906                  
  22460414.899   118030252.188    22460416.418    91971619.854                  
  22085141.347   116058164.493    22085143.312    90434924.344                  
                 120105905.163                   120105905.163    23065067.041  
                 134568778.141                   134568778.141    25842513.233  
                 115489099.199                   115489099.199    22178463.034  
                 124542832.950                   124542832.950    23917144.628  
                 127679538.602                   127679538.602    24519513.306  
  26135832.388   137344696.402                                                  
 21  9  1  6 12 21.0000000  0 14G 4G 7G 8G 9G14G20G27G30C23C24C25C32
                                C34E21
  23299859.123   122441576.699    23299860.678    95409019.789                  
  20630603.914   108414571.289    20630603.128    84478890.492                  
  21494737.177   112955566.047    21494739.536    88017314.312                  
  20999394.173   110352531.153    20999396.067    85988977.727                  
  23550180.154   123757029.180    23550181.173    96434050.090                  
  23811352.186   125129496.538    23811351.757    97503503.700                  
  22460678.092   118031635.320    22460679.628    91972697.624                  
  22084719.977   116055950.190    22084721.961    90433198.913                  
                 120104368.557                   120104368.557    23064771.952  
                 134571313.773                   134571313.773    25843000.182  
                 115489903.896                   115489903.896    22178617.583  
                 124542407.581                   124542407.581    23917062.931  
                 127677636.562                   127677636.562    24519148.045  
  26135425.206   137342556.649                                                  
 21  9  1  6 12 22.0000000  0 14G 4G 7G 8G 9G14G20G27G30C23C24C25C32
                                C34E21
  23300524.262   122445072.038    23300525.816    95411743.430                  
  20630473.166   108413884.203    20630472.362    84478355.102                  
  21494628.248   112954993.539    21494630.607    88016868.207                  
  20999793.081   110354627.364    20999794.940    85990611.136                  
  23549569.213   123753818.664    23549570.231    96431548.390                  
  23811491.940   125130230.899    23811491.493    97504075.927                  
  22460941.445   118033019.135    22460942.964    91973775.922                  
  22084298.644   116053736.052    22084300.627    90431473.613                  
                 120102832.152                   120102832.152    23064476.898  
                 134573849.425                   134573849.425    25843487.113  
                 115490708.813                   115490708.813    22178772.168  
                 124541982.782                   124541982.782    23916981.359  
                 127675734.914                   127675734.914    24518782.838  
  26135018.061   137340417.090                                                  
 21  9  1  6 12 23.0000000  0 14G 4G 7G 8G 9G14G20G27G30C23C24C25C32
                                C34E21
  23301189.436   122448567.614    23301191.008    95414467.253                  
  20630342.454   108413197.383    20630341.668    84477819.913                  
  21494519.443   112954421.724    21494521.784    88016422.632                  
  21000192.061   110356724.110    21000193.937    85992244.964                  
  23548958.324   123750608.384    23548959.343    96429046.875                  
  23811631.782   125130965.817    23811631.354    97504648.590                  
  22461204.888   118034403.617    22461206.425    91974854.739                  
  22083877.346   116051522.078    22083879.311    90429748.439                  
                 120101295.941                   120101295.941    23064181.899  
                 134576385.107                   134576385.107    25843974.062  
                 115491513.949                   115491513.949    22178926.789  
                 124541558.552                   124541558.552    23916899.876  
                 127673833.659                   127673833.659    24518417.720  
  26134610.933   137338277.716                                                  
 21  9  1  6 12 24.0000000  0 14G 4G 7G 8G 9G14G20G27G30C23C24C25C32
                                C34E21
  23301854.682   122452063.429    23301856.236    95417191.267                  
  20630211.814   108412510.819    20630211.028    84477284.931                  
  21494410.746   112953850.589    21494413.105    88015977.594                  
  21000591.165   110358821.378    21000593.042    85993879.203                  
  23548347.472   123747398.320    23548348.472    96426545.527                  
  23811771.733   125131701.289    23811771.322    97505221.683                  
  22461468.474   118035788.773    22461469.993    91975934.081                  
  22083456.066   116049308.281    22083458.031    90428023.399                  
                 120099759.934                   120099759.934    23063886.917  
                 134578920.806                   134578920.806    25844461.028  
                 115492319.309                   115492319.309    22179081.445  
                 124541134.884                   124541134.884    23916818.519  
                 127671932.799                   127671932.799    24518052.674  
  26134203.876   137336138.535                                                  
 21  9  1  6 12 25.0000000  0 14G 4G 7G 8G 9G14G20G27G30C23C24C25C32
                                C34E21
  23302519.946   122455559.478    23302521.518    95419915.456                  
  20630081.227   108411824.516    20630080.423    84476750.152                  
  21494302.192   112953280.141    21494304.533    88015533.089                  
  21000990.359   110360919.180    21000992.236    85995513.847                  
  23547736.655   123744188.468    23547737.673    96424044.341                  
