% program   : rnx2rtkp ver.2.4.3 b31
% inp file  : ngs/21_08_31_06_47_46_al50.obs
% inp file  : ngs/21_08_31_06_47_46_al50_SW.obs
% inp file  : ngs/21_08_31_06_47_46_brdc.nav
% obs start : 2021/08/31 06:00:00.0 GPST (week2173 194400.0s)
% obs end   : 2021/08/31 06:59:59.0 GPST (week2173 197999.0s)
% ref pos   :   235323.3548  -5393046.7222   3385767.9472
%
% (x/y/z-ecef=WGS84,Q=1:fix,2:float,3:sbas,4:dgps,5:single,6:ppp,ns=# of satellites)
%  GPST              x-ecef(m)      y-ecef(m)      z-ecef(m)   Q  ns   sdx(m)   sdy(m)   sdz(m)  sdxy(m)  sdyz(m)  sdzx(m) age(s)  ratio
2173 197241.000    232977.5508  -5339307.4377   3469621.4623   2   8   0.4576   1.0050   0.5858  -0.0905  -0.6229  -0.0830 -30.00    1.1
2173 197242.000    232977.5504  -5339307.4506   3469621.4655   2   8   0.3260   0.7151   0.4167  -0.0679  -0.4432  -0.0583 -29.00    1.1
2173 197243.000    232977.5495  -5339307.4566   3469621.4679   2   8   0.2670   0.5855   0.3412  -0.0563  -0.3628  -0.0476 -28.00    1.1
2173 197244.000    232977.5531  -5339307.4548   3469621.4646   2   8   0.2316   0.5080   0.2960  -0.0490  -0.3148  -0.0412 -27.00    1.1
2173 197245.000    232977.5558  -5339307.4617   3469621.4644   2   8   0.2074   0.4549   0.2651  -0.0439  -0.2819  -0.0369 -26.00    1.1
2173 197246.000    232977.5598  -5339307.4691   3469621.4675   2   8   0.1895   0.4157   0.2422  -0.0401  -0.2576  -0.0337 -25.00    1.0
2173 197247.000    232977.5593  -5339307.4741   3469621.4652   2   8   0.1756   0.3852   0.2244  -0.0372  -0.2387  -0.0313 -24.00    1.0
2173 197248.000    232977.5618  -5339307.4784   3469621.4660   2   8   0.1643   0.3605   0.2100  -0.0348  -0.2234  -0.0292 -23.00    1.0
2173 197249.000    232977.5648  -5339307.4824   3469621.4664   2   8   0.1550   0.3401   0.1981  -0.0329  -0.2107  -0.0276 -22.00    1.0
2173 197250.000    232977.5675  -5339307.4936   3469621.4699   2   8   0.1471   0.3227   0.1880  -0.0313  -0.2000  -0.0261 -21.00    1.1
2173 197251.000    232977.5709  -5339307.4919   3469621.4684   2   8   0.1403   0.3077   0.1792  -0.0299  -0.1907  -0.0249 -20.00    1.1
2173 197252.000    232977.5722  -5339307.4968   3469621.4703   2   8   0.1343   0.2946   0.1716  -0.0287  -0.1826  -0.0238 -19.00    1.1
2173 197253.000    232977.5748  -5339307.5012   3469621.4701   2   8   0.1290   0.2831   0.1649  -0.0277  -0.1754  -0.0229 -18.00    1.1
2173 197254.000    232977.5776  -5339307.4975   3469621.4673   2   8   0.1243   0.2727   0.1588  -0.0268  -0.1690  -0.0220 -17.00    1.2
2173 197255.000    232977.5796  -5339307.4969   3469621.4678   2   8   0.1201   0.2634   0.1534  -0.0260  -0.1632  -0.0212 -16.00    1.2
2173 197256.000    232977.5825  -5339307.4938   3469621.4662   2   8   0.1163   0.2550   0.1485  -0.0253  -0.1580  -0.0206 -15.00    1.3
2173 197257.000    232977.5828  -5339307.4973   3469621.4671   2   8   0.1128   0.2473   0.1440  -0.0246  -0.1532  -0.0199 -14.00    1.3
2173 197258.000    232977.5858  -5339307.4899   3469621.4634   2   8   0.1096   0.2402   0.1399  -0.0240  -0.1488  -0.0193 -13.00    1.4
2173 197259.000    232977.5858  -5339307.4871   3469621.4606   2   8   0.1066   0.2337   0.1361  -0.0235  -0.1447  -0.0188 -12.00    1.4
2173 197260.000    232977.5886  -5339307.4852   3469621.4573   2   8   0.1039   0.2276   0.1326  -0.0230  -0.1410  -0.0183 -11.00    1.5
2173 197261.000    232977.5905  -5339307.4788   3469621.4534   2   8   0.1014   0.2220   0.1293  -0.0226  -0.1375  -0.0178 -10.00    1.5
2173 197262.000    232977.5905  -5339307.4713   3469621.4462   2   8   0.0990   0.2168   0.1262  -0.0221  -0.1342  -0.0174  -9.00    1.5
2173 197263.000    232977.5911  -5339307.4654   3469621.4434   2   8   0.0968   0.2119   0.1234  -0.0217  -0.1312  -0.0170  -8.00    1.6
2173 197264.000    232977.5952  -5339307.4644   3469621.4397   2   8   0.0948   0.2072   0.1207  -0.0213  -0.1283  -0.0166  -7.00    1.6
2173 197265.000    232977.5952  -5339307.4597   3469621.4363   2   8   0.0928   0.2029   0.1182  -0.0209  -0.1256  -0.0163  -6.00    1.7
2173 197266.000    232977.5963  -5339307.4534   3469621.4320   2   8   0.0910   0.1988   0.1158  -0.0206  -0.1230  -0.0160  -5.00    1.7
2173 197267.000    232977.5947  -5339307.4452   3469621.4251   2   8   0.0893   0.1949   0.1135  -0.0202  -0.1206  -0.0157  -4.00    1.7
2173 197268.000    232977.5946  -5339307.4415   3469621.4205   2   8   0.0876   0.1913   0.1114  -0.0199  -0.1183  -0.0155  -3.00    1.6
2173 197269.000    232977.5938  -5339307.4323   3469621.4134   2   8   0.0861   0.1878   0.1094  -0.0195  -0.1161  -0.0152  -2.00    1.6
2173 197270.000    232977.5952  -5339307.4220   3469621.4067   2   8   0.0846   0.1845   0.1075  -0.0192  -0.1141  -0.0149  -1.00    1.6
2173 197271.000    232977.5929  -5339307.4170   3469621.4011   2   8   0.0833   0.1814   0.1057  -0.0189  -0.1121  -0.0147   0.00    1.6
2173 197272.000    232977.5913  -5339307.4142   3469621.3974   2   8   0.0819   0.1784   0.1040  -0.0185  -0.1103  -0.0145   0.00    1.6
2173 197273.000    232977.5898  -5339307.4026   3469621.3893   2   8   0.0807   0.1756   0.1023  -0.0182  -0.1085  -0.0144   0.00    1.6
2173 197274.000    232977.5886  -5339307.3961   3469621.3840   2   8   0.0795   0.1729   0.1008  -0.0179  -0.1068  -0.0141   0.00    1.6
2173 197275.000    232977.5921  -5339307.4011   3469621.3843   2   8   0.0784   0.1703   0.0993  -0.0176  -0.1052  -0.0140   0.00    1.6
2173 197276.000    232977.5931  -5339307.3965   3469621.3816   2   8   0.0772   0.1678   0.0978  -0.0173  -0.1036  -0.0139   0.00    1.6
2173 197277.000    232977.5954  -5339307.3927   3469621.3786   2   8   0.0762   0.1654   0.0964  -0.0171  -0.1021  -0.0136   0.00    1.6
2173 197278.000    232977.5950  -5339307.3877   3469621.3743   2   8   0.0752   0.1630   0.0950  -0.0168  -0.1006  -0.0136   0.00    1.6
2173 197279.000    232977.5926  -5339307.3871   3469621.3750   2   8   0.0743   0.1608   0.0938  -0.0165  -0.0992  -0.0134   0.00    1.7
2173 197280.000    232977.5929  -5339307.3772   3469621.3685   2   8   0.0733   0.1586   0.0925  -0.0162  -0.0979  -0.0133   0.00    1.7
2173 197281.000    232977.5958  -5339307.3538   3469621.3589   2   8   0.0724   0.1565   0.0913  -0.0160  -0.0965  -0.0131   0.00    1.7
2173 197282.000    232977.5938  -5339307.3456   3469621.3520   2   8   0.0715   0.1545   0.0901  -0.0157  -0.0953  -0.0130   0.00    1.7
2173 197283.000    232977.5910  -5339307.3446   3469621.3463   2   8   0.0707   0.1525   0.0890  -0.0154  -0.0940  -0.0129   0.00    1.7
2173 197284.000    232977.5888  -5339307.3394   3469621.3415   2   8   0.0699   0.1506   0.0879  -0.0152  -0.0928  -0.0128   0.00    1.6
2173 197285.000    232977.5861  -5339307.3620   3469621.3495   2   8   0.0691   0.1488   0.0868  -0.0149  -0.0916  -0.0128   0.00    1.6
2173 197286.000    232977.5866  -5339307.3791   3469621.3509   2   8   0.0684   0.1469   0.0858  -0.0147  -0.0905  -0.0126   0.00    1.6
2173 197287.000    232977.5851  -5339307.3917   3469621.3519   2   8   0.0676   0.1452   0.0848  -0.0144  -0.0893  -0.0125   0.00    1.6
2173 197288.000    232977.5848  -5339307.4057   3469621.3659   2   8   0.0669   0.1434   0.0838  -0.0141  -0.0882  -0.0124   0.00    1.5
2173 197289.000    232977.5861  -5339307.4235   3469621.3775   2   8   0.0663   0.1418   0.0829  -0.0139  -0.0872  -0.0124   0.00    1.5
2173 197290.000    232977.5902  -5339307.4190   3469621.3794   2   8   0.0656   0.1401   0.0819  -0.0136  -0.0861  -0.0123   0.00    1.5
2173 197291.000    232977.5915  -5339307.4203   3469621.3818   2   8   0.0649   0.1385   0.0810  -0.0134  -0.0851  -0.0123   0.00    1.5
2173 197292.000    232977.5909  -5339307.4166   3469621.3803   2   8   0.0643   0.1370   0.0801  -0.0131  -0.0841  -0.0121   0.00    1.5
2173 197293.000    232977.5907  -5339307.4131   3469621.3814   2   8   0.0637   0.1354   0.0793  -0.0128  -0.0831  -0.0121   0.00    1.6
2173 197294.000    232977.6024  -5339307.3959   3469621.3836   2   8   0.0631   0.1339   0.0784  -0.0126  -0.0822  -0.0120   0.00    1.6
2173 197295.000    232977.5955  -5339307.3700   3469621.3753   2   8   0.0625   0.1325   0.0776  -0.0123  -0.0812  -0.0121   0.00    1.7
2173 197296.000    232977.5947  -5339307.3485   3469621.3690   2   8   0.0620   0.1310   0.0768  -0.0121  -0.0803  -0.0119   0.00    1.7
2173 197297.000    232977.5919  -5339307.3321   3469621.3660   2   8   0.0614   0.1296   0.0760  -0.0118  -0.0794  -0.0120   0.00    1.7
2173 197298.000    232977.5880  -5339307.3193   3469621.3630   2   8   0.0609   0.1282   0.0752  -0.0116  -0.0785  -0.0119   0.00    1.8
2173 197299.000    232977.5847  -5339307.3026   3469621.3578   2   8   0.0604   0.1269   0.0744  -0.0112  -0.0776  -0.0118   0.00    1.8
2173 197300.000    232977.5845  -5339307.2990   3469621.3557   2   8   0.0598   0.1255   0.0737  -0.0110  -0.0767  -0.0120   0.00    1.8
2173 197301.000    232977.5818  -5339307.2953   3469621.3540   2   8   0.0593   0.1242   0.0730  -0.0107  -0.0759  -0.0118   0.00    1.8
2173 197302.000    232977.5823  -5339307.2862   3469621.3490   2   8   0.0589   0.1229   0.0723  -0.0104  -0.0751  -0.0117   0.00    1.8
2173 197303.000    232977.5812  -5339307.2830   3469621.3486   2   8   0.0584   0.1216   0.0715  -0.0101  -0.0742  -0.0117   0.00    1.8
2173 197304.000    232977.5811  -5339307.2908   3469621.3516   2   8   0.0579   0.1204   0.0709  -0.0098  -0.0734  -0.0117   0.00    1.8
2173 197305.000    232977.5800  -5339307.2941   3469621.3529   2   8   0.0575   0.1192   0.0701  -0.0096  -0.0726  -0.0118   0.00    1.8
2173 197306.000    232977.5784  -5339307.3010   3469621.3604   2   8   0.0570   0.1180   0.0695  -0.0092  -0.0718  -0.0119   0.00    1.8
2173 197307.000    232977.5784  -5339307.3103   3469621.3682   2   8   0.0566   0.1168   0.0689  -0.0091  -0.0711  -0.0118   0.00    1.8
2173 197308.000    232977.5783  -5339307.3087   3469621.3765   2   8   0.0562   0.1156   0.0682  -0.0086  -0.0703  -0.0118   0.00    1.8
2173 197309.000    232977.5768  -5339307.3048   3469621.3823   2   8   0.0558   0.1145   0.0675  -0.0084  -0.0695  -0.0118   0.00    1.8
2173 197310.000    232977.5746  -5339307.2843   3469621.3808   2   8   0.0554   0.1133   0.0669  -0.0081  -0.0688  -0.0118   0.00    1.8
2173 197311.000    232977.5684  -5339307.2689   3469621.3784   2   8   0.0550   0.1122   0.0664  -0.0076  -0.0681  -0.0116   0.00    1.8
2173 197312.000    232977.5672  -5339307.2570   3469621.3772   2   8   0.0546   0.1111   0.0657  -0.0074  -0.0673  -0.0118   0.00    1.8
2173 197313.000    232977.5642  -5339307.2485   3469621.3778   2   8   0.0543   0.1100   0.0651  -0.0068  -0.0666  -0.0116   0.00    1.8
2173 197314.000    232977.5636  -5339307.2312   3469621.3746   2   8   0.0539   0.1089   0.0645  -0.0066  -0.0659  -0.0117   0.00    1.8
2173 197315.000    232977.5592  -5339307.2219   3469621.3748   2   8   0.0535   0.1079   0.0640  -0.0061  -0.0652  -0.0116   0.00    1.8
2173 197316.000    232977.5571  -5339307.2128   3469621.3786   2   8   0.0532   0.1069   0.0634  -0.0057  -0.0645  -0.0116   0.00    1.8
2173 197317.000    232977.5555  -5339307.2012   3469621.3800   2   8   0.0529   0.1058   0.0629  -0.0054  -0.0639  -0.0117   0.00    1.8
2173 197318.000    232977.5518  -5339307.1968   3469621.3805   2   8   0.0525   0.1048   0.0623  -0.0050  -0.0632  -0.0117   0.00    1.8
2173 197319.000    232977.5498  -5339307.1839   3469621.3794   2   8   0.0521   0.1038   0.0617  -0.0043  -0.0626  -0.0118   0.00    1.8
2173 197320.000    232977.5462  -5339307.1754   3469621.3799   2   8   0.0518   0.1028   0.0612  -0.0038  -0.0619  -0.0117   0.00    1.8
2173 197321.000    232977.5457  -5339307.1665   3469621.3793   2   8   0.0514   0.1019   0.0607  -0.0030  -0.0612  -0.0117   0.00    1.8
2173 197322.000    232977.5417  -5339307.1465   3469621.3731   2   8   0.0511   0.1009   0.0602  -0.0024  -0.0606  -0.0117   0.00    1.8
2173 197323.000    232977.5406  -5339307.1418   3469621.3747   2   8   0.0508   0.1000   0.0597   0.0004  -0.0600  -0.0116   0.00    1.8
2173 197324.000    232977.5419  -5339307.1389   3469621.3765   2   8   0.0506   0.0990   0.0592   0.0020  -0.0594  -0.0115   0.00    1.8
2173 197325.000    232977.5398  -5339307.1311   3469621.3758   2   8   0.0502   0.0981   0.0587   0.0027  -0.0588  -0.0116   0.00    1.8
2173 197326.000    232977.5377  -5339307.1248   3469621.3746   2   8   0.0499   0.0972   0.0582   0.0036  -0.0581  -0.0115   0.00    1.8
2173 197327.000    232977.5577  -5339307.0985   3469621.3928   2   8   0.0496   0.0963   0.0577   0.0037  -0.0576  -0.0118   0.00    1.7
2173 197328.000    232977.5565  -5339307.0817   3469621.3934   2   8   0.0494   0.0954   0.0572   0.0045  -0.0570  -0.0116   0.00    1.7
2173 197329.000    232977.5562  -5339307.0581   3469621.3945   2   8   0.0490   0.0945   0.0568   0.0049  -0.0564  -0.0116   0.00    1.7
2173 197330.000    232977.5539  -5339307.0349   3469621.3930   2   8   0.0488   0.0937   0.0562   0.0053  -0.0558  -0.0117   0.00    1.7
2173 197331.000    232977.5530  -5339307.0041   3469621.3916   2   8   0.0485   0.0928   0.0558   0.0057  -0.0552  -0.0116   0.00    1.6
2173 197332.000    232977.5518  -5339306.9828   3469621.3967   2   8   0.0483   0.0920   0.0554   0.0060  -0.0547  -0.0115   0.00    1.6
2173 197333.000    232977.5495  -5339306.9478   3469621.3937   2   8   0.0480   0.0911   0.0549   0.0064  -0.0541  -0.0116   0.00    1.6
2173 197334.000    232977.5472  -5339306.9162   3469621.3871   2   8   0.0478   0.0903   0.0545   0.0065  -0.0536  -0.0112   0.00    1.6
2173 197335.000    232977.5440  -5339306.8902   3469621.3863   2   8   0.0475   0.0895   0.0541   0.0068  -0.0530  -0.0115   0.00    1.6
2173 197336.000    232977.5399  -5339306.8600   3469621.3820   2   8   0.0472   0.0887   0.0536   0.0070  -0.0525  -0.0117   0.00    1.6
2173 197337.000    232977.5383  -5339306.8368   3469621.3805   2   8   0.0470   0.0879   0.0532   0.0073  -0.0519  -0.0116   0.00    1.5
2173 197338.000    232977.5392  -5339306.8193   3469621.3844   2   8   0.0467   0.0871   0.0528   0.0075  -0.0514  -0.0116   0.00    1.5
2173 197339.000    232977.5389  -5339306.8013   3469621.3878   2   8   0.0465   0.0864   0.0524   0.0077  -0.0509  -0.0115   0.00    1.5
2173 197340.000    232977.5352  -5339306.7835   3469621.3924   2   8   0.0462   0.0856   0.0519   0.0079  -0.0504  -0.0116   0.00    1.4
2173 197341.000    232977.5358  -5339306.7632   3469621.3967   2   8   0.0460   0.0848   0.0516   0.0081  -0.0499  -0.0117   0.00    1.4
2173 197342.000    232977.5319  -5339306.7425   3469621.3990   2   8   0.0458   0.0841   0.0511   0.0083  -0.0494  -0.0117   0.00    1.4
2173 197343.000    232977.5299  -5339306.7158   3469621.3948   2   8   0.0456   0.0834   0.0507   0.0084  -0.0489  -0.0116   0.00    1.4
2173 197344.000    232977.5238  -5339306.7020   3469621.3926   2   8   0.0454   0.0826   0.0503   0.0086  -0.0484  -0.0117   0.00    1.3
2173 197345.000    232977.5204  -5339306.6813   3469621.3852   2   8   0.0451   0.0819   0.0500   0.0088  -0.0479  -0.0116   0.00    1.3
2173 197346.000    232977.5180  -5339306.6630   3469621.3756   2   8   0.0450   0.0812   0.0496   0.0090  -0.0474  -0.0116   0.00    1.3
2173 197347.000    232977.5184  -5339306.6475   3469621.3639   2   8   0.0447   0.0805   0.0492   0.0091  -0.0470  -0.0116   0.00    1.3
2173 197348.000    232977.5146  -5339306.6438   3469621.3612   2   8   0.0445   0.0798   0.0488   0.0092  -0.0465  -0.0115   0.00    1.3
2173 197349.000    232977.5188  -5339306.6350   3469621.3538   2   8   0.0443   0.0791   0.0485   0.0095  -0.0460  -0.0115   0.00    1.3
2173 197350.000    232977.5205  -5339306.6430   3469621.3606   2   8   0.0440   0.0784   0.0481   0.0095  -0.0456  -0.0116   0.00    1.2
2173 197351.000    232977.5228  -5339306.6434   3469621.3671   2   8   0.0439   0.0778   0.0477   0.0096  -0.0451  -0.0115   0.00    1.2
2173 197352.000    232977.5220  -5339306.6344   3469621.3696   2   8   0.0437   0.0771   0.0474   0.0099  -0.0447  -0.0114   0.00    1.2
2173 197353.000    232977.5244  -5339306.6248   3469621.3718   2   8   0.0434   0.0765   0.0471   0.0100  -0.0442  -0.0116   0.00    1.2
2173 197354.000    232977.5236  -5339306.6178   3469621.3765   2   8   0.0432   0.0758   0.0468   0.0100  -0.0438  -0.0116   0.00    1.2
2173 197355.000    232977.5321  -5339306.5463   3469621.3438   2   8   0.0431   0.0752   0.0464   0.0101  -0.0434  -0.0114   0.00    1.2
2173 197356.000    232977.5330  -5339306.5167   3469621.3343   2   8   0.0428   0.0746   0.0460   0.0103  -0.0430  -0.0114   0.00    1.2
2173 197357.000    232977.5312  -5339306.4958   3469621.3282   2   8   0.0427   0.0739   0.0457   0.0103  -0.0425  -0.0115   0.00    1.1
2173 197358.000    232977.5292  -5339306.4749   3469621.3203   2   8   0.0425   0.0733   0.0454   0.0105  -0.0421  -0.0114   0.00    1.1
2173 197359.000    232977.5275  -5339306.4491   3469621.3096   2   8   0.0423   0.0727   0.0451   0.0106  -0.0417  -0.0116   0.00    1.1
2173 197360.000    232977.5266  -5339306.4335   3469621.3040   2   8   0.0422   0.0721   0.0448   0.0106  -0.0413  -0.0114   0.00    1.1
2173 197361.000    232977.5248  -5339306.4118   3469621.2936   2   8   0.0420   0.0715   0.0444   0.0107  -0.0409  -0.0114   0.00    1.1
2173 197362.000    232977.5248  -5339306.4005   3469621.2867   2   8   0.0418   0.0709   0.0442   0.0108  -0.0405  -0.0113   0.00    1.1
2173 197363.000    232977.5235  -5339306.3796   3469621.2771   2   8   0.0417   0.0704   0.0438   0.0109  -0.0401  -0.0116   0.00    1.1
2173 197364.000    232977.5216  -5339306.3659   3469621.2665   2   8   0.0414   0.0698   0.0435   0.0110  -0.0397  -0.0114   0.00    1.1
2173 197365.000    232977.5237  -5339306.3569   3469621.2619   2   8   0.0413   0.0692   0.0432   0.0111  -0.0393  -0.0114   0.00    1.1
2173 197366.000    232977.5241  -5339306.3479   3469621.2564   2   8   0.0411   0.0687   0.0429   0.0112  -0.0390  -0.0114   0.00    1.1
2173 197367.000    232977.5253  -5339306.3347   3469621.2513   2   8   0.0410   0.0681   0.0427   0.0112  -0.0386  -0.0112   0.00    1.0
2173 197368.000    232977.5235  -5339306.3171   3469621.2438   2   8   0.0408   0.0676   0.0423   0.0113  -0.0382  -0.0113   0.00    1.0
2173 197369.000    232977.5260  -5339306.3076   3469621.2399   2   8   0.0406   0.0670   0.0420   0.0115  -0.0379  -0.0113   0.00    1.0
2173 197370.000    232977.5260  -5339306.2946   3469621.2417   2   8   0.0405   0.0665   0.0418   0.0115  -0.0375  -0.0111   0.00    1.0
2173 197371.000    232977.5266  -5339306.2760   3469621.2363   2   8   0.0403   0.0660   0.0415   0.0116  -0.0371  -0.0111   0.00    1.0
2173 197372.000    232977.5248  -5339306.2647   3469621.2366   2   8   0.0402   0.0654   0.0412   0.0116  -0.0368  -0.0112   0.00    1.0
2173 197373.000    232977.5261  -5339306.2566   3469621.2429   2   8   0.0400   0.0649   0.0410   0.0116  -0.0364  -0.0111   0.00    1.0
2173 197374.000    232977.5242  -5339306.2358   3469621.2418   2   8   0.0399   0.0644   0.0406   0.0117  -0.0361  -0.0113   0.00    1.0
2173 197375.000    232977.5205  -5339306.2118   3469621.2382   2   8   0.0396   0.0639   0.0403   0.0118  -0.0358  -0.0112   0.00    1.0
2173 197376.000    232977.5143  -5339306.1989   3469621.2314   2   8   0.0395   0.0634   0.0401   0.0118  -0.0354  -0.0113   0.00    1.0
2173 197377.000    232977.5109  -5339306.1801   3469621.2247   2   8   0.0394   0.0629   0.0398   0.0119  -0.0351  -0.0112   0.00    1.1
2173 197378.000    232977.5089  -5339306.1740   3469621.2210   2   8   0.0393   0.0625   0.0395   0.0119  -0.0348  -0.0111   0.00    1.1
2173 197379.000    232977.5037  -5339306.1637   3469621.2122   2   8   0.0391   0.0620   0.0394   0.0119  -0.0344  -0.0111   0.00    1.1
2173 197380.000    232977.5040  -5339306.1608   3469621.2093   2   8   0.0389   0.0615   0.0390   0.0121  -0.0341  -0.0113   0.00    1.1
2173 197381.000    232977.5028  -5339306.1590   3469621.2074   2   8   0.0388   0.0610   0.0388   0.0121  -0.0338  -0.0110   0.00    1.1
2173 197382.000    232977.5045  -5339306.1601   3469621.2068   2   8   0.0387   0.0606   0.0385   0.0121  -0.0335  -0.0110   0.00    1.1
2173 197383.000    232977.5051  -5339306.1586   3469621.2049   2   8   0.0385   0.0601   0.0383   0.0122  -0.0332  -0.0111   0.00    1.1
2173 197384.000    232977.5038  -5339306.1531   3469621.2036   2   8   0.0384   0.0597   0.0381   0.0122  -0.0329  -0.0111   0.00    1.1
2173 197385.000    232977.5016  -5339306.1499   3469621.2014   2   8   0.0383   0.0592   0.0379   0.0122  -0.0326  -0.0111   0.00    1.1
2173 197386.000    232977.5020  -5339306.1537   3469621.2017   2   8   0.0381   0.0588   0.0376   0.0123  -0.0323  -0.0110   0.00    1.1
2173 197387.000    232977.5039  -5339306.1538   3469621.2021   2   8   0.0380   0.0583   0.0374   0.0123  -0.0320  -0.0109   0.00    1.1
2173 197388.000    232977.5016  -5339306.1519   3469621.1978   2   8   0.0378   0.0579   0.0371   0.0124  -0.0317  -0.0108   0.00    1.1
2173 197389.000    232977.5019  -5339306.1575   3469621.1991   2   8   0.0377   0.0575   0.0370   0.0124  -0.0314  -0.0110   0.00    1.1
2173 197390.000    232977.5026  -5339306.1573   3469621.1975   2   8   0.0376   0.0571   0.0366   0.0125  -0.0311  -0.0107   0.00    1.1
2173 197391.000    232977.5029  -5339306.1478   3469621.1893   2   8   0.0374   0.0567   0.0366   0.0125  -0.0308  -0.0108   0.00    1.2
2173 197392.000    232977.5018  -5339306.1377   3469621.1850   2   8   0.0373   0.0563   0.0362   0.0126  -0.0306  -0.0108   0.00    1.2
2173 197393.000    232977.5003  -5339306.1299   3469621.1815   2   8   0.0372   0.0558   0.0360   0.0126  -0.0303  -0.0109   0.00    1.2
2173 197394.000    232977.5012  -5339306.1218   3469621.1777   2   8   0.0371   0.0554   0.0358   0.0126  -0.0300  -0.0109   0.00    1.2
2173 197395.000    232977.5012  -5339306.1186   3469621.1758   2   8   0.0370   0.0550   0.0356   0.0126  -0.0298  -0.0108   0.00    1.2
2173 197396.000    232977.5039  -5339306.1094   3469621.1734   2   8   0.0368   0.0547   0.0354   0.0126  -0.0295  -0.0107   0.00    1.2
2173 197397.000    232977.5011  -5339306.1079   3469621.1724   2   8   0.0367   0.0543   0.0352   0.0127  -0.0293  -0.0107   0.00    1.2
2173 197398.000    232977.4989  -5339306.0993   3469621.1717   2   8   0.0366   0.0539   0.0349   0.0127  -0.0290  -0.0106   0.00    1.2
2173 197399.000    232977.4977  -5339306.0917   3469621.1684   2   8   0.0365   0.0535   0.0347   0.0127  -0.0287  -0.0105   0.00    1.2
2173 197400.000    232977.4962  -5339306.0842   3469621.1622   2   8   0.0364   0.0531   0.0346   0.0127  -0.0285  -0.0107   0.00    1.2
2173 197401.000    232977.4948  -5339306.0822   3469621.1596   2   8   0.0363   0.0528   0.0342   0.0128  -0.0283  -0.0106   0.00    1.2
2173 197402.000    232977.4963  -5339306.0803   3469621.1632   2   8   0.0362   0.0524   0.0341   0.0128  -0.0280  -0.0107   0.00    1.3
2173 197403.000    232977.4959  -5339306.0823   3469621.1676   2   8   0.0361   0.0520   0.0339   0.0128  -0.0277  -0.0105   0.00    1.3
2173 197404.000    232977.4908  -5339306.0707   3469621.1611   2   8   0.0359   0.0517   0.0338   0.0129  -0.0275  -0.0106   0.00    1.3
2173 197405.000    232977.4915  -5339306.0673   3469621.1590   2   8   0.0358   0.0513   0.0336   0.0129  -0.0272  -0.0106   0.00    1.3
2173 197406.000    232977.4922  -5339306.0649   3469621.1595   2   8   0.0357   0.0510   0.0334   0.0129  -0.0270  -0.0106   0.00    1.3
2173 197407.000    232977.4918  -5339306.0595   3469621.1556   2   8   0.0356   0.0506   0.0332   0.0129  -0.0268  -0.0105   0.00    1.3
2173 197408.000    232977.4841  -5339306.0507   3469621.1531   2   8   0.0355   0.0503   0.0330   0.0129  -0.0266  -0.0105   0.00    1.3
2173 197409.000    232977.4831  -5339306.0507   3469621.1533   2   8   0.0354   0.0500   0.0328   0.0129  -0.0263  -0.0105   0.00    1.3
2173 197410.000    232977.4829  -5339306.0511   3469621.1542   2   8   0.0353   0.0496   0.0325   0.0129  -0.0261  -0.0103   0.00    1.3
2173 197411.000    232977.4850  -5339306.0514   3469621.1542   2   8   0.0352   0.0493   0.0324   0.0130  -0.0259  -0.0104   0.00    1.3
2173 197412.000    232977.4844  -5339306.0531   3469621.1565   2   8   0.0350   0.0490   0.0323   0.0130  -0.0257  -0.0103   0.00    1.4
2173 197413.000    232977.4852  -5339306.0533   3469621.1624   2   8   0.0349   0.0486   0.0321   0.0130  -0.0254  -0.0104   0.00    1.4
2173 197414.000    232977.4847  -5339306.0511   3469621.1674   2   8   0.0348   0.0483   0.0318   0.0130  -0.0253  -0.0103   0.00    1.4
2173 197415.000    232977.4837  -5339306.0384   3469621.1806   2   8   0.0347   0.0480   0.0318   0.0130  -0.0250  -0.0103   0.00    1.4
2173 197416.000    232977.4780  -5339306.0232   3469621.1759   2   8   0.0346   0.0477   0.0316   0.0130  -0.0248  -0.0102   0.00    1.4
2173 197417.000    232977.4742  -5339306.0049   3469621.1663   2   8   0.0345   0.0474   0.0314   0.0130  -0.0246  -0.0103   0.00    1.4
2173 197418.000    232977.4699  -5339305.9869   3469621.1542   2   8   0.0344   0.0471   0.0312   0.0131  -0.0244  -0.0101   0.00    1.5
2173 197419.000    232977.4652  -5339305.9762   3469621.1403   2   8   0.0343   0.0468   0.0309   0.0131  -0.0243  -0.0101   0.00    1.5
2173 197420.000    232977.4641  -5339305.9734   3469621.1364   2   8   0.0342   0.0465   0.0308   0.0131  -0.0241  -0.0101   0.00    1.5
2173 197421.000    232977.4625  -5339305.9677   3469621.1285   2   8   0.0342   0.0462   0.0308   0.0131  -0.0238  -0.0101   0.00    1.5
2173 197422.000    232977.4620  -5339305.9639   3469621.1241   2   8   0.0341   0.0459   0.0304   0.0131  -0.0236  -0.0100   0.00    1.5
2173 197423.000    232977.4632  -5339305.9608   3469621.1188   2   8   0.0339   0.0456   0.0304   0.0131  -0.0234  -0.0100   0.00    1.5
2173 197424.000    232977.4674  -5339305.9590   3469621.1157   2   8   0.0339   0.0453   0.0303   0.0131  -0.0233  -0.0101   0.00    1.5
2173 197425.000    232977.4695  -5339305.9476   3469621.1095   2   8   0.0337   0.0450   0.0301   0.0131  -0.0231  -0.0100   0.00    1.5
2173 197426.000    232977.4685  -5339305.9487   3469621.1069   2   8   0.0336   0.0448   0.0299   0.0132  -0.0229  -0.0100   0.00    1.5
2173 197427.000    232977.4698  -5339305.9437   3469621.1039   2   8   0.0335   0.0445   0.0298   0.0131  -0.0227  -0.0099   0.00    1.5
2173 197428.000    232977.4708  -5339305.9530   3469621.1031   2   8   0.0335   0.0442   0.0296   0.0131  -0.0225  -0.0099   0.00    1.5
2173 197429.000    232977.4693  -5339305.9593   3469621.1024   2   8   0.0334   0.0439   0.0295   0.0132  -0.0223  -0.0101   0.00    1.5
2173 197430.000    232977.4688  -5339305.9611   3469621.1037   2   8   0.0333   0.0437   0.0293   0.0131  -0.0222  -0.0098   0.00    1.5
2173 197431.000    232977.4682  -5339305.9695   3469621.1043   2   8   0.0332   0.0434   0.0291   0.0132  -0.0220  -0.0099   0.00    1.5
2173 197432.000    232977.4679  -5339305.9721   3469621.0985   2   8   0.0331   0.0431   0.0289   0.0131  -0.0218  -0.0100   0.00    1.6
2173 197433.000    232977.4642  -5339305.9751   3469621.0969   2   8   0.0331   0.0429   0.0288   0.0132  -0.0216  -0.0099   0.00    1.6
2173 197434.000    232977.4619  -5339305.9772   3469621.0936   2   8   0.0329   0.0426   0.0286   0.0132  -0.0214  -0.0098   0.00    1.6
2173 197435.000    232977.4615  -5339305.9778   3469621.0897   2   8   0.0328   0.0424   0.0286   0.0132  -0.0213  -0.0099   0.00    1.6
2173 197436.000    232977.4606  -5339305.9811   3469621.0841   2   8   0.0328   0.0421   0.0284   0.0132  -0.0211  -0.0098   0.00    1.6
2173 197437.000    232977.4627  -5339305.9797   3469621.0815   2   8   0.0327   0.0419   0.0283   0.0131  -0.0209  -0.0096   0.00    1.6
2173 197438.000    232977.4634  -5339305.9852   3469621.0813   2   8   0.0326   0.0416   0.0280   0.0132  -0.0208  -0.0095   0.00    1.6
2173 197439.000    232977.4630  -5339305.9883   3469621.0818   2   8   0.0325   0.0414   0.0280   0.0132  -0.0207  -0.0098   0.00    1.6
2173 197440.000    232977.4628  -5339305.9816   3469621.0793   2   8   0.0325   0.0411   0.0278   0.0132  -0.0205  -0.0096   0.00    1.6
2173 197441.000    232977.4636  -5339305.9776   3469621.0787   2   8   0.0323   0.0409   0.0276   0.0132  -0.0203  -0.0096   0.00    1.6
2173 197442.000    232977.4630  -5339305.9797   3469621.0790   2   8   0.0323   0.0407   0.0276   0.0132  -0.0201  -0.0096   0.00    1.6
2173 197443.000    232977.4632  -5339305.9723   3469621.0746   2   8   0.0322   0.0404   0.0273   0.0132  -0.0200  -0.0094   0.00    1.6
2173 197444.000    232977.4626  -5339305.9672   3469621.0725   2   8   0.0321   0.0402   0.0274   0.0132  -0.0199  -0.0095   0.00    1.6
2173 197445.000    232977.4636  -5339305.9731   3469621.0733   2   8   0.0320   0.0400   0.0272   0.0132  -0.0197  -0.0096   0.00    1.7
2173 197446.000    232977.4641  -5339305.9743   3469621.0728   2   8   0.0319   0.0397   0.0270   0.0132  -0.0196  -0.0094   0.00    1.7
2173 197447.000    232977.4640  -5339305.9728   3469621.0713   2   8   0.0318   0.0395   0.0269   0.0132  -0.0195  -0.0094   0.00    1.7
2173 197448.000    232977.4629  -5339305.9668   3469621.0650   2   8   0.0317   0.0393   0.0267   0.0132  -0.0193  -0.0093   0.00    1.7
2173 197449.000    232977.4621  -5339305.9626   3469621.0637   2   8   0.0317   0.0391   0.0265   0.0132  -0.0192  -0.0093   0.00    1.7
2173 197450.000    232977.4623  -5339305.9569   3469621.0607   2   8   0.0316   0.0389   0.0264   0.0132  -0.0190  -0.0094   0.00    1.7
2173 197451.000    232977.4633  -5339305.9568   3469621.0607   2   8   0.0315   0.0387   0.0263   0.0132  -0.0189  -0.0093   0.00    1.7
2173 197452.000    232977.4629  -5339305.9585   3469621.0636   2   8   0.0315   0.0384   0.0262   0.0132  -0.0188  -0.0093   0.00    1.7
2173 197453.000    232977.4645  -5339305.9528   3469621.0589   2   8   0.0314   0.0382   0.0261   0.0132  -0.0186  -0.0092   0.00    1.7
2173 197454.000    232977.4633  -5339305.9468   3469621.0535   2   8   0.0313   0.0380   0.0261   0.0132  -0.0185  -0.0093   0.00    1.7
2173 197455.000    232977.4610  -5339305.9438   3469621.0516   2   8   0.0312   0.0378   0.0259   0.0132  -0.0183  -0.0093   0.00    1.7
2173 197456.000    232977.4579  -5339305.9350   3469621.0386   2   8   0.0311   0.0376   0.0258   0.0132  -0.0182  -0.0093   0.00    1.7
2173 197457.000    232977.4526  -5339305.9279   3469621.0261   2   8   0.0311   0.0374   0.0257   0.0131  -0.0181  -0.0092   0.00    1.7
2173 197458.000    232977.4511  -5339305.9326   3469621.0211   2   8   0.0310   0.0372   0.0255   0.0132  -0.0180  -0.0091   0.00    1.8
2173 197459.000    232977.4539  -5339305.9348   3469621.0132   2   8   0.0309   0.0370   0.0254   0.0131  -0.0178  -0.0092   0.00    1.8
2173 197460.000    232977.4583  -5339305.9376   3469621.0095   2   8   0.0309   0.0368   0.0252   0.0131  -0.0177  -0.0092   0.00    1.8
2173 197461.000    232977.4595  -5339305.9437   3469621.0044   2   8   0.0308   0.0366   0.0252   0.0131  -0.0176  -0.0090   0.00    1.8
2173 197462.000    232977.4620  -5339305.9495   3469621.0019   2   8   0.0307   0.0364   0.0250   0.0131  -0.0175  -0.0089   0.00    1.8
2173 197463.000    232977.4626  -5339305.9520   3469621.0004   2   8   0.0306   0.0362   0.0250   0.0131  -0.0174  -0.0090   0.00    1.8
2173 197464.000    232977.4634  -5339305.9550   3469620.9975   2   8   0.0305   0.0361   0.0249   0.0131  -0.0172  -0.0090   0.00    1.8
2173 197465.000    232977.4646  -5339305.9484   3469620.9907   2   8   0.0305   0.0359   0.0248   0.0131  -0.0171  -0.0091   0.00    1.8
2173 197466.000    232977.4655  -5339305.9479   3469620.9888   2   8   0.0304   0.0357   0.0247   0.0131  -0.0170  -0.0089   0.00    1.8
2173 197467.000    232977.4676  -5339305.9385   3469620.9819   2   8   0.0304   0.0355   0.0246   0.0131  -0.0169  -0.0090   0.00    1.8
2173 197468.000    232977.4635  -5339305.9410   3469620.9791   2   8   0.0303   0.0353   0.0244   0.0131  -0.0167  -0.0091   0.00    1.8
2173 197469.000    232977.4633  -5339305.9424   3469620.9758   2   8   0.0302   0.0352   0.0243   0.0131  -0.0167  -0.0089   0.00    1.8
2173 197470.000    232977.4611  -5339305.9511   3469620.9744   2   8   0.0302   0.0350   0.0242   0.0131  -0.0165  -0.0089   0.00    1.8
2173 197471.000    232977.4614  -5339305.9492   3469620.9729   2   8   0.0301   0.0348   0.0241   0.0131  -0.0164  -0.0089   0.00    1.8
2173 197472.000    232977.4609  -5339305.9526   3469620.9732   2   8   0.0300   0.0346   0.0238   0.0131  -0.0163  -0.0089   0.00    1.8
2173 197473.000    232977.4617  -5339305.9557   3469620.9704   2   8   0.0299   0.0345   0.0239   0.0131  -0.0162  -0.0088   0.00    1.9
2173 197474.000    232977.4600  -5339305.9501   3469620.9722   2   8   0.0299   0.0343   0.0237   0.0131  -0.0161  -0.0086   0.00    1.9
2173 197475.000    232977.4613  -5339305.9536   3469620.9705   2   8   0.0298   0.0341   0.0237   0.0130  -0.0160  -0.0088   0.00    1.9
2173 197476.000    232977.4639  -5339305.9577   3469620.9662   2   8   0.0297   0.0339   0.0236   0.0130  -0.0159  -0.0086   0.00    1.9
2173 197477.000    232977.4645  -5339305.9576   3469620.9600   2   8   0.0297   0.0338   0.0236   0.0130  -0.0157  -0.0088   0.00    1.9
2173 197478.000    232977.4613  -5339305.9604   3469620.9554   2   8   0.0296   0.0336   0.0234   0.0130  -0.0157  -0.0087   0.00    1.9
2173 197479.000    232977.4605  -5339305.9612   3469620.9452   2   8   0.0296   0.0335   0.0233   0.0130  -0.0156  -0.0086   0.00    1.9
2173 197480.000    232977.4603  -5339305.9605   3469620.9370   2   8   0.0295   0.0333   0.0231   0.0130  -0.0155  -0.0084   0.00    1.9
2173 197481.000    232977.4629  -5339305.9639   3469620.9302   2   8   0.0294   0.0331   0.0229   0.0130  -0.0154  -0.0085   0.00    1.9
2173 197482.000    232977.4639  -5339305.9663   3469620.9250   2   8   0.0294   0.0330   0.0230   0.0130  -0.0153  -0.0085   0.00    1.9
2173 197483.000    232977.4658  -5339305.9666   3469620.9225   2   8   0.0293   0.0328   0.0229   0.0130  -0.0152  -0.0085   0.00    1.9
2173 197484.000    232977.4681  -5339305.9683   3469620.9207   2   8   0.0292   0.0327   0.0227   0.0130  -0.0152  -0.0085   0.00    1.9
2173 197485.000    232977.4701  -5339305.9625   3469620.9172   2   8   0.0292   0.0325   0.0227   0.0129  -0.0151  -0.0085   0.00    1.9
2173 197486.000    232977.4698  -5339305.9636   3469620.9132   2   8   0.0291   0.0324   0.0224   0.0130  -0.0149  -0.0084   0.00    1.9
2173 197487.000    232977.4701  -5339305.9598   3469620.9102   2   8   0.0291   0.0322   0.0224   0.0130  -0.0148  -0.0085   0.00    1.9
2173 197488.000    232977.4686  -5339305.9592   3469620.9064   2   8   0.0290   0.0321   0.0224   0.0130  -0.0147  -0.0084   0.00    1.9
2173 197489.000    232977.4645  -5339305.9577   3469620.8988   2   8   0.0289   0.0319   0.0222   0.0129  -0.0147  -0.0085   0.00    1.9
2173 197490.000    232977.4616  -5339305.9553   3469620.8927   2   8   0.0288   0.0318   0.0222   0.0129  -0.0145  -0.0084   0.00    1.9
2173 197491.000    232977.4583  -5339305.9474   3469620.8815   2   8   0.0288   0.0316   0.0220   0.0129  -0.0145  -0.0083   0.00    1.9
2173 197492.000    232977.4606  -5339305.9481   3469620.8734   2   8   0.0287   0.0315   0.0220   0.0129  -0.0144  -0.0084   0.00    1.9
2173 197493.000    232977.4605  -5339305.9518   3469620.8679   2   8   0.0287   0.0313   0.0220   0.0129  -0.0143  -0.0084   0.00    1.9
2173 197494.000    232977.4602  -5339305.9578   3469620.8627   2   8   0.0287   0.0312   0.0218   0.0129  -0.0142  -0.0083   0.00    1.9
2173 197495.000    232977.4436  -5339305.9910   3469620.8721   2   8   0.0286   0.0311   0.0218   0.0129  -0.0141  -0.0082   0.00    1.9
2173 197496.000    232977.4477  -5339306.0123   3469620.8759   2   8   0.0285   0.0309   0.0215   0.0129  -0.0141  -0.0082   0.00    1.9
2173 197497.000    232977.4511  -5339306.0272   3469620.8737   2   8   0.0285   0.0308   0.0216   0.0129  -0.0139  -0.0081   0.00    1.9
2173 197498.000    232977.4528  -5339306.0422   3469620.8744   2   8   0.0284   0.0306   0.0215   0.0128  -0.0139  -0.0083   0.00    1.9
2173 197499.000    232977.4550  -5339306.0552   3469620.8752   2   8   0.0284   0.0305   0.0213   0.0129  -0.0138  -0.0082   0.00    1.9
2173 197500.000    232977.4565  -5339306.0761   3469620.8764   2   8   0.0284   0.0304   0.0213   0.0128  -0.0137  -0.0082   0.00    1.9
2173 197501.000    232977.4576  -5339306.0891   3469620.8809   2   8   0.0283   0.0302   0.0212   0.0128  -0.0137  -0.0080   0.00    1.9
2173 197502.000    232977.4609  -5339306.1087   3469620.8831   2   8   0.0282   0.0301   0.0213   0.0128  -0.0136  -0.0082   0.00    1.8
2173 197503.000    232977.4627  -5339306.1216   3469620.8835   2   8   0.0281   0.0300   0.0211   0.0128  -0.0135  -0.0081   0.00    1.8
2173 197504.000    232977.4641  -5339306.1371   3469620.8882   2   8   0.0281   0.0299   0.0210   0.0128  -0.0134  -0.0080   0.00    1.8
2173 197505.000    232977.4659  -5339306.1511   3469620.8921   2   8   0.0280   0.0297   0.0208   0.0128  -0.0134  -0.0080   0.00    1.8
2173 197506.000    232977.4656  -5339306.1636   3469620.8938   2   8   0.0280   0.0296   0.0207   0.0128  -0.0132  -0.0079   0.00    1.8
2173 197507.000    232977.4661  -5339306.1741   3469620.8913   2   8   0.0279   0.0295   0.0207   0.0128  -0.0131  -0.0078   0.00    1.8
2173 197508.000    232977.4664  -5339306.1829   3469620.8882   2   8   0.0278   0.0294   0.0207   0.0128  -0.0131  -0.0080   0.00    1.8
2173 197509.000    232977.4650  -5339306.1989   3469620.8908   2   8   0.0278   0.0292   0.0207   0.0128  -0.0130  -0.0079   0.00    1.8
2173 197510.000    232977.4664  -5339306.2129   3469620.8915   2   8   0.0278   0.0291   0.0206   0.0127  -0.0130  -0.0080   0.00    1.7
2173 197511.000    232977.4703  -5339306.2292   3469620.8961   2   8   0.0277   0.0290   0.0203   0.0127  -0.0129  -0.0078   0.00    1.7
2173 197512.000    232977.4761  -5339306.2467   3469620.8993   2   8   0.0276   0.0289   0.0205   0.0127  -0.0128  -0.0079   0.00    1.7
2173 197513.000    232977.4763  -5339306.2607   3469620.9021   2   8   0.0275   0.0288   0.0203   0.0126  -0.0127  -0.0079   0.00    1.7
2173 197514.000    232977.4770  -5339306.2740   3469620.9054   2   8   0.0275   0.0287   0.0201   0.0127  -0.0127  -0.0078   0.00    1.7
2173 197515.000    232977.4776  -5339306.2809   3469620.9047   2   8   0.0275   0.0285   0.0201   0.0127  -0.0127  -0.0078   0.00    1.7
2173 197516.000    232977.4739  -5339306.2948   3469620.9031   2   8   0.0275   0.0284   0.0200   0.0127  -0.0126  -0.0079   0.00    1.7
2173 197517.000    232977.4726  -5339306.3070   3469620.9005   2   8   0.0273   0.0283   0.0201   0.0127  -0.0125  -0.0078   0.00    1.7
2173 197518.000    232977.4739  -5339306.3175   3469620.8978   2   8   0.0273   0.0282   0.0200   0.0127  -0.0124  -0.0078   0.00    1.6
2173 197519.000    232977.4749  -5339306.3261   3469620.8959   2   8   0.0273   0.0281   0.0200   0.0126  -0.0123  -0.0078   0.00    1.6
2173 197520.000    232977.4743  -5339306.3396   3469620.8910   2   8   0.0273   0.0280   0.0197   0.0127  -0.0124  -0.0076   0.00    1.6
2173 197521.000    232977.4765  -5339306.3481   3469620.8841   2   8   0.0272   0.0279   0.0197   0.0126  -0.0122  -0.0077   0.00    1.6
2173 197522.000    232977.4763  -5339306.3584   3469620.8788   2   8   0.0271   0.0278   0.0195   0.0126  -0.0123  -0.0073   0.00    1.6
2173 197523.000    232977.4782  -5339306.3668   3469620.8751   2   8   0.0270   0.0276   0.0196   0.0126  -0.0121  -0.0076   0.00    1.6
2173 197524.000    232977.4820  -5339306.3858   3469620.8707   2   8   0.0270   0.0275   0.0194   0.0126  -0.0121  -0.0077   0.00    1.5
2173 197525.000    232977.4827  -5339306.4063   3469620.8750   2   8   0.0270   0.0274   0.0193   0.0126  -0.0120  -0.0076   0.00    1.5
2173 197526.000    232977.4878  -5339306.4206   3469620.8773   2   8   0.0269   0.0273   0.0194   0.0126  -0.0120  -0.0076   0.00    1.5
2173 197527.000    232977.4959  -5339306.4330   3469620.8790   2   8   0.0269   0.0272   0.0192   0.0126  -0.0119  -0.0077   0.00    1.5
2173 197528.000    232977.4935  -5339306.4456   3469620.8801   2   8   0.0268   0.0271   0.0191   0.0125  -0.0119  -0.0074   0.00    1.5
2173 197529.000    232977.4950  -5339306.4548   3469620.8787   2   8   0.0267   0.0270   0.0191   0.0125  -0.0118  -0.0075   0.00    1.5
2173 197530.000    232977.4953  -5339306.4622   3469620.8766   2   8   0.0267   0.0269   0.0190   0.0125  -0.0117  -0.0075   0.00    1.5
2173 197531.000    232977.4946  -5339306.4743   3469620.8789   2   8   0.0267   0.0268   0.0188   0.0125  -0.0117  -0.0075   0.00    1.4
2173 197532.000    232977.4974  -5339306.4837   3469620.8792   2   8   0.0266   0.0267   0.0188   0.0125  -0.0116  -0.0072   0.00    1.4
2173 197533.000    232977.4970  -5339306.4896   3469620.8771   2   8   0.0266   0.0266   0.0188   0.0125  -0.0115  -0.0073   0.00    1.4
2173 197534.000    232977.4982  -5339306.5028   3469620.8775   2   8   0.0266   0.0265   0.0186   0.0125  -0.0115  -0.0074   0.00    1.4
2173 197535.000    232977.4983  -5339306.5109   3469620.8779   2   8   0.0265   0.0264   0.0188   0.0124  -0.0114  -0.0074   0.00    1.4
2173 197536.000    232977.5032  -5339306.5163   3469620.8743   2   8   0.0265   0.0263   0.0185   0.0124  -0.0115  -0.0073   0.00    1.4
2173 197537.000    232977.5026  -5339306.5285   3469620.8714   2   8   0.0264   0.0262   0.0185   0.0124  -0.0113  -0.0074   0.00    1.4
2173 197538.000    232977.5080  -5339306.5386   3469620.8710   2   8   0.0264   0.0261   0.0185   0.0124  -0.0113  -0.0075   0.00    1.3
2173 197539.000    232977.5108  -5339306.5500   3469620.8725   2   8   0.0264   0.0260   0.0186   0.0124  -0.0112  -0.0073   0.00    1.3
2173 197540.000    232977.5122  -5339306.5567   3469620.8697   2   8   0.0263   0.0259   0.0184   0.0124  -0.0112  -0.0073   0.00    1.3
2173 197541.000    232977.5143  -5339306.5688   3469620.8727   2   8   0.0262   0.0258   0.0182   0.0124  -0.0112  -0.0072   0.00    1.3
2173 197542.000    232977.5142  -5339306.5791   3469620.8735   2   8   0.0261   0.0258   0.0183   0.0124  -0.0111  -0.0074   0.00    1.3
2173 197543.000    232977.5139  -5339306.5818   3469620.8700   2   8   0.0262   0.0257   0.0181   0.0123  -0.0110  -0.0074   0.00    1.3
2173 197544.000    232977.5119  -5339306.5892   3469620.8688   2   8   0.0261   0.0256   0.0182   0.0124  -0.0110  -0.0072   0.00    1.3
2173 197545.000    232977.5132  -5339306.5988   3469620.8690   2   8   0.0261   0.0255   0.0180   0.0123  -0.0110  -0.0071   0.00    1.3
2173 197546.000    232977.5125  -5339306.6034   3469620.8638   2   8   0.0260   0.0254   0.0181   0.0123  -0.0108  -0.0070   0.00    1.3
2173 197547.000    232977.5124  -5339306.6064   3469620.8580   2   8   0.0259   0.0253   0.0180   0.0123  -0.0108  -0.0072   0.00    1.2
2173 197548.000    232977.5141  -5339306.6134   3469620.8536   2   8   0.0260   0.0252   0.0179   0.0123  -0.0108  -0.0070   0.00    1.2
2173 197549.000    232977.5118  -5339306.6260   3469620.8525   2   8   0.0258   0.0251   0.0179   0.0123  -0.0107  -0.0072   0.00    1.2
2173 197550.000    232977.5140  -5339306.6319   3469620.8467   2   8   0.0259   0.0251   0.0178   0.0123  -0.0107  -0.0071   0.00    1.2
2173 197551.000    232977.5136  -5339306.6440   3469620.8434   2   8   0.0258   0.0250   0.0176   0.0123  -0.0107  -0.0070   0.00    1.2
2173 197552.000    232977.5159  -5339306.6497   3469620.8401   2   8   0.0257   0.0249   0.0177   0.0122  -0.0106  -0.0071   0.00    1.2
2173 197553.000    232977.5197  -5339306.6609   3469620.8389   2   8   0.0257   0.0248   0.0175   0.0123  -0.0106  -0.0070   0.00    1.2
2173 197554.000    232977.5250  -5339306.6659   3469620.8389   2   8   0.0257   0.0247   0.0176   0.0122  -0.0104  -0.0072   0.00    1.1
2173 197555.000    232977.5271  -5339306.6735   3469620.8416   2   8   0.0256   0.0246   0.0175   0.0123  -0.0105  -0.0070   0.00    1.1
2173 197556.000    232977.5263  -5339306.6871   3469620.8435   2   8   0.0256   0.0246   0.0176   0.0122  -0.0104  -0.0070   0.00    1.1
2173 197557.000    232977.5259  -5339306.6891   3469620.8401   2   8   0.0255   0.0245   0.0173   0.0122  -0.0104  -0.0067   0.00    1.1
2173 197558.000    232977.5231  -5339306.6940   3469620.8375   2   8   0.0255   0.0244   0.0174   0.0122  -0.0104  -0.0070   0.00    1.1
2173 197559.000    232977.5239  -5339306.6935   3469620.8305   2   8   0.0254   0.0243   0.0173   0.0122  -0.0103  -0.0070   0.00    1.1
2173 197560.000    232977.5227  -5339306.6982   3469620.8246   2   8   0.0253   0.0242   0.0171   0.0122  -0.0103  -0.0070   0.00    1.1
2173 197561.000    232977.5228  -5339306.7050   3469620.8232   2   8   0.0254   0.0241   0.0171   0.0122  -0.0103  -0.0068   0.00    1.1
2173 197562.000    232977.5255  -5339306.7124   3469620.8228   2   8   0.0253   0.0241   0.0172   0.0121  -0.0101  -0.0069   0.00    1.1
2173 197563.000    232977.5298  -5339306.7265   3469620.8247   2   8   0.0253   0.0240   0.0169   0.0122  -0.0101  -0.0068   0.00    1.0
2173 197564.000    232977.5293  -5339306.7344   3469620.8229   2   8   0.0252   0.0239   0.0169   0.0121  -0.0101  -0.0065   0.00    1.0
2173 197565.000    232977.5299  -5339306.7378   3469620.8212   2   8   0.0251   0.0239   0.0169   0.0121  -0.0100  -0.0067   0.00    1.0
2173 197566.000    232977.5294  -5339306.7474   3469620.8215   2   8   0.0251   0.0238   0.0167   0.0121  -0.0100  -0.0068   0.00    1.0
2173 197567.000    232977.5349  -5339306.7602   3469620.8233   2   8   0.0251   0.0237   0.0169   0.0121  -0.0100  -0.0067   0.00    1.0
2173 197568.000    232977.5371  -5339306.7649   3469620.8222   2   8   0.0250   0.0236   0.0167   0.0121  -0.0100  -0.0066   0.00    1.0
2173 197569.000    232977.5377  -5339306.7716   3469620.8211   2   8   0.0251   0.0235   0.0168   0.0120  -0.0099  -0.0066   0.00    1.0
2173 197570.000    232977.5399  -5339306.7812   3469620.8214   2   8   0.0249   0.0235   0.0167   0.0121  -0.0099  -0.0065   0.00    1.0
2173 197571.000    232977.5400  -5339306.7862   3469620.8226   2   8   0.0250   0.0234   0.0166   0.0121  -0.0099  -0.0068   0.00    1.0
2173 197572.000    232977.5406  -5339306.7958   3469620.8244   2   8   0.0249   0.0233   0.0164   0.0120  -0.0098  -0.0066   0.00    1.0
2173 197573.000    232977.5466  -5339306.8055   3469620.8271   2   8   0.0249   0.0233   0.0164   0.0120  -0.0098  -0.0065   0.00    1.1
2173 197574.000    232977.5506  -5339306.8089   3469620.8295   2   8   0.0248   0.0232   0.0164   0.0120  -0.0097  -0.0065   0.00    1.1
2173 197575.000    232977.5444  -5339306.8292   3469620.8244   2   8   0.0248   0.0231   0.0163   0.0120  -0.0097  -0.0067   0.00    1.1
2173 197576.000    232977.5443  -5339306.8294   3469620.8226   2   8   0.0248   0.0231   0.0165   0.0120  -0.0097  -0.0067   0.00    1.1
2173 197577.000    232977.5414  -5339306.8306   3469620.8200   2   8   0.0247   0.0230   0.0162   0.0119  -0.0097  -0.0066   0.00    1.1
2173 197578.000    232977.5407  -5339306.8269   3469620.8159   2   8   0.0247   0.0229   0.0162   0.0119  -0.0096  -0.0066   0.00    1.1
2173 197579.000    232977.5369  -5339306.8292   3469620.8095   2   8   0.0247   0.0228   0.0162   0.0119  -0.0096  -0.0065   0.00    1.1
2173 197580.000    232977.5424  -5339306.8120   3469620.8065   2   8   0.0245   0.0228   0.0161   0.0120  -0.0095  -0.0063   0.00    1.1
2173 197581.000    232977.5460  -5339306.8148   3469620.8048   2   8   0.0245   0.0227   0.0162   0.0119  -0.0094  -0.0065   0.00    1.1
2173 197582.000    232977.5456  -5339306.8213   3469620.8019   2   8   0.0245   0.0226   0.0161   0.0119  -0.0095  -0.0065   0.00    1.1
2173 197583.000    232977.5466  -5339306.8294   3469620.8021   2   8   0.0245   0.0226   0.0161   0.0119  -0.0094  -0.0065   0.00    1.1
2173 197584.000    232977.5500  -5339306.8342   3469620.8029   2   8   0.0245   0.0225   0.0159   0.0119  -0.0094  -0.0063   0.00    1.2
2173 197585.000    232977.5518  -5339306.8398   3469620.8019   2   8   0.0244   0.0224   0.0159   0.0119  -0.0094  -0.0065   0.00    1.2
2173 197586.000    232977.5517  -5339306.8460   3469620.8015   2   8   0.0244   0.0224   0.0160   0.0118  -0.0093  -0.0066   0.00    1.2
2173 197587.000    232977.5531  -5339306.8501   3469620.8011   2   8   0.0243   0.0223   0.0158   0.0119  -0.0093  -0.0064   0.00    1.2
2173 197588.000    232977.5541  -5339306.8574   3469620.8036   2   8   0.0244   0.0222   0.0159   0.0118  -0.0094  -0.0064   0.00    1.2
2173 197589.000    232977.5557  -5339306.8649   3469620.8029   2   8   0.0243   0.0222   0.0157   0.0118  -0.0093  -0.0064   0.00    1.2
2173 197590.000    232977.5575  -5339306.8712   3469620.8031   2   8   0.0243   0.0221   0.0156   0.0118  -0.0093  -0.0063   0.00    1.2
2173 197591.000    232977.5601  -5339306.8809   3469620.8048   2   8   0.0241   0.0221   0.0156   0.0118  -0.0091  -0.0064   0.00    1.2
2173 197592.000    232977.5609  -5339306.8811   3469620.8010   2   8   0.0241   0.0220   0.0154   0.0118  -0.0092  -0.0063   0.00    1.2
2173 197593.000    232977.5599  -5339306.8794   3469620.7943   2   8   0.0241   0.0219   0.0154   0.0118  -0.0092  -0.0063   0.00    1.2
2173 197594.000    232977.5628  -5339306.8823   3469620.7921   2   8   0.0240   0.0219   0.0156   0.0117  -0.0090  -0.0062   0.00    1.2
2173 197595.000    232977.5693  -5339306.9001   3469620.8040   2   8   0.0242   0.0218   0.0154   0.0117  -0.0091  -0.0063   0.00    1.2
2173 197596.000    232977.5720  -5339306.8939   3469620.8015   2   8   0.0240   0.0218   0.0155   0.0117  -0.0091  -0.0062   0.00    1.2
2173 197597.000    232977.5750  -5339306.9031   3469620.8043   2   8   0.0240   0.0217   0.0152   0.0117  -0.0090  -0.0063   0.00    1.2
2173 197598.000    232977.5759  -5339306.9075   3469620.8007   2   8   0.0239   0.0217   0.0153   0.0117  -0.0089  -0.0062   0.00    1.2
2173 197599.000    232977.5732  -5339306.9137   3469620.7993   2   8   0.0239   0.0216   0.0153   0.0117  -0.0089  -0.0061   0.00    1.2
2173 197600.000    232977.5732  -5339306.9199   3469620.8010   2   8   0.0238   0.0215   0.0151   0.0117  -0.0090  -0.0061   0.00    1.2
2173 197601.000    232977.5748  -5339306.9237   3469620.8010   2   8   0.0239   0.0214   0.0151   0.0117  -0.0090  -0.0062   0.00    1.2
2173 197602.000    232977.5747  -5339306.9313   3469620.8008   2   8   0.0238   0.0214   0.0152   0.0117  -0.0089  -0.0061   0.00    1.2
2173 197603.000    232977.5769  -5339306.9378   3469620.8004   2   8   0.0238   0.0214   0.0150   0.0117  -0.0089  -0.0061   0.00    1.2
2173 197604.000    232977.5795  -5339306.9431   3469620.8023   2   8   0.0237   0.0213   0.0152   0.0117  -0.0087  -0.0061   0.00    1.2
2173 197605.000    232977.5815  -5339306.9518   3469620.8032   2   8   0.0237   0.0213   0.0149   0.0116  -0.0087  -0.0061   0.00    1.2
2173 197606.000    232977.5816  -5339306.9561   3469620.8050   2   8   0.0236   0.0212   0.0150   0.0116  -0.0088  -0.0060   0.00    1.2
2173 197607.000    232977.5822  -5339306.9576   3469620.8020   2   8   0.0237   0.0211   0.0150   0.0117  -0.0087  -0.0061   0.00    1.2
2173 197608.000    232977.5833  -5339306.9603   3469620.8002   2   8   0.0236   0.0211   0.0149   0.0116  -0.0087  -0.0061   0.00    1.2
2173 197609.000    232977.5804  -5339306.9615   3469620.7976   2   8   0.0235   0.0210   0.0147   0.0116  -0.0087  -0.0059   0.00    1.2
2173 197610.000    232977.5811  -5339306.9611   3469620.7942   2   8   0.0235   0.0210   0.0149   0.0116  -0.0088  -0.0059   0.00    1.2
2173 197611.000    232977.5822  -5339306.9622   3469620.7936   2   8   0.0235   0.0209   0.0146   0.0116  -0.0087  -0.0057   0.00    1.2
2173 197612.000    232977.5829  -5339306.9653   3469620.7941   2   8   0.0235   0.0209   0.0146   0.0116  -0.0087  -0.0061   0.00    1.2
2173 197613.000    232977.5832  -5339306.9675   3469620.7896   2   8   0.0235   0.0208   0.0146   0.0116  -0.0087  -0.0059   0.00    1.2
2173 197614.000    232977.5868  -5339306.9711   3469620.7923   2   8   0.0234   0.0208   0.0146   0.0115  -0.0086  -0.0061   0.00    1.2
2173 197615.000    232977.5854  -5339306.9708   3469620.7896   2   8   0.0234   0.0207   0.0145   0.0115  -0.0085  -0.0059   0.00    1.2
2173 197616.000    232977.5845  -5339306.9750   3469620.7895   2   8   0.0233   0.0207   0.0146   0.0115  -0.0085  -0.0058   0.00    1.2
2173 197617.000    232977.5836  -5339306.9817   3469620.7934   2   8   0.0233   0.0206   0.0145   0.0115  -0.0086  -0.0057   0.00    1.2
2173 197618.000    232977.5832  -5339306.9847   3469620.7965   2   8   0.0233   0.0206   0.0145   0.0115  -0.0085  -0.0058   0.00    1.2
2173 197619.000    232977.5850  -5339306.9878   3469620.7963   2   8   0.0232   0.0205   0.0145   0.0115  -0.0085  -0.0058   0.00    1.2
2173 197620.000    232977.5829  -5339306.9921   3469620.7967   2   8   0.0233   0.0204   0.0144   0.0115  -0.0085  -0.0060   0.00    1.2
2173 197621.000    232977.5841  -5339306.9911   3469620.7973   2   8   0.0232   0.0204   0.0144   0.0114  -0.0085  -0.0059   0.00    1.2
2173 197622.000    232977.5842  -5339306.9880   3469620.7972   2   8   0.0231   0.0204   0.0145   0.0114  -0.0083  -0.0059   0.00    1.2
2173 197623.000    232977.5828  -5339306.9879   3469620.7930   2   8   0.0231   0.0203   0.0143   0.0114  -0.0084  -0.0059   0.00    1.2
2173 197624.000    232977.5825  -5339306.9867   3469620.7913   2   8   0.0230   0.0202   0.0141   0.0115  -0.0084  -0.0056   0.00    1.2
2173 197625.000    232977.5823  -5339306.9891   3469620.7889   2   8   0.0230   0.0202   0.0142   0.0114  -0.0082  -0.0058   0.00    1.2
2173 197626.000    232977.5833  -5339306.9886   3469620.7880   2   8   0.0230   0.0201   0.0141   0.0114  -0.0084  -0.0057   0.00    1.2
2173 197627.000    232977.5819  -5339306.9950   3469620.7844   2   8   0.0229   0.0201   0.0142   0.0114  -0.0083  -0.0055   0.00    1.2
2173 197628.000    232977.5784  -5339306.9915   3469620.7812   2   8   0.0228   0.0201   0.0142   0.0114  -0.0083  -0.0056   0.00    1.2
2173 197629.000    232977.5781  -5339306.9963   3469620.7824   2   8   0.0229   0.0200   0.0140   0.0113  -0.0083  -0.0056   0.00    1.2
2173 197630.000    232977.5805  -5339307.0022   3469620.7821   2   8   0.0229   0.0199   0.0140   0.0113  -0.0083  -0.0057   0.00    1.2
2173 197631.000    232977.5783  -5339306.9988   3469620.7800   2   8   0.0228   0.0199   0.0140   0.0113  -0.0082  -0.0058   0.00    1.2
2173 197632.000    232977.5782  -5339307.0028   3469620.7819   2   8   0.0229   0.0199   0.0140   0.0113  -0.0082  -0.0058   0.00    1.2
2173 197633.000    232977.5784  -5339307.0061   3469620.7767   2   8   0.0228   0.0198   0.0136   0.0113  -0.0083  -0.0056   0.00    1.2
2173 197634.000    232977.5764  -5339307.0056   3469620.7733   2   8   0.0227   0.0198   0.0139   0.0113  -0.0082  -0.0057   0.00    1.2
2173 197635.000    232977.5770  -5339307.0091   3469620.7710   2   8   0.0227   0.0197   0.0137   0.0113  -0.0082  -0.0058   0.00    1.2
2173 197636.000    232977.5753  -5339307.0096   3469620.7653   2   8   0.0228   0.0197   0.0139   0.0113  -0.0081  -0.0057   0.00    1.2
2173 197637.000    232977.5760  -5339307.0113   3469620.7614   2   8   0.0226   0.0196   0.0139   0.0112  -0.0081  -0.0055   0.00    1.2
2173 197638.000    232977.5797  -5339307.0196   3469620.7630   2   8   0.0226   0.0196   0.0138   0.0112  -0.0081  -0.0055   0.00    1.2
2173 197639.000    232977.5814  -5339307.0204   3469620.7620   2   8   0.0226   0.0196   0.0139   0.0113  -0.0080  -0.0055   0.00    1.2
2173 197640.000    232977.5821  -5339307.0198   3469620.7564   2   8   0.0226   0.0195   0.0136   0.0112  -0.0081  -0.0053   0.00    1.2
2173 197641.000    232977.5776  -5339307.0213   3469620.7536   2   8   0.0226   0.0194   0.0135   0.0112  -0.0081  -0.0054   0.00    1.3
2173 197642.000    232977.5755  -5339307.0249   3469620.7489   2   8   0.0226   0.0194   0.0137   0.0111  -0.0080  -0.0055   0.00    1.3
2173 197643.000    232977.5764  -5339307.0234   3469620.7438   2   8   0.0225   0.0194   0.0135   0.0112  -0.0081  -0.0054   0.00    1.3
2173 197644.000    232977.5730  -5339307.0305   3469620.7418   2   8   0.0225   0.0193   0.0135   0.0112  -0.0081  -0.0056   0.00    1.3
2173 197645.000    232977.5749  -5339307.0320   3469620.7377   2   8   0.0224   0.0193   0.0133   0.0111  -0.0080  -0.0056   0.00    1.3
2173 197646.000    232977.5760  -5339307.0461   3469620.7392   2   8   0.0224   0.0192   0.0135   0.0111  -0.0080  -0.0056   0.00    1.3
2173 197647.000    232977.5814  -5339307.0483   3469620.7381   2   8   0.0223   0.0192   0.0136   0.0112  -0.0079  -0.0054   0.00    1.3
2173 197648.000    232977.5813  -5339307.0575   3469620.7444   2   8   0.0223   0.0192   0.0132   0.0112  -0.0079  -0.0056   0.00    1.3
2173 197649.000    232977.5824  -5339307.0601   3469620.7426   2   8   0.0223   0.0191   0.0134   0.0111  -0.0080  -0.0056   0.00    1.3
2173 197650.000    232977.5827  -5339307.0666   3469620.7432   2   8   0.0223   0.0191   0.0133   0.0111  -0.0080  -0.0055   0.00    1.3
2173 197651.000    232977.5835  -5339307.0624   3469620.7413   2   8   0.0222   0.0191   0.0134   0.0111  -0.0078  -0.0055   0.00    1.3
2173 197652.000    232977.5822  -5339307.0668   3469620.7390   2   8   0.0222   0.0190   0.0131   0.0110  -0.0079  -0.0055   0.00    1.3
2173 197653.000    232977.5786  -5339307.0665   3469620.7349   2   8   0.0222   0.0189   0.0131   0.0110  -0.0079  -0.0053   0.00    1.3
2173 197654.000    232977.5791  -5339307.0709   3469620.7356   2   8   0.0222   0.0189   0.0133   0.0111  -0.0078  -0.0056   0.00    1.3
2173 197655.000    232977.5769  -5339307.0792   3469620.7388   2   8   0.0221   0.0189   0.0131   0.0112  -0.0079  -0.0051   0.00    1.3
2173 197656.000    232977.5802  -5339307.0864   3469620.7387   2   8   0.0221   0.0189   0.0131   0.0110  -0.0078  -0.0051   0.00    1.3
2173 197657.000    232977.5913  -5339307.0916   3469620.7367   2   8   0.0221   0.0188   0.0131   0.0110  -0.0077  -0.0056   0.00    1.3
2173 197658.000    232977.5943  -5339307.0841   3469620.7380   2   8   0.0221   0.0188   0.0132   0.0110  -0.0077  -0.0052   0.00    1.3
2173 197659.000    232977.5957  -5339307.0941   3469620.7405   2   8   0.0221   0.0187   0.0131   0.0110  -0.0077  -0.0054   0.00    1.3
2173 197660.000    232977.5962  -5339307.0902   3469620.7445   2   8   0.0220   0.0187   0.0131   0.0110  -0.0077  -0.0053   0.00    1.3
2173 197661.000    232977.5955  -5339307.0956   3469620.7451   2   8   0.0219   0.0187   0.0129   0.0110  -0.0077  -0.0050   0.00    1.3
2173 197662.000    232977.5937  -5339307.0884   3469620.7400   2   8   0.0220   0.0186   0.0132   0.0109  -0.0076  -0.0054   0.00    1.3
2173 197663.000    232977.5954  -5339307.0704   3469620.7123   2   8   0.0220   0.0186   0.0130   0.0110  -0.0077  -0.0052   0.00    1.3
2173 197664.000    232977.5954  -5339307.0665   3469620.7151   2   8   0.0220   0.0185   0.0130   0.0109  -0.0077  -0.0054   0.00    1.3
2173 197665.000    232977.5955  -5339307.0611   3469620.7182   2   8   0.0219   0.0185   0.0127   0.0110  -0.0075  -0.0054   0.00    1.3
2173 197666.000    232977.5945  -5339307.0539   3469620.7212   2   8   0.0219   0.0185   0.0127   0.0110  -0.0077  -0.0052   0.00    1.3
2173 197667.000    232977.5954  -5339307.0526   3469620.7249   2   8   0.0218   0.0184   0.0129   0.0110  -0.0077  -0.0050   0.00    1.3
2173 197668.000    232977.5956  -5339307.0463   3469620.7242   2   8   0.0218   0.0184   0.0127   0.0109  -0.0077  -0.0052   0.00    1.3
2173 197669.000    232977.5986  -5339307.0403   3469620.7265   2   8   0.0218   0.0184   0.0127   0.0109  -0.0077  -0.0052   0.00    1.3
2173 197670.000    232977.5985  -5339307.0399   3469620.7316   2   8   0.0217   0.0183   0.0127   0.0108  -0.0077  -0.0053   0.00    1.3
2173 197671.000    232977.6019  -5339307.0340   3469620.7313   2   8   0.0218   0.0183   0.0127   0.0109  -0.0076  -0.0051   0.00    1.3
2173 197672.000    232977.5993  -5339307.0350   3469620.7348   2   8   0.0218   0.0182   0.0126   0.0109  -0.0075  -0.0052   0.00    1.3
2173 197673.000    232977.5988  -5339307.0336   3469620.7385   2   8   0.0217   0.0182   0.0125   0.0108  -0.0076  -0.0052   0.00    1.3
