% program   : rnx2rtkp ver.2.4.3 b31
% inp file  : ngs/21_08_31_03_04_49_tn31.obs
% inp file  : ngs/21_08_31_03_04_49_tn31_SW.obs
% inp file  : ngs/21_08_31_03_04_49_brdc.nav
% obs start : 2021/08/31 03:00:00.0 GPST (week2173 183600.0s)
% obs end   : 2021/08/31 03:59:59.0 GPST (week2173 187199.0s)
% ref pos   :   284582.8531  -5205312.1833   3662560.2926
%
% (x/y/z-ecef=WGS84,Q=1:fix,2:float,3:sbas,4:dgps,5:single,6:ppp,ns=# of satellites)
%  GPST              x-ecef(m)      y-ecef(m)      z-ecef(m)   Q  ns   sdx(m)   sdy(m)   sdz(m)  sdxy(m)  sdyz(m)  sdzx(m) age(s)  ratio
2173 183864.000    281408.9183  -5147272.4859   3743528.8474   1   6   0.0304   0.0759   0.0678  -0.0129  -0.0628  -0.0222 -30.00    6.5
2173 183865.000    281408.9190  -5147272.4794   3743528.8415   1   6   0.0294   0.0734   0.0655  -0.0125  -0.0607  -0.0215 -29.00    6.6
2173 183866.000    281408.9192  -5147272.4821   3743528.8423   1   6   0.0285   0.0710   0.0633  -0.0121  -0.0587  -0.0208 -28.00   10.9
2173 183867.000    281408.9185  -5147272.4815   3743528.8404   1   6   0.0275   0.0685   0.0611  -0.0117  -0.0566  -0.0200 -27.00   11.8
2173 183868.000    281408.9199  -5147272.4826   3743528.8443   1   6   0.0265   0.0661   0.0589  -0.0112  -0.0546  -0.0193 -26.00   11.0
2173 183869.000    281408.9197  -5147272.4815   3743528.8418   1   6   0.0255   0.0636   0.0567  -0.0108  -0.0526  -0.0186 -25.00    9.1
2173 183870.000    281408.9195  -5147272.4815   3743528.8407   1   6   0.0245   0.0612   0.0545  -0.0104  -0.0505  -0.0179 -24.00    8.4
2173 183871.000    281408.9208  -5147272.4772   3743528.8414   1   6   0.0236   0.0587   0.0523  -0.0100  -0.0485  -0.0172 -23.00    8.4
2173 183872.000    281408.9217  -5147272.4747   3743528.8360   1   6   0.0226   0.0563   0.0502  -0.0095  -0.0465  -0.0165 -22.00    8.5
2173 183873.000    281408.9205  -5147272.4705   3743528.8369   1   6   0.0216   0.0538   0.0480  -0.0091  -0.0444  -0.0158 -21.00    8.0
2173 183874.000    281408.9222  -5147272.4679   3743528.8328   1   6   0.0207   0.0514   0.0458  -0.0087  -0.0424  -0.0151 -20.00    7.9
2173 183875.000    281408.9199  -5147272.4683   3743528.8357   1   6   0.0197   0.0490   0.0437  -0.0082  -0.0404  -0.0144 -19.00    7.3
2173 183876.000    281408.9214  -5147272.4640   3743528.8280   1   6   0.0187   0.0465   0.0415  -0.0078  -0.0384  -0.0137 -18.00    6.7
2173 183877.000    281408.9184  -5147272.4664   3743528.8311   1   6   0.0178   0.0441   0.0394  -0.0073  -0.0364  -0.0130 -17.00    6.7
2173 183878.000    281408.9199  -5147272.4575   3743528.8263   1   6   0.0168   0.0417   0.0372  -0.0069  -0.0345  -0.0124 -16.00    6.5
2173 183879.000    281408.9193  -5147272.4678   3743528.8344   1   6   0.0158   0.0394   0.0351  -0.0064  -0.0325  -0.0117 -15.00    6.2
2173 183880.000    281408.9173  -5147272.4596   3743528.8270   1   6   0.0149   0.0370   0.0330  -0.0059  -0.0306  -0.0110 -14.00    5.8
2173 183881.000    281408.9186  -5147272.4585   3743528.8251   1   6   0.0139   0.0346   0.0309  -0.0054  -0.0286  -0.0104 -13.00    5.4
2173 183882.000    281408.9166  -5147272.4627   3743528.8286   1   6   0.0130   0.0323   0.0289  -0.0050  -0.0267  -0.0097 -12.00    5.0
2173 183883.000    281408.9151  -5147272.4577   3743528.8265   1   6   0.0121   0.0300   0.0269  -0.0044  -0.0248  -0.0091 -11.00    4.6
2173 183884.000    281408.9171  -5147272.4599   3743528.8243   1   6   0.0112   0.0278   0.0249  -0.0039  -0.0230  -0.0084 -10.00    4.2
2173 183885.000    281408.9175  -5147272.4579   3743528.8248   1   6   0.0104   0.0255   0.0229  -0.0034  -0.0211  -0.0078  -9.00    3.9
2173 183886.000    281408.9160  -5147272.4615   3743528.8250   1   6   0.0096   0.0234   0.0210  -0.0028  -0.0194  -0.0072  -8.00    3.6
2173 183887.000    281408.9169  -5147272.4594   3743528.8213   1   6   0.0087   0.0213   0.0192  -0.0021  -0.0177  -0.0067  -7.00    3.2
2173 183888.000    281408.9453  -5147272.2206   3743528.6033   2   6   0.1019   0.2445   0.2256   0.0474  -0.2064  -0.0895  -6.00    3.0
2173 183889.000    281408.9355  -5147272.2050   3743528.5986   2   6   0.0999   0.2395   0.2210   0.0464  -0.2021  -0.0877  -5.00    2.7
2173 183890.000    281408.9453  -5147272.2057   3743528.5911   2   6   0.0980   0.2348   0.2166   0.0454  -0.1981  -0.0859  -4.00    2.4
2173 183891.000    281408.9469  -5147272.2058   3743528.5863   2   6   0.0962   0.2303   0.2124   0.0445  -0.1942  -0.0843  -3.00    2.0
2173 183892.000    281408.9456  -5147272.1961   3743528.5798   2   6   0.0945   0.2261   0.2085   0.0436  -0.1906  -0.0828  -2.00    1.7
2173 183893.000    281408.9429  -5147272.1806   3743528.5682   2   6   0.0929   0.2221   0.2047   0.0427  -0.1872  -0.0813  -1.00    1.5
2173 183894.000    281408.9417  -5147272.1678   3743528.5622   2   6   0.0914   0.2183   0.2012   0.0418  -0.1839  -0.0799   0.00    1.4
2173 183895.000    281408.9328  -5147272.1619   3743528.5639   2   6   0.0899   0.2147   0.1978   0.0411  -0.1808  -0.0786   0.00    1.3
2173 183896.000    281408.9281  -5147272.1720   3743528.5691   2   6   0.0886   0.2113   0.1946   0.0403  -0.1778  -0.0773   0.00    1.3
2173 183897.000    281408.9311  -5147272.1692   3743528.5643   2   6   0.0873   0.2080   0.1915   0.0395  -0.1750  -0.0761   0.00    1.2
2173 183898.000    281408.9289  -5147272.1668   3743528.5515   2   6   0.0860   0.2048   0.1886   0.0388  -0.1723  -0.0750   0.00    1.2
2173 183899.000    281408.9322  -5147272.1599   3743528.5449   2   6   0.0848   0.2018   0.1857   0.0381  -0.1696  -0.0739   0.00    1.1
2173 183900.000    281408.9320  -5147272.1468   3743528.5325   2   6   0.0836   0.1989   0.1830   0.0374  -0.1671  -0.0728   0.00    1.1
2173 183901.000    281408.9272  -5147272.1581   3743528.5410   2   6   0.0826   0.1961   0.1803   0.0368  -0.1646  -0.0718   0.00    1.1
2173 183902.000    281408.9295  -5147272.1503   3743528.5370   2   6   0.0815   0.1934   0.1778   0.0362  -0.1623  -0.0708   0.00    1.1
2173 183903.000    281408.9305  -5147272.1509   3743528.5404   2   6   0.0804   0.1907   0.1753   0.0356  -0.1600  -0.0698   0.00    1.0
2173 183904.000    281408.9270  -5147272.1619   3743528.5597   2   6   0.0794   0.1882   0.1729   0.0350  -0.1577  -0.0689   0.00    1.0
2173 183905.000    281408.9309  -5147272.1537   3743528.5540   2   6   0.0785   0.1857   0.1705   0.0344  -0.1556  -0.0680   0.00    1.0
2173 183906.000    281408.9308  -5147272.1643   3743528.5550   2   6   0.0776   0.1833   0.1683   0.0337  -0.1535  -0.0671   0.00    1.0
2173 183907.000    281408.9354  -5147272.1767   3743528.5613   2   6   0.0767   0.1810   0.1661   0.0332  -0.1514  -0.0663   0.00    1.0
2173 183908.000    281408.9270  -5147272.1902   3743528.5871   2   6   0.0758   0.1787   0.1639   0.0326  -0.1494  -0.0655   0.00    1.0
2173 183909.000    281408.9242  -5147272.1927   3743528.5904   2   6   0.0750   0.1765   0.1618   0.0321  -0.1474  -0.0646   0.00    1.0
2173 183910.000    281408.9236  -5147272.2028   3743528.5981   2   6   0.0742   0.1743   0.1598   0.0315  -0.1455  -0.0639   0.00    1.0
2173 183911.000    281408.9243  -5147272.2004   3743528.5999   2   6   0.0734   0.1722   0.1578   0.0310  -0.1437  -0.0631   0.00    1.0
2173 183912.000    281408.9233  -5147272.2137   3743528.6108   2   6   0.0727   0.1702   0.1558   0.0304  -0.1418  -0.0624   0.00    1.0
2173 183913.000    281408.9241  -5147272.2022   3743528.6079   2   6   0.0719   0.1682   0.1539   0.0299  -0.1400  -0.0617   0.00    1.0
2173 183914.000    281408.9229  -5147272.2158   3743528.6157   2   6   0.0712   0.1662   0.1521   0.0294  -0.1383  -0.0610   0.00    1.0
2173 183915.000    281408.9051  -5147272.2545   3743528.6664   2   6   0.0705   0.1643   0.1502   0.0289  -0.1366  -0.0603   0.00    1.0
2173 183916.000    281408.9042  -5147272.2557   3743528.6660   2   6   0.0699   0.1625   0.1485   0.0284  -0.1349  -0.0596   0.00    1.0
2173 183917.000    281408.9078  -5147272.2546   3743528.6659   2   6   0.0692   0.1606   0.1467   0.0279  -0.1332  -0.0589   0.00    1.0
2173 183918.000    281408.9054  -5147272.2647   3743528.6707   2   6   0.0686   0.1588   0.1450   0.0274  -0.1316  -0.0583   0.00    1.0
2173 183919.000    281408.9046  -5147272.2655   3743528.6672   2   6   0.0680   0.1571   0.1433   0.0269  -0.1300  -0.0576   0.00    1.0
2173 183920.000    281408.9088  -5147272.2810   3743528.6755   2   6   0.0673   0.1554   0.1416   0.0264  -0.1284  -0.0570   0.00    1.0
2173 183921.000    281408.9076  -5147272.2962   3743528.6860   2   6   0.0667   0.1537   0.1400   0.0259  -0.1269  -0.0565   0.00    1.0
2173 183922.000    281408.9041  -5147272.3026   3743528.6935   2   6   0.0662   0.1520   0.1384   0.0254  -0.1254  -0.0559   0.00    1.0
2173 183923.000    281408.9056  -5147272.3113   3743528.6955   2   6   0.0656   0.1504   0.1368   0.0249  -0.1239  -0.0553   0.00    1.0
2173 183924.000    281408.9086  -5147272.3265   3743528.7101   2   6   0.0651   0.1488   0.1353   0.0245  -0.1224  -0.0547   0.00    1.0
2173 183925.000    281408.9056  -5147272.3332   3743528.7172   2   6   0.0645   0.1472   0.1338   0.0239  -0.1209  -0.0542   0.00    1.0
2173 183926.000    281408.9053  -5147272.3431   3743528.7234   2   6   0.0641   0.1457   0.1323   0.0235  -0.1195  -0.0536   0.00    1.0
2173 183927.000    281408.9035  -5147272.3374   3743528.7170   2   6   0.0635   0.1441   0.1308   0.0230  -0.1181  -0.0531   0.00    1.0
2173 183928.000    281408.9036  -5147272.3488   3743528.7245   2   6   0.0630   0.1427   0.1294   0.0225  -0.1167  -0.0525   0.00    1.0
2173 183929.000    281408.9049  -5147272.3582   3743528.7332   2   6   0.0626   0.1412   0.1279   0.0220  -0.1153  -0.0520   0.00    1.0
2173 183930.000    281408.9010  -5147272.3618   3743528.7346   2   6   0.0621   0.1397   0.1265   0.0216  -0.1140  -0.0515   0.00    1.0
2173 183931.000    281408.9001  -5147272.3731   3743528.7451   2   6   0.0616   0.1383   0.1252   0.0211  -0.1127  -0.0510   0.00    1.0
2173 183932.000    281408.9027  -5147272.3753   3743528.7468   2   6   0.0612   0.1369   0.1238   0.0206  -0.1114  -0.0505   0.00    1.0
2173 183933.000    281408.8982  -5147272.3851   3743528.7631   2   6   0.0607   0.1355   0.1225   0.0202  -0.1101  -0.0500   0.00    1.0
2173 183934.000    281408.9005  -5147272.3857   3743528.7616   2   6   0.0603   0.1342   0.1211   0.0197  -0.1088  -0.0496   0.00    1.0
2173 183935.000    281408.8973  -5147272.3991   3743528.7747   2   6   0.0599   0.1329   0.1198   0.0192  -0.1075  -0.0491   0.00    1.0
2173 183936.000    281408.8968  -5147272.3949   3743528.7731   2   6   0.0594   0.1315   0.1186   0.0188  -0.1063  -0.0486   0.00    1.0
2173 183937.000    281408.8982  -5147272.3993   3743528.7776   2   6   0.0590   0.1303   0.1173   0.0183  -0.1051  -0.0482   0.00    1.0
2173 183938.000    281408.8973  -5147272.3950   3743528.7756   2   6   0.0587   0.1290   0.1160   0.0178  -0.1038  -0.0478   0.00    1.0
2173 183939.000    281408.8937  -5147272.4054   3743528.7851   2   6   0.0583   0.1277   0.1148   0.0173  -0.1026  -0.0473   0.00    1.0
2173 183940.000    281408.8956  -5147272.3897   3743528.7740   2   6   0.0579   0.1265   0.1136   0.0169  -0.1015  -0.0469   0.00    1.0
2173 183941.000    281408.8961  -5147272.3844   3743528.7635   2   6   0.0575   0.1253   0.1124   0.0164  -0.1003  -0.0464   0.00    1.0
2173 183942.000    281408.9006  -5147272.3874   3743528.7629   2   6   0.0571   0.1241   0.1112   0.0159  -0.0991  -0.0461   0.00    1.0
2173 183943.000    281408.8982  -5147272.3851   3743528.7613   2   6   0.0567   0.1229   0.1101   0.0154  -0.0980  -0.0456   0.00    1.0
2173 183944.000    281408.9011  -5147272.3889   3743528.7581   2   6   0.0564   0.1217   0.1089   0.0149  -0.0969  -0.0453   0.00    1.0
2173 183945.000    281408.8998  -5147272.3826   3743528.7499   2   6   0.0560   0.1206   0.1078   0.0144  -0.0958  -0.0449   0.00    1.0
2173 183946.000    281408.9018  -5147272.3768   3743528.7450   2   6   0.0557   0.1195   0.1067   0.0140  -0.0947  -0.0445   0.00    1.0
2173 183947.000    281408.9006  -5147272.3747   3743528.7442   2   6   0.0553   0.1183   0.1056   0.0135  -0.0936  -0.0441   0.00    1.0
2173 183948.000    281408.9014  -5147272.3720   3743528.7412   2   6   0.0550   0.1172   0.1045   0.0130  -0.0925  -0.0437   0.00    1.0
2173 183949.000    281408.8980  -5147272.3777   3743528.7470   2   6   0.0547   0.1162   0.1034   0.0125  -0.0915  -0.0433   0.00    1.0
2173 183950.000    281408.9016  -5147272.3822   3743528.7538   2   6   0.0544   0.1151   0.1024   0.0120  -0.0904  -0.0429   0.00    1.0
2173 183951.000    281408.8971  -5147272.4605   3743528.8210   2   6   0.0541   0.1140   0.1013   0.0114  -0.0894  -0.0426   0.00    1.0
2173 183952.000    281408.8898  -5147272.5378   3743528.8981   2   6   0.0538   0.1130   0.1003   0.0108  -0.0884  -0.0423   0.00    1.0
2173 183953.000    281408.8833  -5147272.6179   3743528.9736   2   6   0.0534   0.1120   0.0993   0.0103  -0.0874  -0.0419   0.00    1.1
2173 183954.000    281408.8769  -5147272.7002   3743529.0523   2   6   0.0532   0.1110   0.0983   0.0097  -0.0864  -0.0415   0.00    1.1
2173 183955.000    281408.8706  -5147272.7727   3743529.1171   2   6   0.0528   0.1100   0.0973   0.0092  -0.0854  -0.0413   0.00    1.1
2173 183956.000    281408.8621  -5147272.8457   3743529.1909   2   6   0.0526   0.1090   0.0963   0.0085  -0.0845  -0.0409   0.00    1.2
2173 183957.000    281408.8562  -5147272.9190   3743529.2553   2   6   0.0522   0.1080   0.0954   0.0079  -0.0835  -0.0406   0.00    1.2
2173 183958.000    281408.8471  -5147272.9806   3743529.3157   2   6   0.0520   0.1071   0.0944   0.0073  -0.0826  -0.0402   0.00    1.2
2173 183959.000    281408.8415  -5147273.0261   3743529.3648   2   6   0.0517   0.1061   0.0935   0.0064  -0.0816  -0.0399   0.00    1.2
2173 183960.000    281408.8382  -5147273.0757   3743529.4067   2   6   0.0514   0.1052   0.0926   0.0056  -0.0807  -0.0396   0.00    1.3
2173 183961.000    281408.8319  -5147273.1130   3743529.4514   2   6   0.0512   0.1043   0.0917   0.0047  -0.0798  -0.0393   0.00    1.3
2173 183962.000    281408.8266  -5147273.1445   3743529.4878   2   6   0.0509   0.1034   0.0908   0.0034  -0.0789  -0.0390   0.00    1.3
2173 183963.000    281408.8249  -5147273.1804   3743529.5199   2   6   0.0507   0.1025   0.0899   0.0023  -0.0780  -0.0387   0.00    1.3
2173 183964.000    281408.8194  -5147273.2139   3743529.5579   2   6   0.0504   0.1016   0.0890  -0.0017  -0.0772  -0.0384   0.00    1.4
2173 183965.000    281408.8191  -5147273.2418   3743529.5847   2   6   0.0502   0.1008   0.0882  -0.0037  -0.0763  -0.0381   0.00    1.4
2173 183966.000    281408.8178  -5147273.2743   3743529.6173   2   6   0.0500   0.0999   0.0873  -0.0046  -0.0755  -0.0378   0.00    1.4
2173 183967.000    281408.8126  -5147273.3072   3743529.6540   2   6   0.0496   0.0991   0.0865  -0.0052  -0.0746  -0.0375   0.00    1.4
2173 183968.000    281408.8094  -5147273.3338   3743529.6805   2   6   0.0494   0.0983   0.0857  -0.0060  -0.0738  -0.0372   0.00    1.5
2173 183969.000    281408.8079  -5147273.3647   3743529.7102   2   6   0.0492   0.0974   0.0849  -0.0067  -0.0730  -0.0370   0.00    1.5
2173 183970.000    281408.8060  -5147273.3979   3743529.7414   2   6   0.0490   0.0966   0.0840  -0.0072  -0.0722  -0.0367   0.00    1.5
2173 183971.000    281408.8037  -5147273.4400   3743529.7763   2   6   0.0487   0.0958   0.0833  -0.0077  -0.0714  -0.0364   0.00    1.5
2173 183972.000    281408.8013  -5147273.4710   3743529.8076   2   6   0.0485   0.0950   0.0825  -0.0083  -0.0706  -0.0362   0.00    1.6
2173 183973.000    281408.7996  -5147273.5091   3743529.8410   2   6   0.0483   0.0943   0.0817  -0.0085  -0.0698  -0.0359   0.00    1.6
2173 183974.000    281408.7960  -5147273.5340   3743529.8660   2   6   0.0481   0.0935   0.0809  -0.0089  -0.0690  -0.0357   0.00    1.6
2173 183975.000    281408.7925  -5147273.5626   3743529.8941   2   6   0.0478   0.0928   0.0802  -0.0093  -0.0683  -0.0354   0.00    1.7
2173 183976.000    281408.7844  -5147273.5992   3743529.9471   2   6   0.0476   0.0920   0.0795  -0.0096  -0.0675  -0.0352   0.00    1.7
2173 183977.000    281408.7810  -5147273.6336   3743529.9789   2   6   0.0474   0.0913   0.0787  -0.0099  -0.0668  -0.0350   0.00    1.7
2173 183978.000    281408.7773  -5147273.6648   3743530.0154   2   6   0.0472   0.0906   0.0780  -0.0103  -0.0660  -0.0347   0.00    1.8
2173 183979.000    281408.7750  -5147273.7001   3743530.0488   2   6   0.0470   0.0899   0.0773  -0.0105  -0.0653  -0.0344   0.00    1.8
2173 183980.000    281408.7676  -5147273.7280   3743530.0832   2   6   0.0468   0.0892   0.0766  -0.0107  -0.0646  -0.0342   0.00    1.9
2173 183981.000    281408.7636  -5147273.7517   3743530.1054   2   6   0.0466   0.0885   0.0759  -0.0110  -0.0639  -0.0340   0.00    1.9
2173 183982.000    281408.7620  -5147273.7697   3743530.1319   2   6   0.0464   0.0878   0.0752  -0.0112  -0.0632  -0.0338   0.00    1.9
2173 183983.000    281408.7559  -5147273.7900   3743530.1538   2   6   0.0462   0.0871   0.0746  -0.0115  -0.0625  -0.0336   0.00    1.9
2173 183984.000    281408.7491  -5147273.8113   3743530.1848   2   6   0.0460   0.0865   0.0739  -0.0117  -0.0618  -0.0333   0.00    2.0
2173 183985.000    281408.7487  -5147273.8282   3743530.2010   2   6   0.0458   0.0858   0.0732  -0.0119  -0.0612  -0.0331   0.00    2.0
2173 183986.000    281408.7463  -5147273.8430   3743530.2232   2   6   0.0456   0.0852   0.0726  -0.0120  -0.0605  -0.0329   0.00    2.0
2173 183987.000    281408.7441  -5147273.8486   3743530.2307   2   6   0.0454   0.0845   0.0720  -0.0122  -0.0599  -0.0327   0.00    2.0
2173 183988.000    281408.7420  -5147273.8500   3743530.2347   2   6   0.0453   0.0839   0.0713  -0.0124  -0.0592  -0.0325   0.00    2.1
2173 183989.000    281408.7448  -5147273.8517   3743530.2395   2   6   0.0451   0.0833   0.0707  -0.0126  -0.0586  -0.0323   0.00    2.1
2173 183990.000    281408.7445  -5147273.8582   3743530.2425   2   6   0.0449   0.0827   0.0701  -0.0127  -0.0580  -0.0321   0.00    2.1
2173 183991.000    281408.7418  -5147273.8573   3743530.2499   2   6   0.0447   0.0821   0.0695  -0.0129  -0.0573  -0.0319   0.00    2.1
2173 183992.000    281408.7450  -5147273.8698   3743530.2585   2   6   0.0445   0.0815   0.0689  -0.0131  -0.0567  -0.0317   0.00    2.1
2173 183993.000    281408.7458  -5147273.8637   3743530.2517   2   6   0.0444   0.0809   0.0683  -0.0132  -0.0561  -0.0315   0.00    2.2
2173 183994.000    281408.7433  -5147273.8643   3743530.2541   2   6   0.0442   0.0803   0.0678  -0.0134  -0.0555  -0.0313   0.00    2.2
2173 183995.000    281408.7430  -5147273.8534   3743530.2487   2   6   0.0440   0.0798   0.0672  -0.0135  -0.0549  -0.0311   0.00    2.2
2173 183996.000    281408.7414  -5147273.8511   3743530.2492   2   6   0.0439   0.0792   0.0666  -0.0135  -0.0543  -0.0309   0.00    2.2
2173 183997.000    281408.7396  -5147273.8495   3743530.2494   2   6   0.0437   0.0786   0.0660  -0.0138  -0.0538  -0.0307   0.00    2.2
2173 183998.000    281408.7407  -5147273.8407   3743530.2452   2   6   0.0436   0.0781   0.0655  -0.0138  -0.0532  -0.0306   0.00    2.2
2173 183999.000    281408.7419  -5147273.8354   3743530.2422   2   6   0.0434   0.0776   0.0650  -0.0139  -0.0526  -0.0304   0.00    2.3
2173 184000.000    281408.7429  -5147273.8319   3743530.2389   2   6   0.0432   0.0770   0.0644  -0.0140  -0.0521  -0.0302   0.00    2.3
2173 184001.000    281408.7421  -5147273.8241   3743530.2362   2   6   0.0431   0.0765   0.0639  -0.0141  -0.0515  -0.0300   0.00    2.3
2173 184002.000    281408.7380  -5147273.8158   3743530.2302   2   6   0.0429   0.0760   0.0634  -0.0143  -0.0510  -0.0299   0.00    2.3
2173 184003.000    281408.7412  -5147273.8081   3743530.2247   2   6   0.0427   0.0755   0.0629  -0.0144  -0.0504  -0.0297   0.00    2.3
2173 184004.000    281408.7412  -5147273.8052   3743530.2249   2   6   0.0426   0.0750   0.0624  -0.0144  -0.0499  -0.0295   0.00    2.3
2173 184005.000    281408.7422  -5147273.8002   3743530.2221   2   6   0.0425   0.0745   0.0619  -0.0146  -0.0494  -0.0293   0.00    2.3
2173 184006.000    281408.7387  -5147273.7743   3743530.2035   2   6   0.0423   0.0740   0.0614  -0.0146  -0.0489  -0.0292   0.00    2.3
2173 184007.000    281408.7395  -5147273.7677   3743530.1962   2   6   0.0422   0.0735   0.0609  -0.0147  -0.0484  -0.0290   0.00    2.4
2173 184008.000    281408.7380  -5147273.7602   3743530.1918   2   6   0.0420   0.0730   0.0604  -0.0148  -0.0479  -0.0289   0.00    2.4
2173 184009.000    281408.7398  -5147273.7564   3743530.1859   2   6   0.0419   0.0726   0.0599  -0.0149  -0.0474  -0.0288   0.00    2.4
2173 184010.000    281408.7401  -5147273.7458   3743530.1779   2   6   0.0417   0.0721   0.0595  -0.0149  -0.0469  -0.0286   0.00    2.4
2173 184011.000    281408.7411  -5147273.7269   3743530.1658   2   6   0.0416   0.0716   0.0590  -0.0149  -0.0464  -0.0284   0.00    2.4
2173 184012.000    281408.7397  -5147273.7211   3743530.1605   2   6   0.0415   0.0712   0.0585  -0.0150  -0.0459  -0.0283   0.00    2.4
2173 184013.000    281408.7416  -5147273.7090   3743530.1552   2   6   0.0413   0.0707   0.0581  -0.0151  -0.0455  -0.0281   0.00    2.4
2173 184014.000    281408.7412  -5147273.6957   3743530.1406   2   6   0.0412   0.0703   0.0577  -0.0151  -0.0450  -0.0280   0.00    2.4
2173 184015.000    281408.7413  -5147273.6888   3743530.1345   2   6   0.0410   0.0698   0.0572  -0.0152  -0.0445  -0.0278   0.00    2.4
2173 184016.000    281408.7441  -5147273.6842   3743530.1284   2   6   0.0409   0.0694   0.0568  -0.0153  -0.0441  -0.0277   0.00    2.4
2173 184017.000    281408.7426  -5147273.6764   3743530.1219   2   6   0.0408   0.0690   0.0564  -0.0153  -0.0436  -0.0275   0.00    2.5
2173 184018.000    281408.7454  -5147273.6665   3743530.1126   2   6   0.0406   0.0686   0.0559  -0.0154  -0.0432  -0.0274   0.00    2.5
2173 184019.000    281408.7480  -5147273.6613   3743530.1115   2   6   0.0405   0.0681   0.0555  -0.0154  -0.0427  -0.0273   0.00    2.5
2173 184020.000    281408.7455  -5147273.6549   3743530.1079   2   6   0.0404   0.0677   0.0551  -0.0155  -0.0423  -0.0271   0.00    2.5
2173 184021.000    281408.7461  -5147273.6523   3743530.1081   2   6   0.0403   0.0673   0.0547  -0.0155  -0.0419  -0.0270   0.00    2.5
2173 184022.000    281408.7484  -5147273.6364   3743530.0892   2   6   0.0401   0.0669   0.0543  -0.0156  -0.0414  -0.0269   0.00    2.5
2173 184023.000    281408.7480  -5147273.6355   3743530.0894   2   6   0.0400   0.0665   0.0539  -0.0156  -0.0410  -0.0268   0.00    2.5
2173 184024.000    281408.7481  -5147273.6323   3743530.0869   2   6   0.0399   0.0661   0.0535  -0.0157  -0.0406  -0.0266   0.00    2.5
2173 184025.000    281408.7477  -5147273.6199   3743530.0815   2   6   0.0397   0.0658   0.0531  -0.0157  -0.0402  -0.0265   0.00    2.5
2173 184026.000    281408.7494  -5147273.6097   3743530.0749   2   6   0.0396   0.0654   0.0528  -0.0157  -0.0398  -0.0264   0.00    2.5
2173 184027.000    281408.7524  -5147273.6046   3743530.0696   2   6   0.0395   0.0650   0.0524  -0.0158  -0.0394  -0.0263   0.00    2.5
2173 184028.000    281408.7452  -5147273.5856   3743530.0654   2   6   0.0394   0.0646   0.0520  -0.0158  -0.0390  -0.0261   0.00    2.6
2173 184029.000    281408.7486  -5147273.5708   3743530.0554   2   6   0.0393   0.0643   0.0516  -0.0159  -0.0386  -0.0260   0.00    2.6
2173 184030.000    281408.7478  -5147273.5627   3743530.0510   2   6   0.0392   0.0639   0.0513  -0.0159  -0.0382  -0.0259   0.00    2.6
2173 184031.000    281408.7471  -5147273.5503   3743530.0439   2   6   0.0391   0.0635   0.0509  -0.0158  -0.0378  -0.0258   0.00    2.6
2173 184032.000    281408.7488  -5147273.5397   3743530.0371   2   6   0.0390   0.0632   0.0506  -0.0159  -0.0375  -0.0256   0.00    2.6
2173 184033.000    281408.7473  -5147273.5296   3743530.0286   2   6   0.0388   0.0628   0.0502  -0.0159  -0.0371  -0.0255   0.00    2.6
2173 184034.000    281408.7511  -5147273.5164   3743530.0189   2   6   0.0387   0.0625   0.0499  -0.0160  -0.0367  -0.0254   0.00    2.6
2173 184035.000    281408.7508  -5147273.5002   3743530.0090   2   6   0.0386   0.0622   0.0496  -0.0160  -0.0363  -0.0253   0.00    2.6
2173 184036.000    281408.7499  -5147273.4925   3743529.9997   2   6   0.0385   0.0618   0.0492  -0.0160  -0.0360  -0.0252   0.00    2.6
2173 184037.000    281408.7525  -5147273.4850   3743529.9893   2   6   0.0384   0.0615   0.0489  -0.0160  -0.0356  -0.0251   0.00    2.6
2173 184038.000    281408.7601  -5147273.4866   3743529.9750   2   6   0.0383   0.0612   0.0486  -0.0160  -0.0353  -0.0250   0.00    2.6
2173 184039.000    281408.7588  -5147273.4783   3743529.9692   2   6   0.0382   0.0608   0.0483  -0.0161  -0.0349  -0.0249   0.00    2.6
2173 184040.000    281408.7615  -5147273.4742   3743529.9666   2   6   0.0381   0.0605   0.0479  -0.0161  -0.0346  -0.0248   0.00    2.6
2173 184041.000    281408.7597  -5147273.4722   3743529.9602   2   6   0.0379   0.0602   0.0476  -0.0161  -0.0343  -0.0247   0.00    2.6
2173 184042.000    281408.7621  -5147273.4643   3743529.9529   2   6   0.0379   0.0599   0.0473  -0.0162  -0.0339  -0.0246   0.00    2.6
2173 184043.000    281408.7603  -5147273.4509   3743529.9464   2   6   0.0377   0.0596   0.0470  -0.0162  -0.0336  -0.0245   0.00    2.6
2173 184044.000    281408.7630  -5147273.4469   3743529.9424   2   6   0.0377   0.0593   0.0467  -0.0162  -0.0332  -0.0244   0.00    2.6
2173 184045.000    281408.7644  -5147273.4408   3743529.9357   2   6   0.0376   0.0590   0.0464  -0.0162  -0.0329  -0.0243   0.00    2.6
2173 184046.000    281408.7651  -5147273.4250   3743529.9273   2   6   0.0374   0.0587   0.0461  -0.0161  -0.0326  -0.0242   0.00    2.6
2173 184047.000    281408.7657  -5147273.4162   3743529.9171   2   6   0.0374   0.0584   0.0458  -0.0163  -0.0323  -0.0241   0.00    2.6
2173 184048.000    281408.7665  -5147273.4097   3743529.9112   2   6   0.0372   0.0581   0.0455  -0.0162  -0.0320  -0.0240   0.00    2.6
2173 184049.000    281408.7678  -5147273.4012   3743529.9027   2   6   0.0371   0.0578   0.0452  -0.0162  -0.0317  -0.0239   0.00    2.6
2173 184050.000    281408.7664  -5147273.3847   3743529.8929   2   6   0.0370   0.0575   0.0450  -0.0162  -0.0313  -0.0238   0.00    2.6
2173 184051.000    281408.7683  -5147273.3848   3743529.8901   2   6   0.0370   0.0572   0.0447  -0.0162  -0.0310  -0.0237   0.00    2.6
2173 184052.000    281408.7707  -5147273.3737   3743529.8786   2   6   0.0368   0.0569   0.0444  -0.0162  -0.0308  -0.0236   0.00    2.6
2173 184053.000    281408.7714  -5147273.3674   3743529.8719   2   6   0.0367   0.0567   0.0441  -0.0163  -0.0304  -0.0236   0.00    2.6
2173 184054.000    281408.7682  -5147273.3586   3743529.8672   2   6   0.0367   0.0564   0.0439  -0.0163  -0.0301  -0.0234   0.00    2.6
2173 184055.000    281408.7724  -5147273.3448   3743529.8542   2   6   0.0365   0.0561   0.0436  -0.0163  -0.0298  -0.0234   0.00    2.6
2173 184056.000    281408.7726  -5147273.3420   3743529.8504   2   6   0.0365   0.0559   0.0433  -0.0163  -0.0295  -0.0233   0.00    2.6
2173 184057.000    281408.7736  -5147273.3389   3743529.8461   2   6   0.0364   0.0556   0.0431  -0.0162  -0.0293  -0.0231   0.00    2.6
2173 184058.000    281408.7766  -5147273.3268   3743529.8395   2   6   0.0363   0.0554   0.0428  -0.0163  -0.0289  -0.0231   0.00    2.6
2173 184059.000    281408.7748  -5147273.3182   3743529.8336   2   6   0.0362   0.0551   0.0426  -0.0163  -0.0287  -0.0230   0.00    2.6
2173 184060.000    281408.7769  -5147273.3128   3743529.8272   2   6   0.0361   0.0548   0.0423  -0.0163  -0.0284  -0.0230   0.00    2.6
2173 184061.000    281408.7746  -5147273.3077   3743529.8283   2   6   0.0360   0.0546   0.0421  -0.0162  -0.0282  -0.0228   0.00    2.6
2173 184062.000    281408.7739  -5147273.2853   3743529.8112   2   6   0.0359   0.0543   0.0418  -0.0163  -0.0279  -0.0228   0.00    2.7
2173 184063.000    281408.7728  -5147273.2781   3743529.8008   2   6   0.0359   0.0541   0.0416  -0.0163  -0.0276  -0.0227   0.00    2.7
2173 184064.000    281408.7748  -5147273.2662   3743529.7910   2   6   0.0357   0.0538   0.0413  -0.0163  -0.0273  -0.0226   0.00    2.7
2173 184065.000    281408.7776  -5147273.2556   3743529.7806   2   6   0.0357   0.0536   0.0411  -0.0163  -0.0271  -0.0226   0.00    2.7
2173 184066.000    281408.7777  -5147273.2490   3743529.7714   2   6   0.0356   0.0533   0.0409  -0.0163  -0.0268  -0.0225   0.00    2.7
2173 184067.000    281408.7750  -5147273.2453   3743529.7635   2   6   0.0355   0.0531   0.0407  -0.0163  -0.0266  -0.0223   0.00    2.7
2173 184068.000    281408.7764  -5147273.2407   3743529.7587   2   6   0.0354   0.0529   0.0404  -0.0162  -0.0263  -0.0223   0.00    2.7
2173 184069.000    281408.7738  -5147273.2385   3743529.7544   2   6   0.0354   0.0526   0.0402  -0.0163  -0.0261  -0.0222   0.00    2.7
2173 184070.000    281408.7769  -5147273.2279   3743529.7450   2   6   0.0353   0.0524   0.0400  -0.0163  -0.0258  -0.0222   0.00    2.7
2173 184071.000    281408.7795  -5147273.2209   3743529.7366   2   6   0.0352   0.0522   0.0397  -0.0163  -0.0255  -0.0221   0.00    2.7
2173 184072.000    281408.7824  -5147273.2096   3743529.7309   2   6   0.0351   0.0520   0.0395  -0.0163  -0.0253  -0.0221   0.00    2.7
2173 184073.000    281408.7826  -5147273.1948   3743529.7147   2   6   0.0350   0.0517   0.0393  -0.0162  -0.0251  -0.0219   0.00    2.7
2173 184074.000    281408.7819  -5147273.1931   3743529.7149   2   6   0.0349   0.0515   0.0391  -0.0163  -0.0248  -0.0219   0.00    2.7
2173 184075.000    281408.7806  -5147273.1720   3743529.6988   2   6   0.0348   0.0513   0.0389  -0.0163  -0.0246  -0.0218   0.00    2.7
2173 184076.000    281408.7830  -5147273.1675   3743529.6932   2   6   0.0348   0.0511   0.0387  -0.0163  -0.0244  -0.0217   0.00    2.7
2173 184077.000    281408.7836  -5147273.1560   3743529.6839   2   6   0.0346   0.0509   0.0385  -0.0162  -0.0241  -0.0216   0.00    2.7
2173 184078.000    281408.7831  -5147273.1460   3743529.6781   2   6   0.0346   0.0507   0.0383  -0.0162  -0.0239  -0.0216   0.00    2.7
2173 184079.000    281408.7832  -5147273.1405   3743529.6702   2   6   0.0345   0.0505   0.0381  -0.0162  -0.0237  -0.0215   0.00    2.7
2173 184080.000    281408.7827  -5147273.1307   3743529.6677   2   6   0.0344   0.0502   0.0379  -0.0161  -0.0234  -0.0214   0.00    2.7
2173 184081.000    281408.7816  -5147273.1191   3743529.6588   2   6   0.0344   0.0501   0.0377  -0.0162  -0.0232  -0.0214   0.00    2.7
2173 184082.000    281408.7846  -5147273.1059   3743529.6511   2   6   0.0343   0.0498   0.0375  -0.0163  -0.0230  -0.0213   0.00    2.7
2173 184083.000    281408.7857  -5147273.1026   3743529.6444   2   6   0.0342   0.0496   0.0373  -0.0162  -0.0228  -0.0212   0.00    2.7
2173 184084.000    281408.7860  -5147273.0896   3743529.6328   2   6   0.0341   0.0494   0.0371  -0.0162  -0.0225  -0.0212   0.00    2.7
2173 184085.000    281408.7868  -5147273.0845   3743529.6259   2   6   0.0341   0.0492   0.0369  -0.0162  -0.0224  -0.0211   0.00    2.7
2173 184086.000    281408.7913  -5147273.0748   3743529.6162   2   6   0.0340   0.0491   0.0368  -0.0162  -0.0221  -0.0210   0.00    2.7
2173 184087.000    281408.7934  -5147273.0593   3743529.6051   2   6   0.0340   0.0488   0.0365  -0.0162  -0.0219  -0.0209   0.00    2.7
2173 184088.000    281408.7905  -5147273.0584   3743529.6029   2   6   0.0339   0.0486   0.0363  -0.0162  -0.0217  -0.0209   0.00    2.7
2173 184089.000    281408.7909  -5147273.0438   3743529.5898   2   6   0.0338   0.0485   0.0362  -0.0161  -0.0215  -0.0208   0.00    2.7
2173 184090.000    281408.7910  -5147273.0372   3743529.5855   2   6   0.0337   0.0483   0.0360  -0.0161  -0.0213  -0.0208   0.00    2.7
2173 184091.000    281408.7924  -5147273.0278   3743529.5761   2   6   0.0336   0.0481   0.0358  -0.0161  -0.0211  -0.0207   0.00    2.7
2173 184092.000    281408.7878  -5147273.0152   3743529.5704   2   6   0.0336   0.0479   0.0356  -0.0162  -0.0209  -0.0207   0.00    2.7
2173 184093.000    281408.7915  -5147273.0034   3743529.5604   2   6   0.0335   0.0477   0.0355  -0.0161  -0.0207  -0.0207   0.00    2.7
2173 184094.000    281408.7931  -5147272.9994   3743529.5584   2   6   0.0334   0.0475   0.0353  -0.0161  -0.0205  -0.0206   0.00    2.7
2173 184095.000    281408.7919  -5147272.9899   3743529.5508   2   6   0.0333   0.0474   0.0351  -0.0161  -0.0203  -0.0205   0.00    2.7
2173 184096.000    281408.8057  -5147272.9608   3743529.5018   2   6   0.0333   0.0472   0.0350  -0.0161  -0.0201  -0.0205   0.00    2.7
2173 184097.000    281408.8058  -5147272.9551   3743529.4989   2   6   0.0332   0.0470   0.0348  -0.0161  -0.0199  -0.0204   0.00    2.7
2173 184098.000    281408.8055  -5147272.9592   3743529.4979   2   6   0.0332   0.0468   0.0346  -0.0160  -0.0197  -0.0203   0.00    2.7
2173 184099.000    281408.8129  -5147272.9544   3743529.4831   2   6   0.0331   0.0466   0.0344  -0.0161  -0.0196  -0.0202   0.00    2.7
2173 184100.000    281408.8128  -5147272.9627   3743529.4854   2   6   0.0330   0.0465   0.0343  -0.0160  -0.0193  -0.0202   0.00    2.7
2173 184101.000    281408.8165  -5147272.9652   3743529.4881   2   6   0.0330   0.0463   0.0341  -0.0160  -0.0191  -0.0201   0.00    2.7
2173 184102.000    281408.8145  -5147272.9701   3743529.4875   2   6   0.0329   0.0462   0.0340  -0.0161  -0.0190  -0.0201   0.00    2.7
2173 184103.000    281408.8151  -5147272.9716   3743529.4872   2   6   0.0328   0.0460   0.0338  -0.0160  -0.0187  -0.0200   0.00    2.7
2173 184104.000    281408.8168  -5147272.9670   3743529.4838   2   6   0.0328   0.0458   0.0337  -0.0160  -0.0186  -0.0200   0.00    2.7
2173 184105.000    281408.8177  -5147272.9660   3743529.4838   2   6   0.0327   0.0457   0.0335  -0.0160  -0.0184  -0.0199   0.00    2.7
2173 184106.000    281408.8170  -5147272.9587   3743529.4797   2   6   0.0326   0.0455   0.0334  -0.0160  -0.0182  -0.0199   0.00    2.7
2173 184107.000    281408.8144  -5147272.9570   3743529.4776   2   6   0.0325   0.0453   0.0332  -0.0160  -0.0181  -0.0199   0.00    2.7
2173 184108.000    281408.8179  -5147272.9567   3743529.4728   2   6   0.0325   0.0452   0.0331  -0.0159  -0.0179  -0.0197   0.00    2.7
2173 184109.000    281408.8182  -5147272.9594   3743529.4705   2   6   0.0324   0.0450   0.0329  -0.0159  -0.0177  -0.0197   0.00    2.7
2173 184110.000    281408.8170  -5147272.9724   3743529.4801   2   6   0.0324   0.0449   0.0328  -0.0159  -0.0175  -0.0197   0.00    2.7
2173 184111.000    281408.8199  -5147272.9820   3743529.4790   2   6   0.0323   0.0447   0.0326  -0.0159  -0.0173  -0.0196   0.00    2.7
2173 184112.000    281408.8241  -5147272.9891   3743529.4784   2   6   0.0323   0.0446   0.0325  -0.0159  -0.0172  -0.0196   0.00    2.7
2173 184113.000    281408.8227  -5147272.9935   3743529.4826   2   6   0.0321   0.0444   0.0323  -0.0159  -0.0170  -0.0195   0.00    2.7
2173 184114.000    281408.8202  -5147272.9854   3743529.4785   2   6   0.0321   0.0443   0.0322  -0.0159  -0.0169  -0.0195   0.00    2.7
2173 184115.000    281408.8205  -5147272.9893   3743529.4795   2   6   0.0320   0.0441   0.0321  -0.0158  -0.0167  -0.0194   0.00    2.7
2173 184116.000    281408.8249  -5147272.9728   3743529.4651   2   6   0.0320   0.0440   0.0319  -0.0158  -0.0165  -0.0194   0.00    2.7
2173 184117.000    281408.8242  -5147272.9741   3743529.4668   2   6   0.0319   0.0438   0.0318  -0.0157  -0.0163  -0.0193   0.00    2.7
2173 184118.000    281408.8229  -5147272.9368   3743529.4394   2   6   0.0319   0.0437   0.0317  -0.0158  -0.0161  -0.0193   0.00    2.7
2173 184119.000    281408.8244  -5147272.9301   3743529.4306   2   6   0.0318   0.0435   0.0315  -0.0159  -0.0160  -0.0193   0.00    2.7
2173 184120.000    281408.8233  -5147272.9196   3743529.4239   2   6   0.0317   0.0434   0.0314  -0.0158  -0.0159  -0.0192   0.00    2.7
2173 184121.000    281408.8220  -5147272.9025   3743529.4091   2   6   0.0317   0.0433   0.0313  -0.0158  -0.0157  -0.0192   0.00    2.7
2173 184122.000    281408.8256  -5147272.9032   3743529.4063   2   6   0.0317   0.0431   0.0311  -0.0157  -0.0156  -0.0190   0.00    2.7
2173 184123.000    281408.8272  -5147272.8968   3743529.3932   2   6   0.0316   0.0429   0.0310  -0.0158  -0.0154  -0.0191   0.00    2.7
2173 184124.000    281408.8278  -5147272.9007   3743529.3935   2   6   0.0316   0.0428   0.0309  -0.0157  -0.0152  -0.0190   0.00    2.7
2173 184125.000    281408.8295  -5147272.9074   3743529.3915   2   6   0.0315   0.0427   0.0307  -0.0158  -0.0152  -0.0189   0.00    2.7
2173 184126.000    281408.8321  -5147272.8977   3743529.3725   2   6   0.0314   0.0426   0.0306  -0.0157  -0.0149  -0.0189   0.00    2.7
2173 184127.000    281408.8347  -5147272.9020   3743529.3699   2   6   0.0314   0.0424   0.0305  -0.0157  -0.0148  -0.0189   0.00    2.8
2173 184128.000    281408.8327  -5147272.8972   3743529.3658   2   6   0.0313   0.0423   0.0304  -0.0157  -0.0147  -0.0188   0.00    2.8
2173 184129.000    281408.8357  -5147272.8904   3743529.3572   2   6   0.0312   0.0421   0.0303  -0.0157  -0.0145  -0.0188   0.00    2.8
2173 184130.000    281408.8369  -5147272.8817   3743529.3443   2   6   0.0312   0.0420   0.0301  -0.0156  -0.0144  -0.0187   0.00    2.8
2173 184131.000    281408.8368  -5147272.8704   3743529.3395   2   6   0.0311   0.0419   0.0300  -0.0156  -0.0143  -0.0187   0.00    2.8
2173 184132.000    281408.8381  -5147272.8712   3743529.3338   2   6   0.0311   0.0418   0.0299  -0.0156  -0.0141  -0.0186   0.00    2.8
2173 184133.000    281408.8384  -5147272.8698   3743529.3293   2   6   0.0311   0.0416   0.0298  -0.0156  -0.0139  -0.0186   0.00    2.8
2173 184134.000    281408.8359  -5147272.8634   3743529.3232   2   6   0.0310   0.0415   0.0297  -0.0156  -0.0138  -0.0185   0.00    2.8
2173 184135.000    281408.8343  -5147272.8600   3743529.3200   2   6   0.0309   0.0414   0.0296  -0.0155  -0.0136  -0.0185   0.00    2.8
2173 184136.000    281408.8350  -5147272.8519   3743529.3077   2   6   0.0309   0.0412   0.0294  -0.0156  -0.0135  -0.0185   0.00    2.8
2173 184137.000    281408.8388  -5147272.8448   3743529.2963   2   6   0.0308   0.0411   0.0293  -0.0155  -0.0135  -0.0184   0.00    2.8
2173 184138.000    281408.8370  -5147272.8436   3743529.2944   2   6   0.0307   0.0410   0.0292  -0.0155  -0.0132  -0.0184   0.00    2.8
2173 184139.000    281408.8382  -5147272.8379   3743529.2856   2   6   0.0307   0.0409   0.0291  -0.0155  -0.0131  -0.0183   0.00    2.9
2173 184140.000    281408.8392  -5147272.8308   3743529.2785   2   6   0.0306   0.0408   0.0290  -0.0155  -0.0130  -0.0182   0.00    2.9
2173 184141.000    281408.8421  -5147272.8223   3743529.2652   2   6   0.0306   0.0407   0.0289  -0.0155  -0.0128  -0.0183   0.00    2.9
2173 184142.000    281408.8442  -5147272.8083   3743529.2555   2   6   0.0305   0.0405   0.0288  -0.0155  -0.0127  -0.0182   0.00    2.9
2173 184143.000    281408.8422  -5147272.7970   3743529.2412   2   6   0.0305   0.0404   0.0287  -0.0154  -0.0125  -0.0182   0.00    2.9
2173 184144.000    281408.8426  -5147272.7892   3743529.2305   2   6   0.0305   0.0403   0.0286  -0.0155  -0.0124  -0.0182   0.00    2.9
2173 184145.000    281408.8451  -5147272.7793   3743529.2218   2   6   0.0304   0.0402   0.0284  -0.0154  -0.0123  -0.0181   0.00    2.9
2173 184146.000    281408.8478  -5147272.7752   3743529.2104   2   6   0.0303   0.0400   0.0283  -0.0154  -0.0123  -0.0181   0.00    3.0
2173 184147.000    281408.8536  -5147272.7698   3743529.1986   2   6   0.0304   0.0399   0.0283  -0.0155  -0.0120  -0.0180   0.00    3.0
2173 184148.000    281408.8505  -5147272.7614   3743529.1933   2   6   0.0302   0.0398   0.0282  -0.0154  -0.0119  -0.0180   0.00    3.0
2173 184149.000    281408.8498  -5147272.7535   3743529.1874   2   6   0.0302   0.0397   0.0281  -0.0154  -0.0117  -0.0180   0.00    3.0
2173 184150.000    281408.8507  -5147272.7520   3743529.1788   2   6   0.0301   0.0396   0.0279  -0.0154  -0.0116  -0.0179   0.00    3.0
2173 184151.000    281408.9483  -5147272.4188   3743528.7413   1   6   0.0049   0.0117   0.0103   0.0012  -0.0096  -0.0040   0.00    3.0
2173 184152.000    281408.9463  -5147272.4172   3743528.7412   1   6   0.0052   0.0118   0.0105   0.0013  -0.0095  -0.0039   0.00    3.0
2173 184153.000    281408.9473  -5147272.4191   3743528.7412   1   6   0.0052   0.0118   0.0104   0.0013  -0.0095  -0.0040   0.00    3.0
2173 184154.000    281408.9484  -5147272.4172   3743528.7368   1   6   0.0053   0.0118   0.0104  -0.0009  -0.0095  -0.0041   0.00    3.0
2173 184155.000    281408.9578  -5147272.4221   3743528.7252   1   6   0.0050   0.0118   0.0104   0.0017  -0.0094  -0.0041   0.00    3.0
2173 184156.000    281408.9539  -5147272.4275   3743528.7284   1   6   0.0051   0.0117   0.0103   0.0010  -0.0095  -0.0042   0.00    3.0
2173 184157.000    281408.9548  -5147272.4290   3743528.7292   1   6   0.0052   0.0118   0.0103  -0.0007  -0.0094  -0.0042   0.00    3.0
2173 184158.000    281408.9561  -5147272.4317   3743528.7281   1   6   0.0051   0.0118   0.0104   0.0008  -0.0094  -0.0041   0.00    3.0
2173 184159.000    281408.9542  -5147272.4309   3743528.7325   1   6   0.0051   0.0118   0.0103   0.0010  -0.0095  -0.0040   0.00    3.0
2173 184160.000    281408.9587  -5147272.4298   3743528.7295   1   6   0.0051   0.0117   0.0104   0.0015  -0.0095  -0.0038   0.00    3.1
2173 184161.000    281408.9569  -5147272.4309   3743528.7307   1   6   0.0052   0.0117   0.0104  -0.0008  -0.0095  -0.0042   0.00    3.1
2173 184162.000    281408.9569  -5147272.4312   3743528.7309   1   6   0.0050   0.0117   0.0103   0.0016  -0.0095  -0.0040   0.00    3.1
2173 184163.000    281408.9574  -5147272.4303   3743528.7335   1   6   0.0051   0.0117   0.0103  -0.0008  -0.0095  -0.0041   0.00    3.1
2173 184164.000    281408.9558  -5147272.4288   3743528.7327   1   6   0.0052   0.0118   0.0104   0.0009  -0.0094  -0.0043   0.00    3.1
2173 184165.000    281408.9563  -5147272.4271   3743528.7294   1   6   0.0050   0.0118   0.0103   0.0011  -0.0094  -0.0041   0.00    3.0
2173 184166.000    281408.9562  -5147272.4224   3743528.7282   1   6   0.0048   0.0118   0.0103   0.0008  -0.0094  -0.0042   0.00    3.0
2173 184167.000    281408.9555  -5147272.4323   3743528.7321   1   6   0.0053   0.0118   0.0103   0.0012  -0.0094  -0.0038   0.00    3.0
2173 184168.000    281408.9560  -5147272.4338   3743528.7356   1   6   0.0051   0.0117   0.0103   0.0011  -0.0094  -0.0041   0.00    3.0
2173 184169.000    281408.9570  -5147272.4441   3743528.7405   1   6   0.0050   0.0117   0.0103   0.0011  -0.0095  -0.0040   0.00    3.0
2173 184170.000    281408.9580  -5147272.4330   3743528.7319   1   6   0.0048   0.0117   0.0103   0.0009  -0.0095  -0.0042   0.00    3.0
2173 184171.000    281408.9576  -5147272.4430   3743528.7374   1   6   0.0054   0.0117   0.0102  -0.0008  -0.0095  -0.0040   0.00    3.0
2173 184172.000    281408.9591  -5147272.4369   3743528.7333   1   6   0.0051   0.0118   0.0104   0.0008  -0.0094  -0.0040   0.00    3.0
2173 184173.000    281408.9599  -5147272.4352   3743528.7342   1   6   0.0052   0.0118   0.0103   0.0013  -0.0094  -0.0043   0.00    3.0
2173 184174.000    281408.9539  -5147272.4256   3743528.7305   1   6   0.0048   0.0117   0.0103   0.0012  -0.0094  -0.0040   0.00    3.0
2173 184175.000    281408.9550  -5147272.4237   3743528.7300   1   6   0.0047   0.0118   0.0103   0.0018  -0.0094  -0.0040   0.00    3.0
2173 184176.000    281408.9558  -5147272.4209   3743528.7266   1   6   0.0052   0.0117   0.0104   0.0002  -0.0094  -0.0042   0.00    3.0
2173 184177.000    281408.9544  -5147272.4201   3743528.7261   1   6   0.0051   0.0118   0.0104   0.0010  -0.0094  -0.0041   0.00    3.0
2173 184178.000    281408.9540  -5147272.4208   3743528.7268   1   6   0.0051   0.0117   0.0103  -0.0005  -0.0095  -0.0041   0.00    3.0
2173 184179.000    281408.9549  -5147272.4224   3743528.7283   1   6   0.0051   0.0117   0.0103   0.0010  -0.0094  -0.0042   0.00    3.0
2173 184180.000    281408.9539  -5147272.4189   3743528.7235   1   6   0.0051   0.0117   0.0102   0.0015  -0.0094  -0.0039   0.00    3.0
2173 184181.000    281408.9532  -5147272.4221   3743528.7249   1   6   0.0049   0.0117   0.0103   0.0010  -0.0095  -0.0041   0.00    3.0
2173 184182.000    281408.9545  -5147272.4215   3743528.7230   1   6   0.0051   0.0117   0.0103  -0.0010  -0.0094  -0.0039   0.00    3.0
2173 184183.000    281408.9554  -5147272.4240   3743528.7250   1   6   0.0050   0.0117   0.0103   0.0007  -0.0094  -0.0042   0.00    3.0
2173 184184.000    281408.9545  -5147272.4246   3743528.7263   1   6   0.0050   0.0117   0.0102   0.0017  -0.0095  -0.0039   0.00    3.0
2173 184185.000    281408.9548  -5147272.4254   3743528.7240   1   6   0.0049   0.0118   0.0102   0.0018  -0.0094  -0.0040   0.00    3.0
2173 184186.000    281408.9529  -5147272.4290   3743528.7281   1   6   0.0051   0.0117   0.0102   0.0007  -0.0094  -0.0038   0.00    3.0
2173 184187.000    281408.9566  -5147272.4271   3743528.7279   1   6   0.0053   0.0119   0.0104  -0.0009  -0.0093  -0.0043   0.00    3.0
2173 184188.000    281408.9548  -5147272.4286   3743528.7301   1   6   0.0050   0.0117   0.0102   0.0014  -0.0094  -0.0040   0.00    3.0
2173 184189.000    281408.9549  -5147272.4274   3743528.7274   1   6   0.0053   0.0118   0.0103  -0.0008  -0.0093  -0.0041   0.00    3.0
2173 184190.000    281408.9533  -5147272.4281   3743528.7304   1   6   0.0052   0.0117   0.0102   0.0007  -0.0094  -0.0041   0.00    3.0
2173 184191.000    281408.9541  -5147272.4247   3743528.7282   1   6   0.0053   0.0117   0.0102  -0.0009  -0.0093  -0.0039   0.00    3.0
2173 184192.000    281408.9567  -5147272.4299   3743528.7312   1   6   0.0052   0.0117   0.0102  -0.0012  -0.0094  -0.0042   0.00    3.0
2173 184193.000    281408.9541  -5147272.4301   3743528.7344   1   6   0.0050   0.0117   0.0102   0.0009  -0.0094  -0.0040   0.00    3.0
2173 184194.000    281408.9556  -5147272.4353   3743528.7350   1   6   0.0052   0.0118   0.0103   0.0005  -0.0093  -0.0041   0.00    3.0
2173 184195.000    281408.9512  -5147272.4368   3743528.7410   1   6   0.0050   0.0117   0.0103   0.0011  -0.0094  -0.0040   0.00    3.0
2173 184196.000    281408.9528  -5147272.4355   3743528.7394   1   6   0.0052   0.0117   0.0102   0.0011  -0.0094  -0.0039   0.00    3.0
2173 184197.000    281408.9520  -5147272.4369   3743528.7428   1   6   0.0049   0.0117   0.0102   0.0014  -0.0094  -0.0040   0.00    3.0
2173 184198.000    281408.9520  -5147272.4329   3743528.7373   1   6   0.0055   0.0117   0.0102   0.0003  -0.0094  -0.0040   0.00    3.0
2173 184199.000    281408.8830  -5147272.3971   3743528.7948   2   6   0.0280   0.0349   0.0239  -0.0146  -0.0062  -0.0163   0.00    3.0
2173 184200.000    281408.8853  -5147272.3900   3743528.7889   2   6   0.0280   0.0348   0.0238  -0.0146  -0.0062  -0.0163   0.00    3.0
2173 184201.000    281408.8825  -5147272.3827   3743528.7817   2   6   0.0279   0.0348   0.0238  -0.0146  -0.0059  -0.0162   0.00    3.0
2173 184202.000    281408.8830  -5147272.3772   3743528.7784   2   6   0.0279   0.0347   0.0238  -0.0146  -0.0058  -0.0162   0.00    3.0
2173 184203.000    281408.8856  -5147272.3739   3743528.7748   2   6   0.0278   0.0346   0.0237  -0.0146  -0.0057  -0.0162   0.00    3.0
2173 184204.000    281408.8871  -5147272.3647   3743528.7634   2   6   0.0278   0.0345   0.0236  -0.0146  -0.0057  -0.0162   0.00    3.0
2173 184205.000    281408.8830  -5147272.3567   3743528.7607   2   6   0.0277   0.0344   0.0235  -0.0146  -0.0056  -0.0162   0.00    3.0
2173 184206.000    281408.8862  -5147272.3544   3743528.7536   2   6   0.0277   0.0344   0.0235  -0.0145  -0.0054  -0.0162   0.00    3.0
2173 184207.000    281408.8866  -5147272.3552   3743528.7490   2   6   0.0277   0.0343   0.0234  -0.0146  -0.0054  -0.0162   0.00    3.0
2173 184208.000    281408.8840  -5147272.3388   3743528.7436   2   6   0.0277   0.0342   0.0234  -0.0145  -0.0051  -0.0161   0.00    3.0
2173 184209.000    281408.8855  -5147272.3355   3743528.7382   2   6   0.0277   0.0341   0.0233  -0.0145  -0.0052  -0.0160   0.00    2.9
2173 184210.000    281408.8863  -5147272.3343   3743528.7339   2   6   0.0276   0.0340   0.0233  -0.0144  -0.0051  -0.0160   0.00    2.9
2173 184211.000    281408.8833  -5147272.3263   3743528.7262   2   6   0.0275   0.0340   0.0232  -0.0144  -0.0048  -0.0160   0.00    2.9
2173 184212.000    281408.8850  -5147272.3208   3743528.7242   2   6   0.0275   0.0339   0.0231  -0.0144  -0.0048  -0.0159   0.00    2.9
2173 184213.000    281408.8834  -5147272.3112   3743528.7151   2   6   0.0274   0.0339   0.0231  -0.0144  -0.0046  -0.0160   0.00    2.9
2173 184214.000    281408.8853  -5147272.3057   3743528.7110   2   6   0.0274   0.0338   0.0230  -0.0144  -0.0047  -0.0159   0.00    2.9
2173 184215.000    281408.8780  -5147272.2751   3743528.7036   2   6   0.0274   0.0337   0.0229  -0.0144  -0.0045  -0.0158   0.00    2.9
2173 184216.000    281408.8784  -5147272.2835   3743528.7066   2   6   0.0273   0.0336   0.0229  -0.0144  -0.0043  -0.0159   0.00    2.9
2173 184217.000    281408.8801  -5147272.2899   3743528.7060   2   6   0.0273   0.0336   0.0228  -0.0144  -0.0042  -0.0158   0.00    2.9
2173 184218.000    281408.8802  -5147272.2987   3743528.7077   2   6   0.0272   0.0335   0.0227  -0.0143  -0.0042  -0.0158   0.00    3.0
2173 184219.000    281408.8823  -5147272.3018   3743528.7059   2   6   0.0272   0.0334   0.0227  -0.0144  -0.0041  -0.0159   0.00    3.0
2173 184220.000    281408.8818  -5147272.3014   3743528.7047   2   6   0.0272   0.0333   0.0226  -0.0142  -0.0039  -0.0158   0.00    3.0
2173 184221.000    281408.8824  -5147272.3092   3743528.7055   2   6   0.0271   0.0333   0.0226  -0.0143  -0.0039  -0.0158   0.00    3.0
2173 184222.000    281408.8837  -5147272.3096   3743528.7040   2   6   0.0271   0.0332   0.0226  -0.0143  -0.0038  -0.0157   0.00    3.0
2173 184223.000    281408.8847  -5147272.3069   3743528.7041   2   6   0.0270   0.0331   0.0225  -0.0143  -0.0036  -0.0158   0.00    3.0
2173 184224.000    281408.8835  -5147272.3151   3743528.7058   2   6   0.0271   0.0330   0.0225  -0.0142  -0.0034  -0.0157   0.00    3.0
2173 184225.000    281408.9392  -5147272.3947   3743528.7308   1   6   0.0050   0.0117   0.0101   0.0005  -0.0093  -0.0040   0.00    3.0
2173 184226.000    281408.9424  -5147272.3948   3743528.7300   1   6   0.0053   0.0117   0.0102  -0.0010  -0.0093  -0.0040   0.00    3.0
2173 184227.000    281408.9406  -5147272.3955   3743528.7328   1   6   0.0050   0.0117   0.0101  -0.0014  -0.0093  -0.0044   0.00    3.0
2173 184228.000    281408.9438  -5147272.3979   3743528.7324   1   6   0.0052   0.0116   0.0101   0.0010  -0.0093  -0.0038   0.00    3.0
2173 184229.000    281408.9400  -5147272.3986   3743528.7344   1   6   0.0051   0.0118   0.0102   0.0007  -0.0091  -0.0043   0.00    3.0
2173 184230.000    281408.9367  -5147272.3846   3743528.7306   1   6   0.0051   0.0118   0.0102  -0.0004  -0.0092  -0.0040   0.00    3.0
2173 184231.000    281408.9354  -5147272.3878   3743528.7333   1   6   0.0050   0.0116   0.0100   0.0012  -0.0093  -0.0040   0.00    3.1
2173 184232.000    281408.9322  -5147272.3845   3743528.7332   1   6   0.0051   0.0117   0.0101   0.0011  -0.0093  -0.0038   0.00    3.1
2173 184233.000    281408.9305  -5147272.3822   3743528.7330   1   6   0.0052   0.0116   0.0101   0.0012  -0.0093  -0.0040   0.00    3.1
2173 184234.000    281408.9349  -5147272.3860   3743528.7306   1   6   0.0052   0.0117   0.0102  -0.0008  -0.0093  -0.0039   0.00    3.1
2173 184235.000    281408.9320  -5147272.3844   3743528.7312   1   6   0.0054   0.0117   0.0101  -0.0011  -0.0093  -0.0040   0.00    3.1
2173 184236.000    281408.9319  -5147272.3849   3743528.7325   1   6   0.0052   0.0117   0.0101  -0.0005  -0.0093  -0.0039   0.00    3.1
2173 184237.000    281408.9317  -5147272.3843   3743528.7322   1   6   0.0051   0.0117   0.0102   0.0008  -0.0092  -0.0040   0.00    3.1
2173 184238.000    281408.9323  -5147272.3938   3743528.7390   1   6   0.0051   0.0116   0.0101  -0.0006  -0.0092  -0.0039   0.00    3.1
2173 184239.000    281408.9327  -5147272.3870   3743528.7352   1   6   0.0052   0.0116   0.0100   0.0012  -0.0093  -0.0039   0.00    3.1
2173 184240.000    281408.9354  -5147272.3909   3743528.7394   1   6   0.0052   0.0117   0.0101  -0.0012  -0.0092  -0.0042   0.00    3.1
2173 184241.000    281408.9362  -5147272.3916   3743528.7356   1   6   0.0053   0.0117   0.0101  -0.0012  -0.0092  -0.0041   0.00    3.2
2173 184242.000    281408.9372  -5147272.3930   3743528.7360   1   6   0.0050   0.0116   0.0101   0.0010  -0.0092  -0.0040   0.00    3.2
2173 184243.000    281408.9400  -5147272.4001   3743528.7373   1   6   0.0050   0.0117   0.0101   0.0010  -0.0092  -0.0040   0.00    3.2
2173 184244.000    281408.9367  -5147272.3987   3743528.7400   1   6   0.0050   0.0116   0.0100  -0.0012  -0.0092  -0.0041   0.00    3.1
2173 184245.000    281408.9385  -5147272.3978   3743528.7396   1   6   0.0052   0.0116   0.0101   0.0009  -0.0092  -0.0038   0.00    3.1
2173 184246.000    281408.9377  -5147272.4068   3743528.7472   1   6   0.0050   0.0117   0.0100   0.0003  -0.0092  -0.0041   0.00    3.1
2173 184247.000    281408.9418  -5147272.4086   3743528.7450   1   6   0.0052   0.0116   0.0101  -0.0007  -0.0092  -0.0038   0.00    3.1
2173 184248.000    281408.9348  -5147272.3991   3743528.7465   1   6   0.0049   0.0115   0.0100  -0.0011  -0.0093  -0.0041   0.00    3.1
2173 184249.000    281408.9391  -5147272.4030   3743528.7481   1   6   0.0054   0.0117   0.0101  -0.0010  -0.0092  -0.0039   0.00    3.1
2173 184250.000    281408.9420  -5147272.4028   3743528.7472   1   6   0.0053   0.0116   0.0100  -0.0007  -0.0092  -0.0038   0.00    3.1
2173 184251.000    281408.9398  -5147272.4053   3743528.7501   1   6   0.0050   0.0116   0.0100  -0.0006  -0.0092  -0.0041   0.00    3.1
2173 184252.000    281408.9386  -5147272.4040   3743528.7452   1   6   0.0052   0.0117   0.0101   0.0013  -0.0092  -0.0037   0.00    3.1
2173 184253.000    281408.9383  -5147272.4120   3743528.7486   1   6   0.0051   0.0116   0.0101  -0.0012  -0.0092  -0.0040   0.00    3.1
2173 184254.000    281408.9380  -5147272.4148   3743528.7489   1   6   0.0050   0.0116   0.0101   0.0009  -0.0092  -0.0042   0.00    3.1
2173 184255.000    281408.9387  -5147272.4107   3743528.7444   1   6   0.0050   0.0117   0.0100   0.0006  -0.0092  -0.0041   0.00    3.1
2173 184256.000    281408.9377  -5147272.4116   3743528.7454   1   6   0.0052   0.0116   0.0100  -0.0011  -0.0092  -0.0041   0.00    3.1
2173 184257.000    281408.9369  -5147272.4153   3743528.7476   1   6   0.0053   0.0117   0.0101  -0.0004  -0.0091  -0.0039   0.00    3.1
2173 184258.000    281408.9369  -5147272.4094   3743528.7434   1   6   0.0052   0.0117   0.0101  -0.0007  -0.0091  -0.0041   0.00    3.1
2173 184259.000    281408.9347  -5147272.4070   3743528.7470   1   6   0.0054   0.0116   0.0101  -0.0012  -0.0092  -0.0041   0.00    3.1
2173 184260.000    281408.9369  -5147272.4140   3743528.7524   1   6   0.0051   0.0116   0.0101  -0.0007  -0.0092  -0.0039   0.00    3.1
2173 184261.000    281408.9386  -5147272.4169   3743528.7489   1   6   0.0053   0.0117   0.0101  -0.0004  -0.0091  -0.0040   0.00    3.1
2173 184262.000    281408.9351  -5147272.4152   3743528.7517   1   6   0.0052   0.0117   0.0100  -0.0007  -0.0092  -0.0039   0.00    3.1
2173 184263.000    281408.9376  -5147272.4171   3743528.7497   1   6   0.0052   0.0116   0.0101  -0.0005  -0.0091  -0.0040   0.00    3.1
2173 184264.000    281408.9330  -5147272.4166   3743528.7546   1   6   0.0052   0.0117   0.0101  -0.0005  -0.0091  -0.0039   0.00    3.1
2173 184265.000    281408.9320  -5147272.4119   3743528.7506   1   6   0.0050   0.0116   0.0100  -0.0013  -0.0092  -0.0040   0.00    3.0
2173 184266.000    281408.9326  -5147272.4190   3743528.7522   1   6   0.0053   0.0117   0.0100  -0.0011  -0.0091  -0.0040   0.00    3.0
2173 184267.000    281408.9332  -5147272.4179   3743528.7496   1   6   0.0049   0.0116   0.0099  -0.0013  -0.0092  -0.0042   0.00    3.0
2173 184268.000    281408.9296  -5147272.4214   3743528.7551   1   6   0.0053   0.0117   0.0100  -0.0003  -0.0091  -0.0038   0.00    3.0
2173 184269.000    281408.9298  -5147272.4206   3743528.7560   1   6   0.0053   0.0117   0.0101  -0.0018  -0.0091  -0.0042   0.00    3.0
2173 184270.000    281408.9303  -5147272.4230   3743528.7551   1   6   0.0052   0.0117   0.0100   0.0002  -0.0091  -0.0038   0.00    3.0
2173 184271.000    281408.9297  -5147272.4196   3743528.7532   1   6   0.0051   0.0115   0.0099  -0.0003  -0.0093  -0.0040   0.00    3.0
2173 184272.000    281408.9299  -5147272.4229   3743528.7516   1   6   0.0052   0.0116   0.0100  -0.0008  -0.0091  -0.0040   0.00    3.0
2173 184273.000    281408.9151  -5147272.5744   3743528.6797   2   6   0.0255   0.0301   0.0201  -0.0135   0.0038  -0.0146   0.00    3.0
2173 184274.000    281408.9178  -5147272.4374   3743528.7658   1   6   0.0052   0.0117   0.0100  -0.0011  -0.0091  -0.0039   0.00    3.0
2173 184275.000    281408.9196  -5147272.4331   3743528.7596   1   6   0.0053   0.0116   0.0100  -0.0011  -0.0092  -0.0039   0.00    3.0
2173 184276.000    281408.9213  -5147272.4366   3743528.7635   1   6   0.0050   0.0116   0.0099   0.0002  -0.0091  -0.0039   0.00    3.0
2173 184277.000    281408.9213  -5147272.4353   3743528.7653   1   6   0.0053   0.0116   0.0100  -0.0010  -0.0091  -0.0039   0.00    3.0
2173 184278.000    281408.9212  -5147272.4341   3743528.7664   1   6   0.0052   0.0116   0.0099  -0.0013  -0.0091  -0.0041   0.00    3.0
2173 184279.000    281408.9210  -5147272.4307   3743528.7675   1   6   0.0054   0.0117   0.0100  -0.0009  -0.0091  -0.0041   0.00    3.1
2173 184280.000    281408.9228  -5147272.4375   3743528.7720   1   6   0.0050   0.0116   0.0101  -0.0013  -0.0091  -0.0039   0.00    3.1
2173 184281.000    281408.9230  -5147272.4431   3743528.7690   1   6   0.0052   0.0117   0.0100  -0.0009  -0.0090  -0.0040   0.00    3.1
2173 184282.000    281408.9237  -5147272.4482   3743528.7709   1   6   0.0055   0.0116   0.0101  -0.0004  -0.0091  -0.0037   0.00    3.1
2173 184283.000    281408.9224  -5147272.4550   3743528.7704   1   6   0.0050   0.0116   0.0099  -0.0012  -0.0091  -0.0040   0.00    3.1
2173 184284.000    281408.9214  -5147272.4670   3743528.7813   1   6   0.0054   0.0117   0.0100  -0.0017  -0.0091  -0.0041   0.00    3.1
2173 184285.000    281408.9261  -5147272.4669   3743528.7769   1   6   0.0053   0.0116   0.0099  -0.0014  -0.0091  -0.0040   0.00    3.1
2173 184286.000    281408.9074  -5147272.4648   3743528.8478   1   6   0.0053   0.0116   0.0100  -0.0008  -0.0091  -0.0038   0.00    3.1
2173 184287.000    281408.9073  -5147272.4613   3743528.8491   1   6   0.0051   0.0116   0.0100  -0.0015  -0.0091  -0.0039   0.00    3.1
2173 184288.000    281408.9061  -5147272.4606   3743528.8495   1   6   0.0049   0.0116   0.0099  -0.0013  -0.0091  -0.0041   0.00    3.2
2173 184289.000    281408.9068  -5147272.4548   3743528.8442   1   6   0.0052   0.0116   0.0098  -0.0013  -0.0092  -0.0040   0.00    3.2
2173 184290.000    281408.9063  -5147272.4545   3743528.8436   1   6   0.0054   0.0116   0.0099  -0.0012  -0.0091  -0.0038   0.00    3.2
2173 184291.000    281408.9073  -5147272.4582   3743528.8459   1   6   0.0050   0.0115   0.0099  -0.0012  -0.0092  -0.0042   0.00    3.2
2173 184292.000    281408.9081  -5147272.4540   3743528.8425   1   6   0.0053   0.0115   0.0099  -0.0005  -0.0092  -0.0037   0.00    3.2
2173 184293.000    281408.9074  -5147272.4490   3743528.8402   1   6   0.0054   0.0116   0.0100  -0.0014  -0.0091  -0.0039   0.00    3.2
2173 184294.000    281408.9057  -5147272.4479   3743528.8414   1   6   0.0053   0.0116   0.0100  -0.0012  -0.0090  -0.0039   0.00    3.2
2173 184295.000    281408.9066  -5147272.4497   3743528.8412   1   6   0.0053   0.0116   0.0099  -0.0005  -0.0091  -0.0038   0.00    3.2
2173 184296.000    281408.9031  -5147272.4408   3743528.8381   1   6   0.0051   0.0115   0.0099  -0.0011  -0.0092  -0.0040   0.00    3.2
