% program   : rnx2rtkp ver.2.4.3 b31
% inp file  : ngs/21_09_01_10_42_44_msme.obs
% inp file  : ngs/21_09_01_10_42_44_msme_P1.obs
% inp file  : ngs/21_09_01_10_42_44_brdc.nav
% obs start : 2021/09/01 10:00:00.0 GPST (week2173 295200.0s)
% obs end   : 2021/09/01 10:59:59.0 GPST (week2173 298799.0s)
% ref pos   :   125061.8430  -5391554.9860   3394068.6240
%
% (x/y/z-ecef=WGS84,Q=1:fix,2:float,3:sbas,4:dgps,5:single,6:ppp,ns=# of satellites)
%  GPST              x-ecef(m)      y-ecef(m)      z-ecef(m)   Q  ns   sdx(m)   sdy(m)   sdz(m)  sdxy(m)  sdyz(m)  sdzx(m) age(s)  ratio
2173 297739.000    119286.0299  -5391117.0340   3394977.4826   2   8   0.6119   1.1214   0.6055  -0.6251  -0.6653   0.3222 -30.00    1.7
2173 297740.000    119286.2154  -5391117.2138   3394977.5116   2   8   0.4350   0.7981   0.4305  -0.4437  -0.4733   0.2286 -29.00    2.3
2173 297741.000    119286.1582  -5391116.9923   3394977.4083   2   8   0.3561   0.6535   0.3525  -0.3632  -0.3876   0.1871 -28.00    2.2
2173 297742.000    119286.1895  -5391116.9918   3394977.4223   2   8   0.3090   0.5670   0.3058  -0.3151  -0.3363   0.1624 -27.00    2.3
2173 297743.000    119286.2101  -5391116.9470   3394977.3840   2   8   0.2768   0.5078   0.2739  -0.2823  -0.3012   0.1455 -26.00    2.5
2173 297744.000    119286.2516  -5391116.9907   3394977.3964   2   8   0.2530   0.4640   0.2503  -0.2580  -0.2752   0.1330 -25.00    2.6
2173 297745.000    119286.2818  -5391117.0428   3394977.4202   2   8   0.2344   0.4299   0.2320  -0.2390  -0.2550   0.1233 -24.00    2.7
2173 297746.000    119286.3123  -5391117.1089   3394977.4675   2   8   0.2195   0.4023   0.2171  -0.2238  -0.2387   0.1154 -23.00    2.8
2173 297747.000    119286.2902  -5391117.1009   3394977.4687   2   8   0.2070   0.3795   0.2048  -0.2110  -0.2251   0.1088 -22.00    2.8
2173 297748.000    119286.3006  -5391117.1338   3394977.4732   2   8   0.1965   0.3600   0.1943  -0.2002  -0.2136   0.1033 -21.00    2.9
2173 297749.000    119286.2834  -5391117.1435   3394977.4818   2   8   0.1873   0.3433   0.1853  -0.1909  -0.2037   0.0985 -20.00    2.9
2173 297750.000    119286.9626  -5391117.9948   3394977.3310   1   8   0.0257   0.0418   0.0235  -0.0289  -0.0260   0.0162 -19.00    3.0
2173 297751.000    119286.9646  -5391117.9966   3394977.3328   1   8   0.0245   0.0398   0.0223  -0.0275  -0.0247   0.0154 -18.00    3.2
2173 297752.000    119286.9628  -5391117.9978   3394977.3317   1   8   0.0232   0.0378   0.0212  -0.0261  -0.0235   0.0146 -17.00    3.2
2173 297753.000    119286.9629  -5391117.9985   3394977.3340   1   8   0.0220   0.0358   0.0201  -0.0246  -0.0222   0.0138 -16.00    3.3
2173 297754.000    119286.9659  -5391118.0027   3394977.3339   1   8   0.0207   0.0338   0.0189  -0.0232  -0.0209   0.0129 -15.00    3.3
2173 297755.000    119286.9644  -5391118.0013   3394977.3332   1   8   0.0195   0.0318   0.0178  -0.0218  -0.0197   0.0121 -14.00    3.3
2173 297756.000    119286.9640  -5391117.9997   3394977.3317   1   8   0.0183   0.0299   0.0167  -0.0204  -0.0185   0.0113 -13.00    3.4
2173 297757.000    119286.9614  -5391117.9954   3394977.3299   1   8   0.0171   0.0280   0.0156  -0.0190  -0.0173   0.0105 -12.00    3.5
2173 297758.000    119286.9618  -5391117.9967   3394977.3307   1   8   0.0159   0.0261   0.0145  -0.0177  -0.0161   0.0098 -11.00    3.5
2173 297759.000    119286.9596  -5391117.9957   3394977.3312   1   8   0.0147   0.0242   0.0134  -0.0163  -0.0149   0.0090 -10.00    3.6
2173 297760.000    119286.9593  -5391117.9926   3394977.3299   1   8   0.0135   0.0224   0.0124  -0.0149  -0.0137   0.0082  -9.00    3.8
2173 297761.000    119286.9592  -5391117.9911   3394977.3290   1   8   0.0123   0.0206   0.0114  -0.0136  -0.0126   0.0074  -8.00    4.0
2173 297762.000    119286.9595  -5391117.9892   3394977.3280   1   8   0.0112   0.0189   0.0104  -0.0123  -0.0115   0.0067  -7.00    4.2
2173 297763.000    119286.9607  -5391117.9902   3394977.3272   1   8   0.0102   0.0172   0.0096  -0.0111  -0.0105   0.0061  -6.00    4.5
2173 297764.000    119286.9601  -5391117.9909   3394977.3265   1   8   0.0091   0.0157   0.0085  -0.0098  -0.0094   0.0052  -5.00    4.8
2173 297765.000    119286.9619  -5391117.9895   3394977.3241   1   8   0.0082   0.0143   0.0077  -0.0087  -0.0085   0.0045  -4.00    5.1
2173 297766.000    119286.9611  -5391117.9902   3394977.3255   1   8   0.0075   0.0130   0.0072  -0.0078  -0.0078   0.0041  -3.00    5.6
2173 297767.000    119286.9643  -5391117.9920   3394977.3247   1   8   0.0067   0.0121   0.0065  -0.0069  -0.0072   0.0034  -2.00    6.0
2173 297768.000    119286.9640  -5391117.9904   3394977.3232   1   8   0.0064   0.0115   0.0062  -0.0063  -0.0067   0.0033  -1.00    6.5
2173 297769.000    119286.9658  -5391117.9901   3394977.3226   1   8   0.0060   0.0113   0.0063  -0.0062  -0.0067   0.0034   0.00    7.0
2173 297770.000    119286.9670  -5391117.9935   3394977.3233   1   8   0.0061   0.0113   0.0061  -0.0062  -0.0067   0.0032   0.00    6.7
2173 297771.000    119286.9642  -5391117.9901   3394977.3222   1   8   0.0061   0.0113   0.0061  -0.0062  -0.0067   0.0032   0.00    7.8
2173 297772.000    119286.9643  -5391117.9851   3394977.3212   1   8   0.0061   0.0113   0.0061  -0.0062  -0.0067   0.0032   0.00    9.2
2173 297773.000    119286.9654  -5391117.9914   3394977.3237   1   8   0.0061   0.0113   0.0061  -0.0062  -0.0067   0.0032   0.00    9.8
2173 297774.000    119286.9676  -5391117.9882   3394977.3221   1   8   0.0061   0.0113   0.0061  -0.0062  -0.0067   0.0032   0.00    9.8
2173 297775.000    119286.9649  -5391117.9916   3394977.3232   1   8   0.0061   0.0113   0.0061  -0.0062  -0.0067   0.0032   0.00    8.7
2173 297776.000    119286.9652  -5391117.9904   3394977.3211   1   8   0.0061   0.0113   0.0061  -0.0062  -0.0067   0.0032   0.00    9.7
2173 297777.000    119286.9672  -5391117.9954   3394977.3233   1   8   0.0061   0.0113   0.0061  -0.0062  -0.0067   0.0032   0.00    7.6
2173 297778.000    119286.9667  -5391117.9977   3394977.3244   1   8   0.0061   0.0113   0.0061  -0.0062  -0.0067   0.0032   0.00    8.6
2173 297779.000    119286.9660  -5391117.9933   3394977.3222   1   8   0.0061   0.0113   0.0061  -0.0062  -0.0067   0.0032   0.00    8.8
2173 297780.000    119286.9676  -5391117.9949   3394977.3239   1   8   0.0061   0.0113   0.0061  -0.0062  -0.0067   0.0032   0.00    9.0
2173 297781.000    119286.9686  -5391117.9959   3394977.3257   1   8   0.0061   0.0113   0.0061  -0.0062  -0.0067   0.0032   0.00   11.7
2173 297782.000    119286.9655  -5391117.9910   3394977.3237   1   8   0.0061   0.0113   0.0061  -0.0062  -0.0067   0.0032   0.00   10.9
2173 297783.000    119286.9665  -5391117.9903   3394977.3248   1   8   0.0061   0.0113   0.0061  -0.0062  -0.0067   0.0032   0.00    9.0
2173 297784.000    119286.9675  -5391117.9936   3394977.3249   1   8   0.0061   0.0113   0.0061  -0.0062  -0.0067   0.0032   0.00    7.7
2173 297785.000    119286.9664  -5391117.9922   3394977.3225   1   8   0.0061   0.0113   0.0061  -0.0062  -0.0067   0.0032   0.00   11.1
2173 297786.000    119286.9650  -5391117.9909   3394977.3240   1   8   0.0061   0.0113   0.0061  -0.0062  -0.0067   0.0032   0.00   10.3
2173 297787.000    119286.9652  -5391117.9902   3394977.3236   1   8   0.0061   0.0113   0.0061  -0.0062  -0.0067   0.0032   0.00    8.0
2173 297788.000    119286.9659  -5391117.9928   3394977.3226   1   8   0.0061   0.0113   0.0061  -0.0062  -0.0067   0.0032   0.00    7.6
2173 297789.000    119286.9682  -5391117.9954   3394977.3240   1   8   0.0061   0.0113   0.0061  -0.0062  -0.0067   0.0032   0.00    9.0
2173 297790.000    119286.9646  -5391117.9952   3394977.3248   1   8   0.0061   0.0113   0.0061  -0.0062  -0.0067   0.0032   0.00    8.9
2173 297791.000    119286.9676  -5391117.9951   3394977.3237   1   8   0.0061   0.0113   0.0061  -0.0062  -0.0067   0.0032   0.00   12.0
2173 297792.000    119286.9668  -5391117.9937   3394977.3231   1   8   0.0061   0.0113   0.0061  -0.0062  -0.0067   0.0032   0.00   11.3
2173 297793.000    119286.9680  -5391117.9950   3394977.3230   1   8   0.0061   0.0113   0.0061  -0.0062  -0.0067   0.0032   0.00   12.6
2173 297794.000    119286.9684  -5391117.9987   3394977.3258   1   8   0.0061   0.0113   0.0061  -0.0062  -0.0067   0.0032   0.00   13.9
2173 297795.000    119286.9651  -5391117.9952   3394977.3245   1   8   0.0061   0.0113   0.0061  -0.0062  -0.0067   0.0032   0.00   13.6
2173 297796.000    119286.9668  -5391117.9975   3394977.3262   1   8   0.0061   0.0113   0.0061  -0.0062  -0.0067   0.0032   0.00   19.1
2173 297797.000    119286.9676  -5391117.9954   3394977.3251   1   8   0.0061   0.0113   0.0061  -0.0062  -0.0067   0.0032   0.00   15.6
2173 297798.000    119286.9690  -5391118.0004   3394977.3266   1   8   0.0061   0.0113   0.0061  -0.0062  -0.0067   0.0032   0.00   12.2
2173 297799.000    119286.9683  -5391117.9976   3394977.3265   1   8   0.0061   0.0113   0.0061  -0.0062  -0.0067   0.0032   0.00   15.0
2173 297800.000    119286.9641  -5391117.9967   3394977.3246   1   8   0.0061   0.0113   0.0061  -0.0062  -0.0067   0.0032   0.00   13.8
2173 297801.000    119286.9641  -5391117.9949   3394977.3255   1   8   0.0061   0.0113   0.0061  -0.0062  -0.0067   0.0032   0.00   12.2
2173 297802.000    119286.9672  -5391117.9959   3394977.3244   1   8   0.0061   0.0113   0.0061  -0.0062  -0.0067   0.0032   0.00   13.5
2173 297803.000    119286.9659  -5391117.9978   3394977.3258   1   8   0.0061   0.0113   0.0061  -0.0062  -0.0067   0.0032   0.00   12.1
2173 297804.000    119286.9664  -5391117.9976   3394977.3265   1   8   0.0061   0.0113   0.0061  -0.0062  -0.0067   0.0032   0.00   16.3
2173 297805.000    119286.9680  -5391117.9990   3394977.3270   1   8   0.0061   0.0113   0.0061  -0.0062  -0.0067   0.0032   0.00   13.0
2173 297806.000    119286.9667  -5391117.9963   3394977.3255   1   8   0.0061   0.0113   0.0061  -0.0062  -0.0067   0.0032   0.00    9.7
2173 297807.000    119286.9672  -5391117.9950   3394977.3245   1   8   0.0061   0.0113   0.0061  -0.0062  -0.0067   0.0032   0.00   12.9
2173 297808.000    119286.9663  -5391117.9984   3394977.3256   1   8   0.0061   0.0113   0.0061  -0.0062  -0.0067   0.0032   0.00   21.4
2173 297809.000    119286.9661  -5391117.9962   3394977.3262   1   8   0.0061   0.0113   0.0061  -0.0062  -0.0067   0.0032   0.00   12.9
2173 297810.000    119286.9650  -5391117.9944   3394977.3257   1   8   0.0061   0.0113   0.0061  -0.0062  -0.0067   0.0032   0.00   12.4
2173 297811.000    119286.9650  -5391117.9926   3394977.3236   1   8   0.0061   0.0112   0.0061  -0.0062  -0.0067   0.0032   0.00   13.5
2173 297812.000    119286.9668  -5391117.9949   3394977.3251   1   8   0.0061   0.0112   0.0061  -0.0062  -0.0067   0.0032   0.00   15.2
2173 297813.000    119286.9663  -5391117.9941   3394977.3249   1   8   0.0061   0.0112   0.0061  -0.0062  -0.0067   0.0032   0.00   16.4
2173 297814.000    119286.9671  -5391117.9935   3394977.3239   1   8   0.0061   0.0112   0.0061  -0.0062  -0.0067   0.0032   0.00   12.6
2173 297815.000    119286.9669  -5391117.9921   3394977.3222   1   8   0.0061   0.0112   0.0061  -0.0062  -0.0067   0.0032   0.00   13.5
2173 297816.000    119286.9670  -5391117.9930   3394977.3233   1   8   0.0061   0.0112   0.0061  -0.0062  -0.0067   0.0032   0.00   13.9
2173 297817.000    119286.9674  -5391117.9980   3394977.3252   1   8   0.0061   0.0112   0.0061  -0.0062  -0.0067   0.0032   0.00   10.2
2173 297818.000    119286.9660  -5391117.9972   3394977.3236   1   8   0.0061   0.0112   0.0061  -0.0062  -0.0067   0.0032   0.00    8.3
2173 297819.000    119286.9669  -5391117.9963   3394977.3230   1   8   0.0061   0.0112   0.0061  -0.0062  -0.0067   0.0032   0.00   11.2
2173 297820.000    119286.9692  -5391118.0003   3394977.3228   1   8   0.0061   0.0112   0.0061  -0.0062  -0.0067   0.0032   0.00   13.0
2173 297821.000    119286.9663  -5391117.9955   3394977.3238   1   8   0.0061   0.0112   0.0061  -0.0062  -0.0067   0.0032   0.00   10.0
2173 297822.000    119286.9665  -5391117.9976   3394977.3237   1   8   0.0061   0.0112   0.0061  -0.0062  -0.0067   0.0032   0.00   11.6
2173 297823.000    119286.9663  -5391117.9942   3394977.3241   1   8   0.0061   0.0112   0.0061  -0.0062  -0.0067   0.0032   0.00   14.6
2173 297824.000    119286.9693  -5391117.9936   3394977.3218   1   8   0.0061   0.0112   0.0061  -0.0062  -0.0067   0.0032   0.00   12.3
2173 297825.000    119286.9675  -5391117.9942   3394977.3234   1   8   0.0061   0.0112   0.0061  -0.0062  -0.0067   0.0032   0.00   17.9
2173 297826.000    119286.9651  -5391117.9930   3394977.3221   1   8   0.0061   0.0112   0.0061  -0.0062  -0.0067   0.0032   0.00   11.8
2173 297827.000    119286.9675  -5391117.9964   3394977.3233   1   8   0.0061   0.0112   0.0061  -0.0062  -0.0067   0.0032   0.00   15.9
2173 297828.000    119286.9667  -5391117.9951   3394977.3249   1   8   0.0061   0.0112   0.0061  -0.0062  -0.0067   0.0032   0.00   10.7
2173 297829.000    119286.9675  -5391117.9923   3394977.3223   1   8   0.0061   0.0112   0.0061  -0.0062  -0.0067   0.0032   0.00   14.4
2173 297830.000    119286.9664  -5391117.9942   3394977.3232   1   8   0.0061   0.0112   0.0061  -0.0062  -0.0067   0.0032   0.00    9.6
2173 297831.000    119286.9682  -5391117.9904   3394977.3230   1   8   0.0061   0.0112   0.0061  -0.0062  -0.0067   0.0032   0.00   11.5
2173 297832.000    119286.9658  -5391117.9922   3394977.3233   1   8   0.0062   0.0112   0.0061  -0.0062  -0.0067   0.0032   0.00   11.2
2173 297833.000    119286.9670  -5391117.9933   3394977.3228   1   8   0.0062   0.0112   0.0061  -0.0062  -0.0067   0.0032   0.00    9.3
2173 297834.000    119286.9682  -5391117.9949   3394977.3238   1   8   0.0062   0.0112   0.0061  -0.0062  -0.0067   0.0032   0.00   12.0
2173 297835.000    119286.9670  -5391117.9900   3394977.3225   1   8   0.0062   0.0112   0.0061  -0.0062  -0.0067   0.0032   0.00   10.2
2173 297836.000    119286.9672  -5391117.9905   3394977.3223   1   8   0.0062   0.0112   0.0061  -0.0062  -0.0067   0.0032   0.00    9.0
2173 297837.000    119286.9688  -5391117.9952   3394977.3230   1   8   0.0062   0.0112   0.0061  -0.0062  -0.0067   0.0032   0.00    9.9
2173 297838.000    119286.9646  -5391117.9890   3394977.3214   1   8   0.0062   0.0112   0.0061  -0.0062  -0.0067   0.0032   0.00    7.2
2173 297839.000    119286.9683  -5391117.9901   3394977.3205   1   8   0.0062   0.0112   0.0061  -0.0062  -0.0067   0.0032   0.00    9.2
2173 297840.000    119286.9673  -5391117.9923   3394977.3211   1   8   0.0062   0.0112   0.0061  -0.0062  -0.0067   0.0032   0.00    8.2
2173 297841.000    119286.9670  -5391117.9936   3394977.3214   1   8   0.0062   0.0112   0.0061  -0.0062  -0.0067   0.0032   0.00    8.3
2173 297842.000    119286.9661  -5391117.9877   3394977.3212   1   8   0.0062   0.0112   0.0061  -0.0062  -0.0067   0.0032   0.00    9.1
2173 297843.000    119286.9653  -5391117.9875   3394977.3222   1   8   0.0062   0.0112   0.0061  -0.0062  -0.0067   0.0032   0.00    7.6
2173 297844.000    119286.9681  -5391117.9896   3394977.3217   1   8   0.0062   0.0112   0.0061  -0.0062  -0.0067   0.0032   0.00    7.9
2173 297845.000    119286.9673  -5391117.9884   3394977.3216   1   8   0.0062   0.0112   0.0061  -0.0062  -0.0067   0.0032   0.00    9.8
2173 297846.000    119286.9697  -5391117.9922   3394977.3213   1   8   0.0062   0.0112   0.0061  -0.0062  -0.0067   0.0032   0.00    7.6
2173 297847.000    119286.9670  -5391117.9926   3394977.3232   1   8   0.0062   0.0112   0.0061  -0.0062  -0.0067   0.0032   0.00    8.5
2173 297848.000    119286.9665  -5391117.9909   3394977.3222   1   8   0.0062   0.0112   0.0061  -0.0062  -0.0067   0.0032   0.00    7.8
2173 297849.000    119286.9672  -5391117.9932   3394977.3235   1   8   0.0062   0.0112   0.0061  -0.0062  -0.0067   0.0032   0.00    7.2
2173 297850.000    119286.9695  -5391118.0005   3394977.3243   1   8   0.0062   0.0112   0.0061  -0.0062  -0.0067   0.0032   0.00    6.7
2173 297851.000    119286.9681  -5391117.9957   3394977.3231   1   8   0.0062   0.0112   0.0061  -0.0062  -0.0067   0.0032   0.00    6.6
2173 297852.000    119286.9660  -5391117.9930   3394977.3225   1   8   0.0062   0.0112   0.0061  -0.0062  -0.0067   0.0032   0.00    6.6
2173 297853.000    119286.9671  -5391117.9949   3394977.3221   1   8   0.0062   0.0112   0.0061  -0.0062  -0.0067   0.0032   0.00    6.8
2173 297854.000    119286.9689  -5391117.9958   3394977.3200   1   8   0.0062   0.0112   0.0061  -0.0062  -0.0067   0.0032   0.00    7.2
2173 297855.000    119286.9667  -5391117.9945   3394977.3217   1   8   0.0062   0.0112   0.0061  -0.0062  -0.0067   0.0032   0.00    7.6
2173 297856.000    119286.9683  -5391117.9991   3394977.3243   1   8   0.0062   0.0112   0.0061  -0.0062  -0.0067   0.0032   0.00    7.1
2173 297857.000    119286.9685  -5391117.9965   3394977.3232   1   8   0.0062   0.0112   0.0061  -0.0062  -0.0067   0.0032   0.00    7.6
2173 297858.000    119286.9670  -5391117.9966   3394977.3223   1   8   0.0062   0.0112   0.0061  -0.0062  -0.0067   0.0032   0.00    8.0
2173 297859.000    119286.9679  -5391117.9960   3394977.3234   1   8   0.0062   0.0112   0.0061  -0.0062  -0.0067   0.0032   0.00    7.9
2173 297860.000    119286.9682  -5391117.9975   3394977.3244   1   8   0.0062   0.0112   0.0061  -0.0062  -0.0067   0.0032   0.00    7.4
2173 297861.000    119286.9687  -5391117.9984   3394977.3242   1   8   0.0062   0.0112   0.0061  -0.0062  -0.0067   0.0032   0.00    7.8
2173 297862.000    119286.9678  -5391117.9981   3394977.3223   1   8   0.0062   0.0112   0.0061  -0.0062  -0.0067   0.0032   0.00    6.0
2173 297863.000    119286.9683  -5391117.9976   3394977.3222   1   8   0.0062   0.0112   0.0061  -0.0062  -0.0067   0.0032   0.00    6.8
2173 297864.000    119286.9671  -5391117.9951   3394977.3228   1   8   0.0062   0.0112   0.0061  -0.0062  -0.0067   0.0032   0.00    5.9
2173 297865.000    119286.9688  -5391117.9986   3394977.3221   1   8   0.0062   0.0112   0.0061  -0.0062  -0.0067   0.0032   0.00    5.7
2173 297866.000    119286.9667  -5391117.9927   3394977.3231   1   8   0.0062   0.0112   0.0061  -0.0062  -0.0067   0.0032   0.00    6.2
2173 297867.000    119286.9704  -5391117.9957   3394977.3235   1   8   0.0062   0.0112   0.0061  -0.0062  -0.0067   0.0032   0.00    7.9
2173 297868.000    119286.9669  -5391117.9924   3394977.3218   1   8   0.0062   0.0112   0.0061  -0.0062  -0.0067   0.0032   0.00    7.9
2173 297869.000    119286.9685  -5391117.9955   3394977.3224   1   8   0.0062   0.0112   0.0061  -0.0062  -0.0067   0.0032   0.00    7.1
2173 297870.000    119286.9687  -5391117.9939   3394977.3218   1   8   0.0062   0.0112   0.0061  -0.0062  -0.0067   0.0032   0.00    7.5
2173 297871.000    119286.9692  -5391117.9979   3394977.3241   1   8   0.0062   0.0112   0.0061  -0.0062  -0.0067   0.0032   0.00    6.6
2173 297872.000    119286.9689  -5391117.9961   3394977.3222   1   8   0.0062   0.0112   0.0061  -0.0062  -0.0067   0.0032   0.00    7.0
2173 297873.000    119286.9675  -5391117.9975   3394977.3241   1   8   0.0062   0.0112   0.0061  -0.0062  -0.0067   0.0032   0.00    7.1
2173 297874.000    119286.9690  -5391117.9981   3394977.3224   1   8   0.0062   0.0112   0.0061  -0.0062  -0.0067   0.0032   0.00    7.9
2173 297875.000    119286.9685  -5391117.9962   3394977.3219   1   8   0.0062   0.0112   0.0061  -0.0062  -0.0067   0.0032   0.00    7.7
2173 297876.000    119286.9682  -5391118.0002   3394977.3230   1   8   0.0062   0.0112   0.0061  -0.0062  -0.0067   0.0032   0.00    9.3
2173 297877.000    119286.9675  -5391117.9975   3394977.3227   1   8   0.0062   0.0112   0.0061  -0.0062  -0.0067   0.0032   0.00    8.1
2173 297878.000    119286.9664  -5391117.9951   3394977.3220   1   8   0.0062   0.0112   0.0061  -0.0062  -0.0067   0.0032   0.00    9.9
2173 297879.000    119286.9683  -5391117.9964   3394977.3218   1   8   0.0062   0.0112   0.0061  -0.0062  -0.0067   0.0032   0.00    8.6
2173 297880.000    119286.9687  -5391117.9952   3394977.3223   1   8   0.0062   0.0112   0.0061  -0.0062  -0.0067   0.0032   0.00    8.8
2173 297881.000    119286.9677  -5391117.9952   3394977.3228   1   8   0.0062   0.0112   0.0061  -0.0062  -0.0067   0.0032   0.00    9.1
2173 297882.000    119286.9689  -5391118.0004   3394977.3245   1   8   0.0062   0.0112   0.0061  -0.0062  -0.0067   0.0032   0.00    9.1
2173 297883.000    119286.9686  -5391117.9992   3394977.3235   1   8   0.0062   0.0112   0.0061  -0.0062  -0.0067   0.0032   0.00    9.0
2173 297884.000    119286.9688  -5391117.9976   3394977.3234   1   8   0.0062   0.0112   0.0061  -0.0062  -0.0067   0.0032   0.00    7.7
2173 297885.000    119286.9691  -5391117.9971   3394977.3238   1   8   0.0062   0.0112   0.0061  -0.0062  -0.0067   0.0032   0.00    7.7
2173 297886.000    119286.9654  -5391117.9925   3394977.3224   1   8   0.0062   0.0112   0.0061  -0.0062  -0.0067   0.0032   0.00    8.6
2173 297887.000    119286.9651  -5391117.9925   3394977.3222   1   8   0.0062   0.0112   0.0061  -0.0062  -0.0067   0.0032   0.00    6.1
2173 297888.000    119286.9663  -5391117.9957   3394977.3242   1   8   0.0062   0.0112   0.0061  -0.0062  -0.0067   0.0032   0.00    8.1
2173 297889.000    119286.9674  -5391117.9929   3394977.3213   1   8   0.0062   0.0112   0.0061  -0.0062  -0.0067   0.0032   0.00    8.9
2173 297890.000    119286.9681  -5391117.9951   3394977.3225   1   8   0.0062   0.0112   0.0061  -0.0062  -0.0067   0.0032   0.00    8.5
2173 297891.000    119286.9670  -5391117.9923   3394977.3205   1   8   0.0062   0.0112   0.0061  -0.0062  -0.0067   0.0032   0.00    7.5
2173 297892.000    119286.9673  -5391117.9966   3394977.3228   1   8   0.0062   0.0112   0.0061  -0.0062  -0.0067   0.0032   0.00    9.6
2173 297893.000    119286.9690  -5391117.9995   3394977.3244   1   8   0.0062   0.0112   0.0061  -0.0062  -0.0067   0.0032   0.00    9.1
2173 297894.000    119286.9667  -5391117.9986   3394977.3251   1   8   0.0062   0.0112   0.0061  -0.0062  -0.0067   0.0032   0.00    9.5
2173 297895.000    119286.9681  -5391117.9960   3394977.3239   1   8   0.0062   0.0112   0.0061  -0.0062  -0.0067   0.0032   0.00    8.0
2173 297896.000    119286.9673  -5391117.9982   3394977.3222   1   8   0.0062   0.0112   0.0061  -0.0062  -0.0067   0.0032   0.00   10.7
2173 297897.000    119286.9684  -5391117.9980   3394977.3233   1   8   0.0062   0.0112   0.0061  -0.0062  -0.0067   0.0032   0.00    8.7
2173 297898.000    119286.9662  -5391117.9961   3394977.3243   1   8   0.0062   0.0112   0.0061  -0.0062  -0.0067   0.0032   0.00    7.7
2173 297899.000    119286.9672  -5391117.9944   3394977.3227   1   8   0.0062   0.0112   0.0061  -0.0062  -0.0067   0.0032   0.00    8.4
2173 297900.000    119286.9682  -5391117.9965   3394977.3221   1   8   0.0062   0.0112   0.0061  -0.0062  -0.0067   0.0032   0.00    8.8
2173 297901.000    119286.9684  -5391117.9971   3394977.3210   1   8   0.0062   0.0112   0.0061  -0.0062  -0.0067   0.0032   0.00    9.0
2173 297902.000    119286.9693  -5391117.9952   3394977.3207   1   8   0.0062   0.0112   0.0061  -0.0062  -0.0067   0.0032   0.00    7.5
2173 297903.000    119286.9687  -5391117.9977   3394977.3220   1   8   0.0062   0.0112   0.0061  -0.0062  -0.0067   0.0032   0.00    8.7
2173 297904.000    119286.9696  -5391117.9979   3394977.3227   1   8   0.0062   0.0112   0.0061  -0.0062  -0.0067   0.0032   0.00   10.5
2173 297905.000    119286.9683  -5391117.9994   3394977.3230   1   8   0.0062   0.0112   0.0061  -0.0062  -0.0067   0.0032   0.00   10.2
2173 297906.000    119286.9655  -5391117.9977   3394977.3240   1   8   0.0062   0.0112   0.0061  -0.0062  -0.0067   0.0032   0.00    8.6
2173 297907.000    119286.9662  -5391117.9982   3394977.3227   1   8   0.0062   0.0112   0.0061  -0.0062  -0.0067   0.0032   0.00   10.9
2173 297908.000    119286.9648  -5391117.9950   3394977.3237   1   8   0.0062   0.0112   0.0061  -0.0062  -0.0067   0.0032   0.00   10.1
2173 297909.000    119286.9688  -5391118.0015   3394977.3241   1   8   0.0062   0.0112   0.0061  -0.0062  -0.0067   0.0032   0.00    9.5
2173 297910.000    119286.9669  -5391117.9985   3394977.3228   1   8   0.0062   0.0112   0.0061  -0.0062  -0.0067   0.0032   0.00    9.1
2173 297911.000    119286.9673  -5391117.9997   3394977.3229   1   8   0.0062   0.0112   0.0061  -0.0062  -0.0067   0.0032   0.00    8.7
2173 297912.000    119286.9649  -5391117.9946   3394977.3207   1   8   0.0062   0.0112   0.0061  -0.0062  -0.0067   0.0032   0.00    8.6
2173 297913.000    119286.9660  -5391117.9969   3394977.3227   1   8   0.0062   0.0112   0.0061  -0.0062  -0.0067   0.0032   0.00    8.5
2173 297914.000    119286.9653  -5391117.9969   3394977.3223   1   8   0.0062   0.0112   0.0061  -0.0062  -0.0067   0.0032   0.00    8.7
2173 297915.000    119286.9668  -5391118.0011   3394977.3226   1   8   0.0062   0.0112   0.0061  -0.0062  -0.0067   0.0032   0.00    9.3
2173 297916.000    119286.9662  -5391117.9999   3394977.3228   1   8   0.0062   0.0112   0.0061  -0.0062  -0.0067   0.0032   0.00    8.0
2173 297917.000    119286.9654  -5391118.0020   3394977.3236   1   8   0.0062   0.0112   0.0061  -0.0062  -0.0067   0.0032   0.00    8.2
2173 297918.000    119286.9652  -5391118.0015   3394977.3245   1   8   0.0062   0.0112   0.0061  -0.0062  -0.0067   0.0032   0.00    8.2
2173 297919.000    119286.9661  -5391118.0021   3394977.3248   1   8   0.0062   0.0112   0.0061  -0.0062  -0.0067   0.0032   0.00    6.6
2173 297920.000    119286.9670  -5391118.0049   3394977.3249   1   8   0.0062   0.0112   0.0061  -0.0062  -0.0067   0.0032   0.00   10.4
2173 297921.000    119286.9674  -5391118.0015   3394977.3237   1   8   0.0062   0.0112   0.0061  -0.0062  -0.0067   0.0032   0.00    7.3
2173 297922.000    119286.9690  -5391118.0063   3394977.3250   1   8   0.0062   0.0111   0.0061  -0.0062  -0.0067   0.0032   0.00    9.6
2173 297923.000    119286.9653  -5391117.9968   3394977.3221   1   8   0.0062   0.0111   0.0061  -0.0062  -0.0067   0.0032   0.00    9.3
2173 297924.000    119286.9687  -5391118.0042   3394977.3226   1   8   0.0062   0.0111   0.0061  -0.0062  -0.0067   0.0032   0.00   10.5
2173 297925.000    119286.9658  -5391118.0013   3394977.3242   1   8   0.0062   0.0111   0.0061  -0.0062  -0.0067   0.0032   0.00    8.3
2173 297926.000    119286.9655  -5391118.0014   3394977.3232   1   8   0.0062   0.0111   0.0061  -0.0062  -0.0067   0.0032   0.00    9.2
2173 297927.000    119286.9672  -5391118.0051   3394977.3252   1   8   0.0062   0.0111   0.0061  -0.0062  -0.0067   0.0032   0.00   10.0
2173 297928.000    119286.9647  -5391118.0041   3394977.3254   1   8   0.0062   0.0111   0.0061  -0.0062  -0.0067   0.0032   0.00    9.0
2173 297929.000    119286.9678  -5391118.0022   3394977.3230   1   8   0.0062   0.0111   0.0061  -0.0062  -0.0067   0.0032   0.00    7.0
2173 297930.000    119286.9664  -5391118.0019   3394977.3237   1   8   0.0062   0.0111   0.0061  -0.0062  -0.0067   0.0032   0.00    9.3
2173 297931.000    119286.9643  -5391117.9993   3394977.3230   1   8   0.0062   0.0111   0.0061  -0.0062  -0.0067   0.0032   0.00    8.0
2173 297932.000    119286.9653  -5391117.9995   3394977.3239   1   8   0.0062   0.0111   0.0061  -0.0061  -0.0067   0.0032   0.00    7.7
2173 297933.000    119286.9631  -5391117.9995   3394977.3237   1   8   0.0062   0.0111   0.0061  -0.0061  -0.0067   0.0032   0.00    8.4
2173 297934.000    119286.9644  -5391117.9974   3394977.3224   1   8   0.0062   0.0111   0.0061  -0.0061  -0.0067   0.0032   0.00    7.9
2173 297935.000    119286.9656  -5391118.0029   3394977.3245   1   8   0.0062   0.0111   0.0061  -0.0061  -0.0067   0.0032   0.00    7.4
2173 297936.000    119286.9646  -5391118.0003   3394977.3244   1   8   0.0062   0.0111   0.0061  -0.0061  -0.0067   0.0032   0.00    8.7
2173 297937.000    119286.9653  -5391118.0009   3394977.3229   1   8   0.0062   0.0111   0.0061  -0.0061  -0.0067   0.0032   0.00    7.8
2173 297938.000    119286.9661  -5391117.9966   3394977.3215   1   8   0.0062   0.0111   0.0061  -0.0061  -0.0067   0.0032   0.00    7.9
2173 297939.000    119286.9649  -5391117.9979   3394977.3232   1   8   0.0062   0.0111   0.0061  -0.0061  -0.0067   0.0032   0.00    8.4
2173 297940.000    119286.9657  -5391117.9986   3394977.3232   1   8   0.0062   0.0111   0.0061  -0.0061  -0.0067   0.0032   0.00    6.3
2173 297941.000    119286.9658  -5391117.9993   3394977.3218   1   8   0.0062   0.0111   0.0061  -0.0061  -0.0067   0.0032   0.00    7.3
2173 297942.000    119286.9661  -5391117.9997   3394977.3225   1   8   0.0062   0.0111   0.0061  -0.0061  -0.0067   0.0032   0.00    6.4
2173 297943.000    119286.9651  -5391117.9974   3394977.3226   1   8   0.0062   0.0111   0.0061  -0.0061  -0.0067   0.0032   0.00    6.1
2173 297944.000    119286.9667  -5391118.0012   3394977.3247   1   8   0.0062   0.0111   0.0061  -0.0061  -0.0067   0.0032   0.00    7.4
2173 297945.000    119286.9660  -5391118.0006   3394977.3236   1   8   0.0062   0.0111   0.0061  -0.0061  -0.0067   0.0032   0.00    8.2
2173 297946.000    119286.9659  -5391117.9986   3394977.3244   1   8   0.0062   0.0111   0.0061  -0.0061  -0.0067   0.0032   0.00    6.6
2173 297947.000    119286.9671  -5391118.0036   3394977.3262   1   8   0.0062   0.0111   0.0061  -0.0061  -0.0067   0.0032   0.00    6.7
2173 297948.000    119286.9646  -5391118.0010   3394977.3242   1   8   0.0062   0.0111   0.0061  -0.0061  -0.0067   0.0032   0.00    7.7
2173 297949.000    119286.9662  -5391118.0014   3394977.3248   1   8   0.0062   0.0111   0.0061  -0.0061  -0.0067   0.0032   0.00    6.1
2173 297950.000    119286.9690  -5391118.0035   3394977.3244   1   8   0.0062   0.0111   0.0061  -0.0061  -0.0067   0.0032   0.00    7.9
2173 297951.000    119286.9693  -5391118.0074   3394977.3270   1   8   0.0062   0.0111   0.0061  -0.0061  -0.0067   0.0032   0.00    6.3
2173 297952.000    119286.9644  -5391118.0002   3394977.3256   1   8   0.0062   0.0111   0.0061  -0.0061  -0.0067   0.0032   0.00    5.8
2173 297953.000    119286.9664  -5391118.0017   3394977.3247   1   8   0.0062   0.0111   0.0061  -0.0061  -0.0067   0.0032   0.00    6.3
2173 297954.000    119286.9669  -5391117.9966   3394977.3220   1   8   0.0062   0.0111   0.0061  -0.0061  -0.0067   0.0032   0.00    6.6
2173 297955.000    119286.9656  -5391118.0017   3394977.3256   1   8   0.0062   0.0111   0.0061  -0.0061  -0.0067   0.0032   0.00    5.6
2173 297956.000    119286.9672  -5391118.0021   3394977.3251   1   8   0.0062   0.0111   0.0061  -0.0061  -0.0067   0.0032   0.00    6.1
2173 297957.000    119286.9676  -5391118.0000   3394977.3256   1   8   0.0062   0.0111   0.0061  -0.0061  -0.0067   0.0032   0.00    7.0
2173 297958.000    119286.9662  -5391118.0018   3394977.3253   1   8   0.0062   0.0111   0.0061  -0.0061  -0.0067   0.0032   0.00    7.2
2173 297959.000    119286.9660  -5391117.9994   3394977.3253   1   8   0.0062   0.0111   0.0061  -0.0061  -0.0067   0.0032   0.00    5.9
2173 297960.000    119286.9688  -5391118.0026   3394977.3252   1   8   0.0062   0.0111   0.0061  -0.0061  -0.0067   0.0032   0.00    7.3
2173 297961.000    119286.9679  -5391118.0034   3394977.3262   1   8   0.0062   0.0111   0.0061  -0.0061  -0.0067   0.0032   0.00    8.0
2173 297962.000    119286.9664  -5391118.0006   3394977.3257   1   8   0.0062   0.0111   0.0061  -0.0061  -0.0067   0.0032   0.00    5.8
2173 297963.000    119286.9661  -5391118.0009   3394977.3261   1   8   0.0062   0.0111   0.0061  -0.0061  -0.0067   0.0032   0.00    5.8
2173 297964.000    119286.9680  -5391118.0030   3394977.3265   1   8   0.0062   0.0111   0.0061  -0.0061  -0.0067   0.0032   0.00    6.7
2173 297965.000    119286.9652  -5391118.0004   3394977.3267   1   8   0.0062   0.0111   0.0061  -0.0061  -0.0067   0.0032   0.00    5.4
2173 297966.000    119286.9665  -5391118.0005   3394977.3266   1   8   0.0062   0.0111   0.0061  -0.0061  -0.0067   0.0032   0.00    7.1
2173 297967.000    119286.9646  -5391117.9994   3394977.3272   1   8   0.0062   0.0111   0.0061  -0.0061  -0.0067   0.0032   0.00    6.0
2173 297968.000    119286.9670  -5391118.0018   3394977.3276   1   8   0.0062   0.0111   0.0061  -0.0061  -0.0067   0.0032   0.00    6.4
2173 297969.000    119286.9666  -5391117.9994   3394977.3272   1   8   0.0062   0.0111   0.0061  -0.0061  -0.0067   0.0032   0.00    5.9
2173 297970.000    119286.9670  -5391117.9980   3394977.3261   1   8   0.0062   0.0111   0.0061  -0.0061  -0.0067   0.0032   0.00    7.6
2173 297971.000    119286.9677  -5391117.9986   3394977.3258   1   8   0.0062   0.0111   0.0061  -0.0061  -0.0067   0.0032   0.00    6.3
2173 297972.000    119286.9666  -5391117.9948   3394977.3245   1   8   0.0062   0.0111   0.0061  -0.0061  -0.0067   0.0032   0.00    5.7
2173 297973.000    119286.9663  -5391117.9952   3394977.3242   1   8   0.0062   0.0111   0.0061  -0.0061  -0.0067   0.0032   0.00    6.6
2173 297974.000    119286.9647  -5391117.9976   3394977.3275   1   8   0.0062   0.0111   0.0062  -0.0061  -0.0067   0.0032   0.00    6.8
2173 297975.000    119286.9655  -5391117.9969   3394977.3239   1   8   0.0062   0.0111   0.0062  -0.0061  -0.0067   0.0032   0.00    5.9
2173 297976.000    119286.9637  -5391117.9977   3394977.3267   1   8   0.0062   0.0111   0.0062  -0.0061  -0.0067   0.0032   0.00    5.2
2173 297977.000    119286.9634  -5391117.9939   3394977.3234   1   8   0.0062   0.0111   0.0062  -0.0061  -0.0067   0.0032   0.00    5.6
2173 297978.000    119286.9658  -5391117.9950   3394977.3239   1   8   0.0062   0.0111   0.0062  -0.0061  -0.0067   0.0032   0.00    5.5
2173 297979.000    119286.9662  -5391117.9995   3394977.3256   1   8   0.0062   0.0111   0.0062  -0.0061  -0.0067   0.0032   0.00    5.9
2173 297980.000    119286.9649  -5391117.9956   3394977.3241   1   8   0.0062   0.0111   0.0062  -0.0061  -0.0067   0.0032   0.00    5.9
2173 297981.000    119286.9652  -5391117.9968   3394977.3253   1   8   0.0062   0.0111   0.0062  -0.0061  -0.0067   0.0032   0.00    6.5
2173 297982.000    119286.9673  -5391117.9965   3394977.3237   1   8   0.0062   0.0111   0.0062  -0.0061  -0.0067   0.0032   0.00    5.3
2173 297983.000    119286.9680  -5391117.9990   3394977.3269   1   8   0.0062   0.0111   0.0062  -0.0061  -0.0067   0.0032   0.00    6.4
2173 297984.000    119286.9666  -5391117.9941   3394977.3230   1   8   0.0062   0.0111   0.0062  -0.0061  -0.0067   0.0032   0.00    5.6
2173 297985.000    119286.9657  -5391117.9927   3394977.3248   1   8   0.0062   0.0111   0.0062  -0.0061  -0.0067   0.0032   0.00    6.1
2173 297986.000    119286.9657  -5391117.9916   3394977.3225   1   8   0.0062   0.0111   0.0062  -0.0061  -0.0067   0.0032   0.00    6.3
2173 297987.000    119286.9677  -5391117.9932   3394977.3217   1   8   0.0062   0.0111   0.0062  -0.0061  -0.0067   0.0032   0.00    7.9
2173 297988.000    119286.9634  -5391117.9896   3394977.3221   1   8   0.0062   0.0111   0.0062  -0.0061  -0.0067   0.0032   0.00    8.4
2173 297989.000    119286.9665  -5391117.9927   3394977.3220   1   8   0.0062   0.0111   0.0062  -0.0061  -0.0067   0.0032   0.00    5.6
2173 297990.000    119286.9660  -5391117.9922   3394977.3210   1   8   0.0062   0.0111   0.0062  -0.0061  -0.0067   0.0032   0.00    6.1
2173 297991.000    119286.9644  -5391117.9917   3394977.3228   1   8   0.0062   0.0111   0.0062  -0.0061  -0.0067   0.0032   0.00    7.2
2173 297992.000    119286.9685  -5391117.9939   3394977.3231   1   8   0.0062   0.0111   0.0062  -0.0061  -0.0067   0.0032   0.00    7.4
2173 297993.000    119286.9671  -5391117.9951   3394977.3232   1   8   0.0062   0.0111   0.0062  -0.0061  -0.0067   0.0032   0.00    8.4
2173 297994.000    119286.9663  -5391117.9961   3394977.3257   1   8   0.0062   0.0111   0.0062  -0.0061  -0.0067   0.0032   0.00    8.2
2173 297995.000    119286.9679  -5391117.9957   3394977.3217   1   8   0.0062   0.0111   0.0062  -0.0061  -0.0067   0.0032   0.00    9.4
2173 297996.000    119286.9665  -5391117.9976   3394977.3264   1   8   0.0062   0.0111   0.0062  -0.0061  -0.0067   0.0032   0.00   10.7
2173 297997.000    119286.9666  -5391117.9947   3394977.3242   1   8   0.0062   0.0111   0.0062  -0.0061  -0.0067   0.0032   0.00    6.1
2173 297998.000    119286.9684  -5391117.9972   3394977.3246   1   8   0.0062   0.0111   0.0062  -0.0061  -0.0067   0.0032   0.00    7.6
2173 297999.000    119286.9674  -5391117.9981   3394977.3269   1   8   0.0062   0.0111   0.0062  -0.0061  -0.0067   0.0032   0.00    7.7
2173 298000.000    119286.9676  -5391117.9961   3394977.3261   1   8   0.0062   0.0111   0.0062  -0.0061  -0.0067   0.0032   0.00    9.5
2173 298001.000    119286.9664  -5391117.9934   3394977.3232   1   8   0.0062   0.0111   0.0062  -0.0061  -0.0067   0.0032   0.00    7.2
2173 298002.000    119286.9656  -5391117.9947   3394977.3232   1   8   0.0062   0.0111   0.0062  -0.0061  -0.0067   0.0032   0.00    8.5
2173 298003.000    119286.9660  -5391117.9935   3394977.3224   1   8   0.0062   0.0111   0.0062  -0.0061  -0.0067   0.0032   0.00    7.2
2173 298004.000    119286.9655  -5391117.9990   3394977.3265   1   8   0.0062   0.0111   0.0062  -0.0061  -0.0067   0.0032   0.00    9.4
2173 298005.000    119286.9641  -5391117.9951   3394977.3254   1   8   0.0062   0.0111   0.0062  -0.0061  -0.0067   0.0032   0.00    6.5
2173 298006.000    119286.9648  -5391117.9983   3394977.3254   1   8   0.0062   0.0111   0.0062  -0.0061  -0.0067   0.0032   0.00    7.8
2173 298007.000    119286.9662  -5391117.9946   3394977.3231   1   8   0.0062   0.0111   0.0062  -0.0061  -0.0067   0.0032   0.00    7.0
2173 298008.000    119286.9677  -5391117.9993   3394977.3270   1   8   0.0062   0.0111   0.0062  -0.0061  -0.0067   0.0032   0.00    8.5
2173 298009.000    119286.9644  -5391117.9965   3394977.3254   1   8   0.0062   0.0111   0.0062  -0.0061  -0.0067   0.0032   0.00    7.1
2173 298010.000    119286.9654  -5391117.9969   3394977.3241   1   8   0.0062   0.0111   0.0062  -0.0061  -0.0067   0.0032   0.00    9.3
2173 298011.000    119286.9622  -5391117.9939   3394977.3234   1   8   0.0062   0.0111   0.0062  -0.0061  -0.0067   0.0032   0.00    7.6
2173 298012.000    119286.9624  -5391117.9949   3394977.3267   1   8   0.0062   0.0111   0.0062  -0.0061  -0.0067   0.0032   0.00    7.7
2173 298013.000    119286.9621  -5391117.9934   3394977.3243   1   8   0.0062   0.0111   0.0062  -0.0061  -0.0067   0.0032   0.00    9.7
2173 298014.000    119286.9641  -5391117.9965   3394977.3237   1   8   0.0062   0.0111   0.0062  -0.0061  -0.0067   0.0032   0.00   10.3
2173 298015.000    119286.9609  -5391117.9941   3394977.3249   1   8   0.0062   0.0111   0.0062  -0.0061  -0.0067   0.0032   0.00   12.9
2173 298016.000    119286.9639  -5391117.9973   3394977.3251   1   8   0.0062   0.0111   0.0062  -0.0061  -0.0067   0.0032   0.00   10.3
2173 298017.000    119286.9672  -5391117.9961   3394977.3237   1   8   0.0062   0.0111   0.0062  -0.0061  -0.0067   0.0032   0.00   12.0
2173 298018.000    119286.9648  -5391117.9983   3394977.3256   1   8   0.0062   0.0111   0.0062  -0.0061  -0.0067   0.0032   0.00    9.7
2173 298019.000    119286.9646  -5391118.0009   3394977.3258   1   8   0.0062   0.0111   0.0062  -0.0061  -0.0067   0.0032   0.00    7.9
2173 298020.000    119286.9645  -5391118.0024   3394977.3251   1   8   0.0062   0.0111   0.0062  -0.0061  -0.0067   0.0032   0.00    7.9
2173 298021.000    119286.9651  -5391118.0002   3394977.3255   1   8   0.0062   0.0111   0.0062  -0.0061  -0.0067   0.0032   0.00    8.2
2173 298022.000    119286.9623  -5391117.9980   3394977.3252   1   8   0.0062   0.0111   0.0062  -0.0061  -0.0067   0.0032   0.00    7.1
2173 298023.000    119286.9631  -5391117.9979   3394977.3232   1   8   0.0062   0.0111   0.0062  -0.0061  -0.0067   0.0032   0.00    7.7
2173 298024.000    119286.9634  -5391117.9994   3394977.3259   1   8   0.0062   0.0111   0.0062  -0.0061  -0.0067   0.0032   0.00    6.4
2173 298025.000    119286.9612  -5391117.9986   3394977.3250   1   8   0.0062   0.0111   0.0062  -0.0061  -0.0067   0.0032   0.00   10.3
2173 298026.000    119286.9630  -5391117.9987   3394977.3254   1   8   0.0062   0.0111   0.0062  -0.0061  -0.0067   0.0032   0.00    9.7
2173 298027.000    119286.9617  -5391117.9969   3394977.3246   1   8   0.0062   0.0111   0.0062  -0.0061  -0.0067   0.0032   0.00    8.7
2173 298028.000    119286.9632  -5391117.9964   3394977.3269   1   8   0.0062   0.0111   0.0062  -0.0061  -0.0067   0.0032   0.00    8.0
2173 298029.000    119286.9657  -5391117.9962   3394977.3232   1   8   0.0062   0.0111   0.0062  -0.0061  -0.0067   0.0032   0.00    6.9
2173 298030.000    119286.9649  -5391118.0021   3394977.3261   1   8   0.0062   0.0111   0.0062  -0.0061  -0.0067   0.0032   0.00    6.0
2173 298031.000    119286.9622  -5391117.9990   3394977.3275   1   8   0.0062   0.0111   0.0062  -0.0061  -0.0067   0.0032   0.00    7.3
2173 298032.000    119286.9628  -5391117.9995   3394977.3257   1   8   0.0062   0.0111   0.0062  -0.0061  -0.0067   0.0032   0.00    7.8
2173 298033.000    119286.9628  -5391117.9986   3394977.3253   1   8   0.0062   0.0111   0.0062  -0.0061  -0.0067   0.0032   0.00    7.2
2173 298034.000    119286.9621  -5391118.0006   3394977.3264   1   8   0.0062   0.0111   0.0062  -0.0061  -0.0067   0.0032   0.00    5.4
2173 298035.000    119286.9630  -5391117.9984   3394977.3263   1   8   0.0062   0.0111   0.0062  -0.0061  -0.0067   0.0032   0.00    5.9
2173 298036.000    119286.9633  -5391117.9995   3394977.3258   1   8   0.0062   0.0111   0.0062  -0.0061  -0.0067   0.0032   0.00    6.7
2173 298037.000    119286.9615  -5391118.0000   3394977.3286   1   8   0.0062   0.0111   0.0062  -0.0061  -0.0067   0.0032   0.00    6.6
2173 298038.000    119286.9641  -5391118.0002   3394977.3272   1   8   0.0062   0.0111   0.0062  -0.0061  -0.0067   0.0032   0.00    5.9
2173 298039.000    119286.9627  -5391117.9985   3394977.3266   1   8   0.0062   0.0111   0.0062  -0.0061  -0.0066   0.0032   0.00    4.4
2173 298040.000    119286.9644  -5391118.0042   3394977.3289   1   8   0.0062   0.0111   0.0062  -0.0061  -0.0066   0.0032   0.00    6.6
2173 298041.000    119286.9617  -5391117.9967   3394977.3235   1   8   0.0062   0.0111   0.0062  -0.0061  -0.0066   0.0032   0.00    4.7
2173 298042.000    119286.9622  -5391117.9985   3394977.3269   1   8   0.0062   0.0111   0.0062  -0.0061  -0.0066   0.0032   0.00    4.8
2173 298043.000    119286.9611  -5391117.9948   3394977.3248   1   8   0.0062   0.0111   0.0062  -0.0061  -0.0066   0.0032   0.00    5.6
2173 298044.000    119286.9641  -5391118.0006   3394977.3264   1   8   0.0062   0.0111   0.0062  -0.0061  -0.0066   0.0032   0.00    6.1
2173 298045.000    119286.9620  -5391117.9967   3394977.3251   1   8   0.0062   0.0110   0.0062  -0.0061  -0.0066   0.0032   0.00    4.3
2173 298046.000    119286.9609  -5391117.9929   3394977.3253   1   8   0.0062   0.0110   0.0062  -0.0061  -0.0066   0.0032   0.00    5.3
2173 298047.000    119286.9638  -5391117.9975   3394977.3257   1   8   0.0062   0.0110   0.0062  -0.0061  -0.0066   0.0032   0.00    4.0
2173 298048.000    119286.9619  -5391117.9960   3394977.3253   1   8   0.0062   0.0110   0.0062  -0.0061  -0.0066   0.0032   0.00    3.9
2173 298049.000    119286.9618  -5391117.9999   3394977.3258   1   8   0.0062   0.0110   0.0062  -0.0061  -0.0066   0.0032   0.00    6.3
2173 298050.000    119286.9636  -5391117.9956   3394977.3256   1   8   0.0062   0.0110   0.0062  -0.0061  -0.0066   0.0032   0.00    5.3
2173 298051.000    119287.0511  -5391117.4073   3394976.9122   2   7   0.6140   1.1877   0.6343  -0.5881  -0.7147   0.3028   0.00    2.8
2173 298052.000    119286.6092  -5391116.9765   3394976.8435   2   7   0.6140   1.1876   0.6343  -0.5881  -0.7147   0.3028   0.00    2.5
2173 298053.000    119286.8711  -5391116.9441   3394976.9406   2   7   0.6140   1.1875   0.6343  -0.5880  -0.7147   0.3028   0.00    2.5
2173 298054.000    119286.5863  -5391116.4965   3394976.8012   2   7   0.6140   1.1874   0.6344  -0.5880  -0.7147   0.3028   0.00    2.8
2173 298055.000    119286.2681  -5391116.0115   3394976.4911   2   7   0.6140   1.1873   0.6344  -0.5879  -0.7147   0.3028   0.00    2.4
2173 298056.000    119286.9634  -5391117.9929   3394977.3259   1   7   0.0062   0.0120   0.0064  -0.0059  -0.0072   0.0030   0.00    3.0
2173 298057.000    119286.3774  -5391115.6620   3394976.3894   2   7   0.6140   1.1872   0.6344  -0.5879  -0.7146   0.3028   0.00    2.5
2173 298058.000    119286.7493  -5391116.3266   3394976.5840   2   7   0.6140   1.1871   0.6345  -0.5878  -0.7146   0.3028   0.00    2.2
2173 298059.000    119286.6999  -5391116.4286   3394976.6448   2   7   0.6140   1.1870   0.6345  -0.5878  -0.7146   0.3028   0.00    2.4
2173 298060.000    119286.9666  -5391117.9956   3394977.3247   1   7   0.0062   0.0120   0.0064  -0.0059  -0.0072   0.0030   0.00    3.1
2173 298061.000    119286.2929  -5391116.0383   3394976.6711   2   7   0.6141   1.1869   0.6346  -0.5877  -0.7146   0.3028   0.00    1.7
2173 298062.000    119286.5989  -5391115.8010   3394976.3772   2   7   0.6141   1.1868   0.6346  -0.5877  -0.7146   0.3027   0.00    2.8
2173 298063.000    119286.6633  -5391116.0738   3394976.5298   2   7   0.6141   1.1867   0.6346  -0.5876  -0.7145   0.3027   0.00    2.9
2173 298064.000    119286.9646  -5391117.9944   3394977.3232   1   7   0.0062   0.0120   0.0064  -0.0059  -0.0072   0.0030   0.00    3.2
2173 298065.000    119286.7477  -5391116.2803   3394976.7713   2   7   0.6141   1.1866   0.6347  -0.5875  -0.7145   0.3027   0.00    2.7
2173 298066.000    119286.9641  -5391117.9919   3394977.3228   1   7   0.0062   0.0120   0.0064  -0.0059  -0.0072   0.0030   0.00    3.0
2173 298067.000    119286.9645  -5391117.9936   3394977.3243   1   7   0.0062   0.0120   0.0064  -0.0059  -0.0072   0.0030   0.00    3.8
2173 298068.000    119286.2532  -5391116.3085   3394976.7960   2   7   0.6141   1.1864   0.6348  -0.5874  -0.7145   0.3027   0.00    2.6
2173 298069.000    119286.5319  -5391116.3714   3394976.8616   2   7   0.6141   1.1863   0.6348  -0.5874  -0.7145   0.3027   0.00    2.2
2173 298070.000    119286.4128  -5391116.9352   3394976.9717   2   7   0.6141   1.1862   0.6348  -0.5873  -0.7145   0.3027   0.00    2.6
2173 298071.000    119286.5531  -5391116.6203   3394976.9973   2   7   0.6141   1.1861   0.6349  -0.5873  -0.7144   0.3027   0.00    2.8
2173 298072.000    119286.5191  -5391116.5712   3394977.0091   2   7   0.6141   1.1861   0.6349  -0.5872  -0.7144   0.3027   0.00    2.6
2173 298073.000    119286.9669  -5391117.9963   3394977.3247   1   7   0.0062   0.0120   0.0064  -0.0059  -0.0072   0.0030   0.00    3.1
2173 298074.000    119286.4901  -5391116.1570   3394976.9063   2   7   0.6142   1.1859   0.6349  -0.5872  -0.7144   0.3026   0.00    2.5
2173 298075.000    119286.6492  -5391116.1861   3394976.7991   2   7   0.6142   1.1858   0.6350  -0.5871  -0.7144   0.3026   0.00    2.7
2173 298076.000    119286.9675  -5391117.9940   3394977.3246   1   7   0.0062   0.0120   0.0064  -0.0059  -0.0072   0.0030   0.00    3.3
2173 298077.000    119286.9658  -5391117.9958   3394977.3248   1   7   0.0062   0.0120   0.0064  -0.0059  -0.0072   0.0030   0.00    3.3
2173 298078.000    119286.4105  -5391116.0468   3394976.5943   2   7   0.6142   1.1856   0.6351  -0.5870  -0.7144   0.3026   0.00    2.6
2173 298079.000    119286.4128  -5391116.3979   3394976.8216   2   7   0.6142   1.1855   0.6351  -0.5870  -0.7143   0.3026   0.00    2.8
2173 298080.000    119286.9578  -5391117.6435   3394977.1274   2   7   0.6142   1.1855   0.6351  -0.5869  -0.7143   0.3026   0.00    2.9
2173 298081.000    119286.6726  -5391116.9661   3394976.8911   2   7   0.6142   1.1854   0.6352  -0.5869  -0.7143   0.3026   0.00    2.9
2173 298082.000    119286.6238  -5391116.5539   3394976.7689   2   7   0.6142   1.1853   0.6352  -0.5868  -0.7143   0.3026   0.00    2.7
2173 298083.000    119287.0338  -5391117.0787   3394976.8277   2   7   0.6142   1.1852   0.6352  -0.5868  -0.7143   0.3026   0.00    3.0
2173 298084.000    119286.5809  -5391116.2055   3394976.4590   2   7   0.6142   1.1852   0.6352  -0.5868  -0.7143   0.3026   0.00    2.5
2173 298085.000    119286.6701  -5391116.0815   3394976.7141   2   7   0.6143   1.1851   0.6353  -0.5867  -0.7143   0.3026   0.00    2.9
2173 298086.000    119286.5282  -5391115.9229   3394976.5477   2   7   0.6143   1.1850   0.6353  -0.5867  -0.7143   0.3026   0.00    2.3
2173 298087.000    119286.4798  -5391116.5338   3394976.7130   2   7   0.6143   1.1849   0.6353  -0.5866  -0.7143   0.3026   0.00    2.7
2173 298088.000    119286.9683  -5391117.9977   3394977.3259   1   7   0.0062   0.0120   0.0064  -0.0059  -0.0072   0.0030   0.00    3.5
2173 298089.000    119286.5509  -5391116.0897   3394976.5948   2   7   0.6143   1.1848   0.6354  -0.5865  -0.7142   0.3025   0.00    2.6
2173 298090.000    119286.9656  -5391117.9914   3394977.3254   1   7   0.0062   0.0120   0.0064  -0.0059  -0.0072   0.0030   0.00    3.1
2173 298091.000    119286.6531  -5391115.8674   3394976.4359   2   7   0.6143   1.1847   0.6355  -0.5865  -0.7142   0.3025   0.00    2.2
2173 298092.000    119286.9034  -5391116.5554   3394976.6693   2   7   0.6143   1.1846   0.6355  -0.5864  -0.7142   0.3025   0.00    2.5
2173 298093.000    119286.8064  -5391115.8617   3394976.3730   2   7   0.6143   1.1845   0.6355  -0.5864  -0.7142   0.3025   0.00    2.5
2173 298094.000    119286.5256  -5391116.0620   3394976.6613   2   7   0.6143   1.1844   0.6355  -0.5863  -0.7142   0.3025   0.00    1.9
2173 298095.000    119286.4936  -5391115.8043   3394976.3256   2   7   0.6143   1.1844   0.6356  -0.5863  -0.7142   0.3025   0.00    2.0
2173 298096.000    119286.5011  -5391115.9867   3394976.5912   2   7   0.6144   1.1843   0.6356  -0.5863  -0.7141   0.3025   0.00    2.1
2173 298097.000    119286.6241  -5391116.0340   3394976.6158   2   7   0.6144   1.1842   0.6356  -0.5862  -0.7141   0.3025   0.00    2.1
2173 298098.000    119286.5149  -5391116.5027   3394976.8988   2   7   0.6144   1.1841   0.6357  -0.5862  -0.7141   0.3025   0.00    2.1
2173 298099.000    119286.6809  -5391116.5778   3394976.6077   2   7   0.6144   1.1841   0.6357  -0.5862  -0.7141   0.3025   0.00    2.6
2173 298100.000    119286.6911  -5391116.5343   3394976.7107   2   7   0.6144   1.1840   0.6357  -0.5861  -0.7141   0.3025   0.00    2.3
2173 298101.000    119286.3274  -5391115.9640   3394976.4933   2   7   0.6144   1.1839   0.6358  -0.5861  -0.7141   0.3025   0.00    2.1
2173 298102.000    119286.3753  -5391116.1100   3394976.7031   2   7   0.6144   1.1839   0.6358  -0.5860  -0.7141   0.3025   0.00    1.8
2173 298103.000    119286.3497  -5391116.0876   3394976.8404   2   7   0.6144   1.1838   0.6358  -0.5860  -0.7141   0.3024   0.00    2.0
2173 298104.000    119286.3308  -5391115.8434   3394976.4881   2   7   0.6144   1.1837   0.6359  -0.5860  -0.7141   0.3024   0.00    2.0
2173 298105.000    119286.2813  -5391115.6158   3394976.5061   2   7   0.6144   1.1836   0.6359  -0.5859  -0.7141   0.3024   0.00    2.0
2173 298106.000    119286.3238  -5391115.7027   3394976.4356   2   7   0.6144   1.1836   0.6359  -0.5859  -0.7140   0.3024   0.00    1.9
2173 298107.000    119286.8322  -5391116.7725   3394976.8179   2   7   0.6144   1.1835   0.6360  -0.5858  -0.7140   0.3024   0.00    2.3
2173 298108.000    119286.5054  -5391116.2866   3394976.4716   2   7   0.6145   1.1834   0.6360  -0.5858  -0.7140   0.3024   0.00    2.2
2173 298109.000    119286.7128  -5391116.1605   3394976.4550   2   7   0.6145   1.1833   0.6360  -0.5858  -0.7140   0.3024   0.00    2.3
2173 298110.000    119286.6856  -5391116.1122   3394976.4847   2   7   0.6145   1.1833   0.6360  -0.5857  -0.7140   0.3024   0.00    2.5
2173 298111.000    119286.5168  -5391115.9124   3394976.5700   2   7   0.6145   1.1832   0.6361  -0.5857  -0.7140   0.3024   0.00    2.0
2173 298112.000    119286.8847  -5391116.3602   3394976.6880   2   7   0.6145   1.1831   0.6361  -0.5856  -0.7140   0.3024   0.00    2.0
2173 298113.000    119286.7203  -5391115.7989   3394976.5051   2   7   0.6145   1.1831   0.6361  -0.5856  -0.7140   0.3024   0.00    1.9
2173 298114.000    119286.3901  -5391115.5684   3394976.4262   2   7   0.6145   1.1830   0.6362  -0.5856  -0.7140   0.3024   0.00    2.0
2173 298115.000    119286.9789  -5391116.3474   3394976.8597   2   7   0.6145   1.1829   0.6362  -0.5855  -0.7139   0.3024   0.00    2.1
2173 298116.000    119286.7191  -5391116.1744   3394976.5848   2   7   0.6145   1.1829   0.6362  -0.5855  -0.7139   0.3024   0.00    1.7
2173 298117.000    119286.7500  -5391115.8680   3394976.4249   2   7   0.6145   1.1828   0.6363  -0.5854  -0.7139   0.3024   0.00    1.9
2173 298118.000    119286.8719  -5391116.1612   3394976.5633   2   7   0.6146   1.1827   0.6363  -0.5854  -0.7139   0.3024   0.00    2.1
2173 298119.000    119286.7787  -5391116.2908   3394976.8610   2   7   0.6146   1.1826   0.6363  -0.5854  -0.7139   0.3023   0.00    2.0
2173 298120.000    119286.8327  -5391116.3566   3394977.0034   2   7   0.6146   1.1826   0.6364  -0.5853  -0.7139   0.3023   0.00    1.5
2173 298121.000    119286.8432  -5391116.4547   3394976.6932   2   7   0.6146   1.1825   0.6364  -0.5853  -0.7139   0.3023   0.00    2.1
2173 298122.000    119286.5996  -5391115.8616   3394976.4916   2   7   0.6146   1.1824   0.6364  -0.5853  -0.7139   0.3023   0.00    1.9
2173 298123.000    119286.4915  -5391116.0094   3394976.6445   2   7   0.6146   1.1824   0.6365  -0.5852  -0.7139   0.3023   0.00    1.7
2173 298124.000    119286.6542  -5391115.5922   3394976.4487   2   7   0.6146   1.1823   0.6365  -0.5852  -0.7139   0.3023   0.00    2.1
2173 298125.000    119286.4582  -5391115.9451   3394976.7220   2   7   0.6146   1.1822   0.6365  -0.5851  -0.7139   0.3023   0.00    2.2
2173 298126.000    119286.4524  -5391115.8249   3394976.7718   2   7   0.6146   1.1821   0.6366  -0.5851  -0.7138   0.3023   0.00    1.8
2173 298127.000    119286.4319  -5391115.6658   3394976.6483   2   7   0.6146   1.1821   0.6366  -0.5851  -0.7138   0.3023   0.00    1.6
2173 298128.000    119286.5100  -5391115.3902   3394976.6301   2   7   0.6146   1.1820   0.6366  -0.5850  -0.7138   0.3023   0.00    1.9
2173 298129.000    119286.8131  -5391115.7601   3394976.7987   2   7   0.6147   1.1819   0.6367  -0.5850  -0.7138   0.3023   0.00    2.2
2173 298130.000    119286.5319  -5391115.8904   3394976.7230   2   7   0.6147   1.1819   0.6367  -0.5850  -0.7138   0.3023   0.00    2.2
2173 298131.000    119286.6768  -5391115.9621   3394976.6822   2   7   0.6147   1.1818   0.6367  -0.5849  -0.7138   0.3023   0.00    2.1
2173 298132.000    119286.6864  -5391115.5457   3394976.7012   2   7   0.6147   1.1817   0.6368  -0.5849  -0.7138   0.3023   0.00    1.8
2173 298133.000    119286.3618  -5391115.8380   3394976.7746   2   7   0.6147   1.1817   0.6368  -0.5848  -0.7138   0.3023   0.00    1.9
2173 298134.000    119286.4247  -5391115.8440   3394976.6730   2   7   0.6147   1.1816   0.6368  -0.5848  -0.7138   0.3023   0.00    2.3
2173 298135.000    119286.6685  -5391116.1702   3394976.7988   2   7   0.6147   1.1815   0.6369  -0.5848  -0.7138   0.3023   0.00    2.2
2173 298136.000    119286.5181  -5391115.7729   3394976.6304   2   7   0.6147   1.1814   0.6369  -0.5847  -0.7138   0.3023   0.00    2.2
2173 298137.000    119286.6033  -5391115.9579   3394976.7045   2   7   0.6147   1.1814   0.6369  -0.5847  -0.7137   0.3023   0.00    1.9
2173 298138.000    119286.5122  -5391115.6083   3394976.8360   2   7   0.6147   1.1813   0.6370  -0.5847  -0.7137   0.3023   0.00    2.0
2173 298139.000    119286.5836  -5391116.5577   3394977.1509   2   7   0.6148   1.1812   0.6370  -0.5846  -0.7137   0.3022   0.00    2.0
2173 298140.000    119286.6251  -5391116.5051   3394977.0522   2   7   0.4361   0.8397   0.4524  -0.4139  -0.5071   0.2138   1.00    2.2
2173 298141.000    119286.4774  -5391115.8300   3394976.8802   2   7   0.6148   1.1811   0.6371  -0.5845  -0.7137   0.3022   0.00    1.8
2173 298142.000    119286.8680  -5391116.4866   3394976.9872   2   7   0.6148   1.1810   0.6371  -0.5845  -0.7137   0.3022   0.00    2.2
2173 298143.000    119286.7495  -5391116.1107   3394976.7651   2   7   0.6148   1.1810   0.6371  -0.5845  -0.7137   0.3022   0.00    2.0
2173 298144.000    119286.6620  -5391116.2555   3394976.8881   2   7   0.6148   1.1809   0.6372  -0.5844  -0.7137   0.3022   0.00    2.2
2173 298145.000    119286.5345  -5391115.9410   3394977.0256   2   7   0.6148   1.1808   0.6372  -0.5844  -0.7137   0.3022   0.00    1.6
2173 298146.000    119286.6079  -5391115.9690   3394976.8985   2   7   0.6148   1.1808   0.6372  -0.5844  -0.7137   0.3022   0.00    1.7
2173 298147.000    119286.2271  -5391115.5738   3394976.9231   2   7   0.6148   1.1807   0.6373  -0.5843  -0.7137   0.3022   0.00    1.6
2173 298148.000    119286.3146  -5391116.0235   3394976.8900   2   7   0.6148   1.1806   0.6373  -0.5843  -0.7137   0.3022   0.00    2.0
2173 298149.000    119286.4590  -5391115.9225   3394976.9101   2   7   0.6149   1.1806   0.6373  -0.5842  -0.7137   0.3022   0.00    2.2
2173 298150.000    119286.2228  -5391116.2461   3394977.1188   2   7   0.6149   1.1805   0.6374  -0.5842  -0.7136   0.3022   0.00    1.8
2173 298151.000    119286.4664  -5391116.1368   3394977.0129   2   7   0.6149   1.1804   0.6374  -0.5842  -0.7136   0.3022   0.00    2.0
2173 298152.000    119286.4950  -5391116.4082   3394977.0428   2   7   0.6149   1.1804   0.6374  -0.5841  -0.7136   0.3022   0.00    1.8
2173 298153.000    119286.4624  -5391116.7004   3394977.2533   2   7   0.6149   1.1803   0.6375  -0.5841  -0.7136   0.3022   0.00    2.0
2173 298154.000    119286.2911  -5391116.2405   3394977.0233   2   7   0.6149   1.1802   0.6375  -0.5841  -0.7136   0.3022   0.00    1.4
2173 298155.000    119286.3881  -5391116.3616   3394977.1050   2   7   0.6149   1.1802   0.6375  -0.5840  -0.7136   0.3022   0.00    2.3
2173 298156.000    119286.1815  -5391116.0546   3394977.0405   2   7   0.6149   1.1801   0.6376  -0.5840  -0.7136   0.3022   0.00    1.6
2173 298157.000    119286.4790  -5391116.5377   3394977.0812   2   7   0.6149   1.1800   0.6376  -0.5840  -0.7136   0.3022   0.00    2.0
2173 298158.000    119286.5646  -5391117.0182   3394977.3401   2   7   0.6150   1.1799   0.6376  -0.5839  -0.7136   0.3022   0.00    2.1
2173 298159.000    119286.6103  -5391116.7573   3394977.3480   2   7   0.6150   1.1799   0.6377  -0.5839  -0.7136   0.3022   0.00    2.2
2173 298160.000    119286.7602  -5391117.5116   3394977.5733   2   7   0.6150   1.1798   0.6377  -0.5838  -0.7136   0.3022   0.00    2.5
2173 298161.000    119286.3056  -5391116.6831   3394977.2812   2   7   0.6150   1.1797   0.6377  -0.5838  -0.7136   0.3022   0.00    1.8
2173 298162.000    119286.2852  -5391116.5030   3394977.3014   2   7   0.6150   1.1797   0.6378  -0.5838  -0.7136   0.3022   0.00    2.2
2173 298163.000    119286.5463  -5391117.0710   3394977.5510   2   7   0.6150   1.1796   0.6378  -0.5837  -0.7136   0.3022   0.00    2.9
2173 298164.000    119286.4364  -5391117.0499   3394977.3701   2   7   0.6150   1.1795   0.6378  -0.5837  -0.7135   0.3022   0.00    2.4
2173 298165.000    119286.2838  -5391116.5724   3394977.2890   2   7   0.6150   1.1795   0.6379  -0.5837  -0.7135   0.3022   0.00    1.7
2173 298166.000    119286.1135  -5391116.5331   3394977.2733   2   7   0.6150   1.1794   0.6379  -0.5836  -0.7135   0.3021   0.00    1.8
2173 298167.000    119286.2358  -5391117.0545   3394977.5863   2   7   0.6150   1.1793   0.6379  -0.5836  -0.7135   0.3021   0.00    1.8
2173 298168.000    119286.3369  -5391116.9530   3394977.4081   2   7   0.6151   1.1793   0.6380  -0.5836  -0.7135   0.3021   0.00    1.9
2173 298169.000    119286.5852  -5391117.4646   3394977.4911   2   7   0.6151   1.1792   0.6380  -0.5835  -0.7135   0.3021   0.00    2.1
2173 298170.000    119286.5402  -5391117.5590   3394977.6401   2   7   0.6151   1.1791   0.6380  -0.5835  -0.7135   0.3021   0.00    2.4
2173 298171.000    119286.2348  -5391117.1872   3394977.5528   2   7   0.6151   1.1791   0.6381  -0.5835  -0.7135   0.3021   0.00    2.1
