     2.11           OBSERVATION DATA    M (MIXED)           RINEX VERSION / TYPE
CONVBIN 2.4.3                           20210901 010637 UTC PGM / RUN BY / DATE 
log: ngs/ingy2430.21o                                       COMMENT             
format: RINEX                                               COMMENT             
INGY                                                        MARKER NAME         
                                                            MARKER NUMBER       
                                                            OBSERVER / AGENCY   
355068              LEICA GRX1200GGPRO  9.20/3.823          REC # / TYPE / VERS 
07170139            LEIAX1202GG     NONE                    ANT # / TYPE        
   229481.0710 -4771570.9850  4212189.6140                  APPROX POSITION XYZ 
        0.0000        0.0000        0.0000                  ANTENNA: DELTA H/E/N
     1     1                                                WAVELENGTH FACT L1/2
     4    C1    L1    P2    L2                              # / TYPES OF OBSERV 
    30.000                                                  INTERVAL            
  2021     8    31     0     0    0.0000000     GPS         TIME OF FIRST OBS   
  2021     8    31    23    59   30.0000000     GPS         TIME OF LAST OBS    
                                                            END OF HEADER       
 21  8 31  0  0  0.0000000  0 18G10G12G23G 1G22G32G 3G21G25G31R16R22
                                R 9R21R 5R15R 6R 7
  21953666.360   115367328.780    21953669.360    89896644.031  
  23414865.860   123045980.369    23414867.120    95880001.050  
  24983330.760   131288285.520    24983334.500   102302577.518  
  22809505.680   119864775.190    22809510.380    93401152.571  
  23186542.820   121846120.478    23186541.260    94945034.171  
  20693271.460   108743930.156    20693274.100    84735533.882  
  24765747.660   130144885.446    24765752.500   101411607.431  
  23443044.920   123194045.649    23443045.000    95995380.710  
  22025076.240   115742595.461    22025079.240    90189061.502  
  20626024.820   108390563.778    20626023.880    84460207.095  
  19687216.900   105165626.788    19687221.840    81795530.232  
  22952651.480   122522804.730    22952656.300    95295542.086  
  22930155.600   122445769.945    22930161.740    95235629.412  
  23638127.620   126492374.160    23638134.680    98382985.124  
  20904744.320   111747880.826    20904749.440    86915066.630  
  20727898.700   110763671.551    20727903.960    86149570.098  
  19758021.140   105432596.357                                  
  23144009.160   123891700.730    23144013.720    96360237.112  
 21  8 31  0  0 30.0000000  0 18G10G12G23G 1G22G32G 3G21G25G31R16R22
                                R 9R21R 5R15R 6R 7
  21969889.780   115452582.534    21969892.720    89963075.487  
  23421558.420   123081151.194    23421559.640    95907406.859  
  25004409.760   131399055.020    25004413.600   102388891.326  
  22808115.000   119857466.523    22808119.760    93395457.517  
  23170471.880   121761667.660    23170470.460    94879226.823  
  20697492.920   108766113.897    20697495.400    84752819.910  
  24745508.320   130038527.588    24745513.420   101328731.276  
  23447273.540   123216268.553    23447274.040    96012697.220  
  22022285.220   115727930.023    22022288.500    90177633.901  
  20615416.480   108334817.053    20615415.540    84416768.107  
  19675433.260   105102681.003    19675438.300    81746572.419  
  22959603.880   122559916.219    22959608.820    95324406.593  
  22905498.980   122314105.101    22905505.340    95133223.566  
  23657612.000   126596637.761    23657618.260    98464078.968  
  20916430.660   111810351.636    20916435.640    86963654.994  
  20741652.920   110837168.608    20741658.020    86206734.487  
  19749110.760   105385047.578                                  
  23125205.960   123791046.299    23125210.680    96281950.303  
 21  8 31  0  1  0.0000000  0 18G10G12G23G 1G22G32G 3G21G25G31R16R22
                                R 9R21R 5R15R 6R 7
  21986181.900   115538197.527    21986184.900    90029788.417  
  23428364.780   123116915.936    23428365.660    95935275.446  
  25025504.640   131509908.963    25025509.320   102475270.834  
  22806841.740   119850772.916    22806846.040    93390241.729  
  23154448.300   121677462.661    23154446.760    94813612.569  
  20701762.900   108788552.276    20701765.140    84770304.350  
  24725283.020   129932243.487    24725288.120   101245912.570  
  23451584.440   123238921.521    23451585.000    96030348.863  
  22019613.620   115713890.813    22019616.920    90166694.254  
  20604903.000   108279568.519    20604902.120    84373717.315  
  19663786.400   105040465.984    19663791.640    81698182.993  
  22966687.200   122597729.248    22966692.340    95353816.707  
  22880873.560   122182607.010    22880879.820    95030947.376  
  23677141.240   126701140.395    23677146.920    98545358.717  
  20928183.100   111873174.484    20928188.000    87012517.179  
  20755525.220   110911297.356    20755529.820    86264390.143  
  19740262.600   105337832.504                                  
  23106399.440   123690373.083    23106404.040    96203648.902  
 21  8 31  0  1 30.0000000  0 17G10G12G 1G22G32G 3G21G25G31R16R22R 9
                                R21R 5R15R 6R 7
  22002542.500   115624172.701    22002545.360    90096782.020  
  23435283.720   123153273.910    23435283.920    95963606.273  
  22805685.060   119844694.790    22805689.540    93385505.543  
  23138472.420   121593508.414    23138470.720    94748193.718  
  20706081.360   108811245.837    20706083.540    84787987.640  
  24705072.360   129826035.762    24705077.300   101163153.330  
  23455977.080   123262003.823    23455977.480    96048335.039  
  22017061.640   115700479.326    22017064.740    90156243.749  
  20594484.540   108224819.665    20594483.800    84331055.893  
  19652277.040   104978984.691    19652282.100    81650364.239  
  22973901.440   122636246.6671                                 
  22856280.020   122051279.692    22856286.260    94928804.040  
  23696714.220   126805878.147    23696719.780    98626821.307  
  20940001.620   111936350.290    20940006.300    87061653.894  
  20769515.100   110986055.065    20769519.900    86322535.017  
  19731477.420   105290953.241                                  
  23087589.220   123589683.192    23087594.240    96125334.607  
 21  8 31  0  2  0.0000000  0 18G10G12G23G 1G22G32G 3G21G25G31R16R22
                                R 9R21R 5R15R 6R 7
  22018968.160   115710490.337    22018971.080    90164042.471  
  23442311.200   123190207.860    23442312.520    95992385.958  
  25067738.880   131731855.7541                                 
  22804642.720   119839215.898    22804647.040    93381236.283  
  23122541.380   121509790.948    23122540.000    94682959.372  
  20710445.220   108834178.433    20710447.520    84805857.194  
  24684873.380   129719890.465    24684877.980   101080442.731  
  23460448.120   123285497.841    23460447.960    96066642.052  
  22014626.060   115687680.396    22014629.140    90146270.563  
  20584158.220   108170554.866    20584157.540    84288771.656  
  19640902.460   104918223.438    19640907.360    81603105.503  
  22981243.820   122675440.054                                  
  22831716.060   121920110.256    22831722.500    94826783.492  
  23716327.240   126910829.707    23716332.980    98708450.177  
  20951883.060   111999862.613    20951887.700    87111052.344  
  20783618.760   111061421.621    20783623.780    86381153.440  
  19722752.680   105244396.264                                  
  23068773.280   123488961.665    23068778.880    96046995.729  
 21  8 31  0  2 30.0000000  0 17G10G12G 1G22G32G 3G21G25G31R16R22R 9
                                R21R 5R15R 6R 7
  22035467.480   115797195.040    22035470.620    90231604.528  
  23449457.700   123227762.611    23449458.760    96021649.366  
  22803722.880   119834382.216    22803727.220    93377469.804  
  23106664.460   121426358.700    23106663.400    94617947.296  
  20714863.300   108857396.283    20714865.800    84823949.015  
  24664695.180   129613855.896    24664700.420   100997818.466  
  23465006.020   123309449.155    23465005.740    96085305.391  
  22012316.080   115675541.187    22012319.060    90136811.443  
  20573933.080   108116821.426    20573932.400    84246901.456  
  19629671.760   104858230.918    19629676.680    81556444.671  
  22988721.800   122715358.390                                  
  22807191.200   121789149.211    22807197.640    94724925.001  
  23735987.920   127016037.565    23735994.020    98790278.399  
  20963836.080   112063758.090    20963840.660    87160748.779  
  20797844.360   111137440.579    20797849.560    86440279.277  
  19714097.520   105198210.485                                  
  23049960.640   123388256.676    23049966.640    95968669.685  
 21  8 31  0  3  0.0000000  0 17G10G12G 1G22G32G 3G21G25G31R16R22R 9
                                R21R 5R15R 6R 7
  22052030.680   115884235.399    22052034.120    90299428.131  
  23456713.120   123265887.549    23456713.560    96051357.065  
  22802916.440   119830143.747    22802920.620    93374167.095  
  23090832.600   121343164.129    23090831.960    94553120.435  
  20719326.260   108880849.577    20719328.720    84842224.297  
  24644528.980   129507884.440    24644534.500   100915243.414  
  23469641.220   123333806.607    23469641.020    96104285.213  
  22010122.300   115664012.833    22010125.100    90127828.320  
  20563799.760   108063570.452    20563799.260    84205407.207  
  19618575.780   104798958.799    19618580.860    81510344.165  
  22996325.800   122755948.564    22996331.080    95476870.159  
  22782696.520   121658349.488    22782703.200    94623191.998  
  23755685.980   127121446.432    23755692.720    98872262.966  
  20975851.320   112127986.279    20975856.100    87210703.999  
  20812182.120   111214057.502    20812187.900    86499870.204  
  19705502.760   105152347.476                                  
  23031142.080   123287519.066    23031148.060    95890318.233  
 21  8 31  0  3 30.0000000  0 16G10G12G 1G22G32G 3G21G25G31R16R 9R21
                                R 5R15R 6R 7
  22068661.080   115971628.728    22068664.600    90367526.778  
  23464079.660   123304600.505    23464079.580    96081523.027  
  22802226.680   119826519.186    22802231.060    93371342.759  
  23075050.280   121260228.731    23075049.940    94488495.524  
  20723837.680   108904557.242    20723840.060    84860697.796  
  24624379.540   129401997.420    24624384.960   100832734.113  
  23474356.940   123358587.980    23474356.900    96123595.340  
  22008048.480   115653115.142    22008051.240    90119336.630  
  20553762.040   108010821.517    20553761.600    84164304.166  
  19607618.960   104740428.709    19607623.980    81464820.783  
  22758236.400   121527733.785    22758242.980    94521602.119  
  23775423.940   127227070.796    23775431.220    98954415.225  
  20987932.300   112192566.439    20987937.260    87260932.975  
  20826634.800   111291288.560    20826640.660    86559938.793  
  19696972.360   105106827.937                                  
  23012321.240   123186769.422    23012326.420    95811957.401  
 21  8 31  0  4  0.0000000  0 17G10G12G 1G22G32G 3G21G25G31R16R22R 9
                                R21R 5R15R 6R 7
  22085358.120   116059371.590    22085361.480    90435897.798  
  23471558.260   123343898.472    23471558.040    96112144.795  
  22801653.540   119823506.461    22801657.940    93368995.159  
  23059317.720   121177552.729    23059316.760    94424072.712  
  20728397.200   108928517.468    20728399.480    84879368.098  
  24604246.140   129296195.006    24604251.380   100750290.743  
  23479153.040   123383789.683    23479152.900    96143233.017  
  22006094.600   115642847.126    22006097.380    90111335.584  
  20543819.580   107958573.432    20543818.940    84123591.390  
  19596800.960   104682640.876    19596805.980    81419874.709  
  23011919.840   122839189.9201   23011925.520    95541615.4171 
  22733811.200   121397304.033    22733817.500    94420156.830  
  23795201.540   127332904.587    23795208.680    99036730.280  
  21000078.940   112257496.846    21000083.940    87311434.366  
  20841201.340   111369127.931    20841207.040    86620480.507  
  19688506.620   105061653.062                                  
  22993497.620   123086007.040    22993503.120    95733586.722  
 21  8 31  0  4 30.0000000  0 17G10G12G 1G22G32G 3G21G25G31R16R22R 9
                                R21R 5R15R 6R 7
  22102121.680   116147463.778    22102124.740    90504541.018  
  23479148.020   123383781.637    23479147.540    96143222.619  
  22801197.100   119821106.712    22801201.300    93367125.219  
  23043635.580   121095139.750    23043633.900    94359854.841  
  20733005.060   108952731.736    20733007.340    84898236.354  
  24584129.740   129190480.905    24584134.560   100667916.173  
  23484028.880   123409411.995    23484028.600    96163198.442  
  22004260.940   115633211.062    22004263.780    90103826.981  
  20533972.900   107906828.567    20533972.200    84083270.734  
  19586122.540   104625598.954    19586127.440    81375508.788  
  23019908.600   122881835.248    23019914.300    95574784.005  
  22709421.440   121267064.924    22709427.640    94318859.873  
  23815017.660   127438944.193    23815024.420    99119205.414  
  21012291.320   112322778.690    21012296.400    87362209.096  
  20855881.420   111447573.729    20855887.400    86681493.905  
  19680106.180   105016825.813                                  
  22974672.440   122985234.715    22974678.320    95655208.355  
 21  8 31  0  5  0.0000000  0 17G10G12G 1G22G32G 3G21G25G31R16R22R 9
                                R21R 5R15R 6R 7
  22118951.220   116235903.697    22118954.180    90573455.204  
  23486848.460   123424248.663    23486848.040    96174755.339  
  22800857.080   119819319.661    22800861.160    93365732.687  
  23028003.560   121012992.197    23028001.620    94295843.798  
  20737661.260   108977200.077    20737663.500    84917302.594  
  24564030.180   129084857.327    24564034.860   100585612.164  
  23488984.360   123435453.476    23488984.260    96183490.480  
  22002547.620   115624207.836    22002550.600    90096811.478  
  20524222.000   107855587.622    20524221.500    84043342.746  
  19575584.080   104569304.696    19575588.880    81331724.391  
  23028025.180   122925160.966    23028030.480    95608481.765  
  22685067.980   121137020.158    22685074.200    94217714.057  
  23834871.580   127545185.224    23834877.660    99201837.279  
  21024569.380   112388412.131    21024574.660    87413257.284  
  20870674.240   111526622.325    20870680.200    86742976.117  
  19671771.200   104972348.880                                  
  22955846.120   122884454.167    22955852.240    95576823.587  
 21  8 31  0  5 30.0000000  0 17G10G12G 1G22G32G 3G21G25G31R16R22R 9
                                R21R 5R15R 6R 7
  22135846.780   116324691.121    22135849.800    90642640.157  
  23494660.280   123465300.023    23494660.000    96206743.391  
  22800633.920   119818146.443    22800637.740    93364818.491  
  23012422.460   120931113.731    23012420.840    94232042.443  
  20742366.080   109001923.966    20742368.100    84936567.958  
  24543948.620   128979328.028    24543953.400   100503381.645  
  23494019.400   123461914.259    23494019.760    96204109.263  
  22000955.060   115615839.649    22000958.180    90090290.830  
  20514567.400   107804852.699    20514566.940    84003809.056  
  19565186.380   104513761.857    19565191.100    81288524.415  
  23036269.320   122969165.295    23036273.700    95642707.383  
  22660752.000   121007174.995    22660758.140    94116723.485  
  23854762.640   127651624.776    23854768.000    99284623.506  
  21036913.420   112454398.412    21036918.680    87464579.897  
  20885579.660   111606271.560    20885585.180    86804925.508  
  19663502.500   104928225.625                                  
  22937018.960   122783668.266    22937025.100    95498434.622  
 21  8 31  0  6  0.0000000  0 18G10G12G 1G22G32G 3G21G25G31G26R16R22
                                R 9R21R 5R15R 6R 7
  22152809.200   116413830.280    22152812.300    90712099.193  
  23502583.880   123506939.889    23502583.480    96239190.026  
  22800528.440   119817592.588    22800532.560    93364386.918  
  22996893.640   120849512.534    22996892.880    94168457.160  
  20747120.660   109026909.310    20747122.560    84956037.062  
  24523886.080   128873901.091    24523890.880   100421230.839  
  23499135.280   123488799.117    23499135.860    96225058.477  
  21999484.740   115608113.139    21999487.860    90084270.189  
  20505010.440   107754630.761    20505010.120    83964675.101  
  24748684.720   130055214.4511   24748693.220   101341760.6511 
  19554930.720   104458978.670    19554935.740    81245915.284  
  23044640.900   123013851.814    23044645.340    95677463.552  
  22636475.140   120877538.641    22636481.340    94015895.318  
  23874690.660   127758263.770    23874695.540    99367564.877  
  21049324.640   112520743.587    21049329.860    87516181.677  
  20900597.940   111686523.763    20900603.320    86867343.890  
  19655301.620   104884464.411                                  
  22918191.620   122682884.076    22918197.180    95420046.983  
 21  8 31  0  6 30.0000000  0 18G10G12G 1G22G32G 3G21G25G31G26R16R22
                                R 9R21R 5R15R 6R 7
  22169834.360   116503299.329    22169837.580    90781815.280  
  23510615.560   123549147.453    23510615.800    96272079.019  
  22800536.780   119817637.522    22800541.040    93364421.919  
  22981414.540   120768170.807    22981414.120    94105074.027  
  20751921.280   109052135.921    20751923.120    84975694.159  
  24503840.120   128768558.556    24503844.500   100339145.805  
  23504327.880   123516086.378    23504328.440    96246321.277  
  21998132.840   115601008.828    21998136.000    90078734.370  
  20495547.280   107704901.864    20495547.140    83925925.333  
  24727403.120   129943373.484    24727409.140   101254612.087  
  19544813.680   104404936.305    19544818.980    81203882.369  
  23053135.440   123059196.774    23053139.880    95712731.909  
  22612234.220   120748094.220    22612240.460    93915216.438  
  23894651.460   127865077.401    23894657.260    99450642.096  
  21061799.100   112587426.931    21061804.560    87568046.448  
  20915724.340   111767354.971    20915729.540    86930212.612  
  19647164.720   104841046.389                                  
  22899360.720   122582082.660    22899366.040    95341645.979  
 21  8 31  0  7  0.0000000  0 18G10G12G 1G22G32G 3G21G25G31G26R16R22
                                R 9R21R 5R15R 6R 7
  22186924.620   116593108.537    22186927.800    90851796.440  
  23518757.080   123591932.833    23518757.620    96305418.271  
  22800661.400   119818292.761    22800665.860    93364932.493  
  22965987.940   120687102.733    22965987.440    94041904.145  
  20756770.040   109077615.854    20756771.880    84995548.658  
  24483813.140   128663314.704    24483816.600   100257137.616  
  23509599.020   123543786.455    23509599.560    96267905.723  
  21996901.700   115594539.406    21996904.840    90073693.277  
  20486180.520   107655678.821    20486180.220    83887569.736  
  24706109.980   129831477.798    24706116.880   101167420.728  
  19534838.160   104351648.745    19534843.480    81162436.507  
  23061755.080   123105209.705    23061760.080    95748519.752  
  22588032.200   120618857.558    22588038.540    93814699.125  
  23914646.240   127972073.210    23914653.500    99533860.950  
  21074339.140   112654460.671    21074344.500    87620183.768  
  20930960.580   111848773.478    20930965.720    86993538.102  
  19639095.180   104797986.445                                  
  22880529.360   122481277.576    22880534.360    95263242.075  
 21  8 31  0  7 30.0000000  0 18G10G12G 1G22G32G 3G21G25G31G26R16R22
                                R 9R21R 5R15R 6R 7
  22204080.380   116683260.980    22204083.500    90922045.049  
  23527009.240   123635299.742    23527010.680    96339210.605  
  22800902.940   119819562.641    22800907.620    93365922.026  
  22950615.000   120606315.362    22950613.800    93978952.940  
  20761667.780   109103353.872    20761669.620    85015604.255  
  24463805.980   128558176.527    24463810.060   100175211.826  
  23514949.520   123571902.897    23514949.780    96289814.614  
  21995792.200   115588710.342    21995795.720    90069151.149  
  20476911.140   107606967.294    20476910.680    83849612.722  
  24684808.100   129719534.822    24684814.560   101080192.656  
  19525005.280   104299123.276    19525010.460    81121583.385  
  23070499.760   123151892.769    23070505.580    95784828.791  
  22563870.540   120489836.984    22563877.000    93714349.901  
  23934674.940   128079251.491    23934683.140    99617221.727  
  21086945.660   112721849.323    21086950.940    87672597.145  
  20946307.040   111930780.555    20946312.780    87057321.362  
  19631094.220   104755291.333                                  
  22861698.320   122380475.437    22861703.880    95184840.488  
 21  8 31  0  8  0.0000000  0 17G10G12G 1G22G32G 3G21G25G31G26R16R 9
                                R21R 5R15R 6R 7
  22221300.100   116773750.959    22221303.520    90992556.658  
  23535371.060   123679242.514    23535372.940    96373451.695  
  22801260.620   119821442.682    22801265.440    93367386.993  
  22935294.800   120525806.932    22935293.380    93916219.106  
  20766613.900   109129345.961    20766615.700    85035857.830  
  24443818.420   128453142.296    24443822.960   100093367.029  
  23520378.100   123600430.230    23520378.400    96312043.674  
  21994803.860   115583518.172    21994807.660    90065105.321  
  20467738.340   107558763.610    20467737.840    83812051.427  
  24663496.540   129607543.124    24663503.100   100992926.572  
  19515314.800   104247357.234    19515319.560    81081320.921  
  22539749.460   120361031.899    22539755.900    93614168.263  
  23954736.400   128186603.423    23954744.460    99700717.610  
  21099617.860   112789589.134    21099622.980    87725283.627  
  20961762.100   112013368.549    20961768.400    87121556.454  
  19623161.180   104712959.213                                  
  22842867.460   122279673.445    22842873.260    95106439.014  
 21  8 31  0  8 30.0000000  0 17G10G12G 1G22G32G 3G21G25G31G26R16R 9
                                R21R 5R15R 6R 7
  22238583.220   116864574.720    22238586.840    91063328.354  
  23543842.260   123723758.038    23543843.940    96408139.063  
  22801733.960   119823930.374    22801738.700    93369325.452  
  22920027.400   120445577.690    22920025.920    93853702.823  
  20771607.940   109155590.160    20771609.980    85056307.856  
  24423850.520   128348212.202    24423855.460   100011603.399  
  23525884.100   123629364.645    23525884.560    96334589.934  
  21993936.820   115578961.526    21993940.580    90061554.697  
  20458661.820   107511066.438    20458661.320    83774884.820  
  24642175.720   129495503.493    24642182.300   100905623.157  
  19505766.120   104196350.367    19505770.960    81041648.936  
  22515669.040   120232443.829    22515675.180    93514155.417  
  23974828.960   128294122.379    23974836.660    99784343.402  
  21112355.100   112857677.511    21112360.500    87778241.216  
  20977324.960   112096531.447    20977330.920    87186238.695  
  19615296.240   104670990.335                                  
  22824036.560   122178870.912    22824042.620    95028037.119  
 21  8 31  0  9  0.0000000  0 17G10G12G 1G22G32G 3G21G25G31G26R16R 9
                                R21R 5R15R 6R 7
  22255929.640   116955730.186    22255933.100    91134358.541  
  23552422.180   123768844.690    23552424.080    96443271.484  
  22802322.760   119827024.831    22802327.460    93371736.713  
  22904813.520   120365629.583    22904812.340    93791405.604  
  20776649.900   109182086.156    20776652.180    85076954.080  
  24403903.300   128243388.362    24403908.020    99929922.509  
  23531467.140   123658704.491    23531467.740    96357452.123  
  21993190.780   115575040.681    21993194.400    90058499.489  
  20449681.700   107463876.159    20449681.140    83738113.192  
  24620846.500   129383418.174    24620852.960   100818284.075  
  19496360.080   104146104.405    19496364.780    81002568.758  
  22491629.900   120104075.914    22491636.060    93414313.789  
  23994951.920   128401803.493    23994958.420    99868095.284  
  21125157.600   112926114.090    21125163.100    87831469.621  
  20992994.600   112180265.410    20993000.600    87251365.101  
  19607499.840   104629386.693                                  
  22805205.340   122078068.977    22805212.020    94949635.709  
 21  8 31  0  9 30.0000000  0 17G10G12G 1G22G32G 3G21G25G31G26R16R 9
                                R21R 5R15R 6R 7
  22273339.320   117047217.769    22273342.400    91205647.510  
  23561111.440   123814502.676    23561112.180    96478849.079  
  22803027.580   119830727.610    22803032.060    93374622.024  
  22889654.240   120285967.000    22889653.220    93729330.883  
  20781740.240   109208836.082    20781742.480    85097798.176  
  24383977.200   128138675.096    24383981.480    99848327.754  
  23537127.620   123688450.732    23537128.160    96380630.982  
  21992566.120   115571758.228    21992569.940    90055941.754  
  20440798.560   107417195.440    20440798.100    83701738.625  
  24599509.340   129271291.958    24599515.700   100730913.163  
  19487096.980   104096622.972    19487101.840    80964083.224  
  22467632.960   119975933.882    22467639.100    93314647.845  
  24015104.680   128509644.579    24015110.460    99951971.607  
  21138025.800   112994901.120    21138031.140    87884970.622  
  21008770.960   112264568.618    21008776.700    87316934.254  
  19599772.600   104588152.041                                  
  22786375.180   121977271.591    22786381.740    94871237.796  
 21  8 31  0 10  0.0000000  0 17G10G12G 1G22G32G 3G21G25G31G26R16R 9
                                R21R 5R15R 6R 7
  22290812.160   117139037.177    22290814.920    91277195.054  
  23569909.280   123860732.204    23569909.580    96514872.083  
  22803847.940   119835039.600    22803852.660    93377982.007  
  22874550.200   120206593.686    22874549.140    93667481.557  
  20786879.180   109235841.415    20786881.400    85118841.295  
  24364072.460   128034076.127    24364077.400    99766822.081  
  23542865.580   123718603.177    23542865.980    96404126.371  
  21992063.460   115569116.180    21992067.240    90053883.016  
  20432012.820   107371026.004    20432012.380    83665762.467  
  24578165.300   129159129.109    24578172.300   100643513.641  
  19477977.800   104047909.394    19477982.600    80926194.902  
  22443679.400   119848022.703    22443685.580    93215161.460  
  24035286.520   128617642.310    24035292.240   100035969.784  
  21150959.680   113064039.683    21150965.020    87938745.024  
  21024653.680   112349439.012    21024658.640    87382944.554  
  19592115.140   104547290.698                                  
  22767546.780   121876481.237    22767552.760    94792845.324  
 21  8 31  0 10 30.0000000  0 18G10G12G 1G22G32G 3G21G25G31G26R16R22
                                R 9R21R 5R15R 6R 7
  22308347.300   117231184.240    22308350.040    91348997.905  
  23578814.720   123907529.850    23578814.500    96551337.771  
  22804784.020   119839957.759    22804788.740    93381814.316  
  22859501.340   120127509.640    22859500.340    93605857.650  
  20792066.100   109263099.827    20792068.600    85140081.606  
  24344188.900   127929591.384    24344194.480    99685405.480  
  23548680.160   123749157.921    23548680.240    96427935.240  
  21991682.220   115567112.645    21991685.840    90052321.816  
  20423324.020   107325366.220    20423323.580    83630183.440  
  24556814.480   129046929.847    24556821.300   100556085.727  
  19469002.000   103999962.807    19469006.980    80888903.131  
  23125555.900   123445786.6191   23125562.880    96013418.6531 
  22419769.100   119720343.874    22419775.420    93115855.786  
  24055496.460   128725789.584    24055503.180   100120084.295  
  21163958.820   113133527.028    21163964.000    87992790.697  
  21040641.000   112434870.568    21040645.920    87449391.316  
  19584527.600   104506802.163                                  
  22748719.680   121775697.576    22748724.800    94714458.032  
 21  8 31  0 11  0.0000000  0 18G10G12G 1G22G32G 3G21G25G31G26R16R22
                                R 9R21R 5R15R 6R 7
  22325944.420   117323657.559    22325947.360    91421054.990  
  23587827.780   123954893.989    23587827.140    96588244.903  
  22805835.300   119845481.789    22805839.900    93386118.773  
  22844508.000   120048717.601    22844506.520    93544461.252  
  20797301.260   109290611.693    20797303.920    85161519.417  
  24324328.360   127825223.586    24324333.940    99604079.972  
  23554571.020   123780113.735    23554570.700    96452056.645  
  21991422.680   115565748.433    21991426.200    90051258.807  
  20414732.420   107280217.060    20414732.000    83595002.294  
  24535457.160   128934697.288    24535463.920   100468631.948  
  19460170.120   103952785.205    19460175.100    80852209.468  
  23135158.360   123497042.691    23135165.060    96053284.503  
  22395903.160   119592900.861    22395909.540    93016733.502  
  24075733.780   128834082.391    24075741.480   100204311.940  
  21177023.340   113203363.821    21177028.320    88047108.174  
  21056732.680   112520859.675    21056737.980    87516271.710  
  19577010.320   104466688.444                                  
  22729894.240   121674922.181    22729899.540    94636077.180  
 21  8 31  0 11 30.0000000  0 18G10G12G 1G22G32G 3G21G25G31G26R16R22
                                R 9R21R 5R15R 6R 7
  22343603.220   117416455.828    22343606.620    91493365.260  
  23596948.020   124002823.252    23596947.480    96625592.411  
  22807001.820   119851611.560    22807006.520    93390895.216  
  22829570.460   119970220.201    22829568.940    93483294.457  
  20802584.860   109318377.504    20802587.620    85183155.108  
  24304491.120   127720975.548    24304496.240    99522847.760  
  23560537.960   123811469.764    23560537.360    96476489.898  
  21991284.980   115565024.399    21991288.280    90050694.629  
  20406238.100   107235579.378    20406237.620    83560219.703  
  24514093.960   128822434.582    24514100.860   100381154.638  
  19451482.840   103906379.074    19451487.680    80816115.821  
  23144881.020   123548940.158    23144887.080    96093649.180  
  22372082.100   119465697.738    22372088.400    92917797.812  
  24095997.160   128942516.571    24096005.680   100288649.590  
  21190153.100   113273549.964    21190158.220    88101697.342  
  21072927.920   112607402.996    21072933.540    87583583.156  
  19569563.940   104426952.757                                  
  22711070.580   121574157.388    22711076.440    94557704.588  
 21  8 31  0 12  0.0000000  0 18G10G12G 1G22G32G 3G21G25G31G26R16R22
                                R 9R21R 5R15R 6R 7
  22361323.860   117509578.840    22361327.560    91565928.582  
  23606176.080   124051318.309    23606175.760    96663380.757  
  22808283.640   119858347.929    22808288.200    93396144.322  
  22814689.260   119892020.891    22814687.940    93422359.962  
  20807917.140   109346398.884    20807920.140    85204989.942  
  24284677.000   127616851.117    24284682.140    99441711.829  
  23566580.820   123843225.484    23566580.200    96501234.582  
  21991269.380   115564942.594    21991272.760    90050630.865  
  20397841.660   107191455.439    20397841.020    83525837.431  
  24492726.040   128710146.062    24492732.780   100293657.184  
  19442940.420   103860747.096    19442945.220    80780624.301  
  23154722.940   123601477.922    23154729.140    96134511.912  
  22348306.920   119338739.675    22348313.200    92819052.714  
  24116287.040   129051089.386    24116293.880   100373095.042  
  21203348.680   113344087.164    21203353.760    88156559.574  
  21089226.600   112694498.668    21089232.480    87651324.203  
  19562188.880   104387598.518                                  
  22692249.440   121473406.202    22692255.280    94479342.575  
 21  8 31  0 12 30.0000000  0 18G10G12G 1G22G32G 3G21G25G31G26R16R22
                                R 9R21R 5R15R 6R 7
  22379105.580   117603022.255    22379109.320    91638741.573  
  23615510.680   124100375.195    23615511.340    96701606.871  
  22809680.320   119865687.650    22809685.020    93401863.590  
  22799864.960   119814119.859    22799863.640    93361657.876  
  20813297.620   109374673.358    20813300.680    85227021.989  
  24264886.260   127512850.103    24264891.020    99360672.157  
  23572699.100   123875377.336    23572698.360    96526287.947  
  21991375.620   115565500.803    21991379.000    90051065.847  
  20389542.460   107147842.893    20389541.800    83491853.652  
  24471353.320   128597832.004    24471359.960   100206139.849  
  19434542.500   103815888.274    19434547.660    80745734.125  
  23164684.400   123654649.511    23164689.940    96175867.622  
  22324577.640   119212027.456    22324583.820    92720498.840  
  24136601.040   129159793.543    24136607.080   100457642.647  
  21216609.240   113414972.497    21216614.500    88211692.573  
  21105627.660   112782139.923    21105633.500    87719489.622  
  19554885.480   104348625.994                                  
  22673430.400   121372667.662    22673436.200    94400990.380  
 21  8 31  0 13  0.0000000  0 18G10G12G 1G22G32G 3G21G25G31G26R16R22
                                R 9R21R 5R15R 6R 7
  22396948.120   117696784.820    22396951.640    91711803.267  
  23624952.120   124149992.549    23624953.360    96740269.683  
  22811191.920   119873630.513    22811196.320    93408052.829  
  22785098.140   119736519.966    22785096.700    93301190.456  
  20818726.340   109403201.472    20818729.240    85249251.680  
  24245119.660   127408975.443    24245124.080    99279730.903  
  23578892.540   123907924.009    23578892.040    96551648.978  
  21991603.840   115566699.928    21991607.320    90052000.232  
  20381340.880   107104742.842    20381340.060    83458269.207  
  24449976.480   128485495.621    24449983.180   100118605.105  
  19426290.080   103771804.773    19426295.140    80711446.980  
  23174763.660   123708453.155    23174769.220    96217714.900  
  22300895.280   119085565.343    22300901.080    92622139.496  
  24156938.700   129268625.087    24156944.920   100542289.322  
  21229935.020   113486206.169    21229940.260    88267096.488  
  21122130.160   112870323.673    21122135.340    87788076.981  
  19547654.140   104310037.664                                  
  22654614.460   121271943.890    22654619.960    94322649.672  
 21  8 31  0 13 30.0000000  0 18G10G12G 1G22G32G 3G21G25G31G26R16R22
                                R 9R21R 5R15R 6R 7
  22414850.980   117790864.569    22414854.460    91785112.106  
  23634500.300   124200168.403    23634501.900    96779367.714  
  22812817.980   119882175.590    22812822.320    93414711.322  
  22770389.100   119659222.927    22770387.660    93240959.021  
  20824203.280   109431983.123    20824206.100    85271678.924  
  24225377.280   127305229.264    24225381.660    99198889.779  
  23585160.580   123940863.520    23585160.480    96577316.083  
  21991954.020   115568540.139    21991957.400    90053434.155  
  20373236.700   107062155.191    20373235.960    83425084.051  
  24428595.760   128373139.473    24428602.560   100031054.977  
  19418182.920   103728497.926    19418187.820    80677763.889  
  23184960.180   123762885.054    23184966.020    96260050.822  
  22277260.440   118959356.923    22277266.040    92523977.471  
  24177298.740   129377579.574    24177306.240   100627031.603  
  21243326.000   113557788.180    21243331.200    88322771.340  
  21138733.180   112959045.942    21138738.140    87857083.174  
  19540494.680   104271834.905                                  
  22635801.740   121171236.272    22635807.120    94244321.508  
 21  8 31  0 14  0.0000000  0 16G10G12G 1G22G32G 3G21G25G31G26R16R 9
                                R 5R15R 6R 7
  22432813.520   117885258.131    22432817.020    91858665.471  
  23644154.640   124250899.850    23644156.360    96818898.685  
  22814558.200   119891320.518    22814562.640    93421837.228  
  22755738.000   119582230.065    22755736.640    93180964.626  
  20829728.400   109461016.789    20829731.100    85294302.551  
  24205659.840   127201612.521    24205664.560    99118149.499  
  23591502.880   123974193.186    23591502.720    96603287.251  
  21992426.000   115571020.156    21992429.280    90055366.631  
  20365229.960   107020079.491    20365229.260    83392297.807  
  24407211.540   128260764.846    24407218.460    99943490.474  
  19410221.140   103685967.382    19410226.020    80644684.590  
  22253673.420   118833403.779    22253679.140    92426013.999  
  21256781.820   113629716.471    21256786.980    88378715.521  
  21155435.940   113048301.298    21155441.300    87926503.998  
  19533408.180   104234019.054                                  
  22616992.040   121070545.108    22616997.040    94166006.162  
 21  8 31  0 14 30.0000000  0 16G10G12G 1G22G32G 3G21G25G31G26R16R 9
                                R 5R15R 6R 7
  22450835.960   117979966.340    22450839.440    91932464.020  
  23653914.740   124302187.985    23653915.900    96858863.447  
  22816412.940   119901067.187    22816417.260    93429432.027  
  22741145.540   119505545.876    22741144.340    93121210.762  
  20835301.980   109490305.219    20835304.500    85317124.701  
  24185967.860   127098130.160    24185972.560    99037513.943  
  23597919.800   124007914.047    23597919.660    96629563.234  
  21993020.280   115574142.921    21993023.420    90057799.955  
  20357321.160   106978518.627    20357320.400    83359912.743  
  24385824.800   128148376.992    24385831.300    99855915.627  
  19402405.340   103644217.190    19402410.240    80612212.233  
  22230135.380   118707712.311    22230141.260    92328254.062  
  21270302.600   113701993.537    21270307.980    88434930.956  
  21172238.520   113138088.799    21172243.800    87996338.689  
  19526394.980   104196595.227                                  
  22598186.200   120969874.513    22598190.940    94087706.823  
 21  8 31  0 15  0.0000000  0 16G10G12G 1G22G32G 3G21G25G31G26R16R 9
                                R 5R15R 6R 7
  22468917.400   118074984.231    22468920.720    92006503.890  
  23663779.940   124354027.546    23663780.620    96899257.921  
  22818381.220   119911411.562    22818385.700    93437492.593  
  22726611.300   119429169.435    22726610.300    93061696.685  
  20840923.400   109519845.306    20840925.660    85340142.934  
  24166301.400   126994781.495    24166305.640    98956982.544  
  23604409.860   124042020.922    23604410.200    96656139.991  
  21993736.360   115577905.503    21993739.520    90060731.833  
  20349509.800   106937469.624    20349508.940    83327926.521  
  24364435.360   128035975.678    24364441.760    99768330.320  
  19394735.480   103603245.699    19394740.200    80580345.538  
  22206646.340   118582282.920    22206652.220    92230697.971  
  21283888.060   113774615.874    21283893.460    88491414.940  
  21189139.340   113228401.232    21189144.180    88066581.664  
  19519454.980   104159561.948                                  
  22579383.760   120869223.186    22579388.660    94009422.512  
 21  8 31  0 15 30.0000000  0 17G10G12G 1G22G32G 3G21G25G31G26R16R22
                                R 9R 5R15R 6R 7
  22487058.140   118170314.069    22487061.420    92080786.822  
  23673750.680   124406421.151    23673750.860    96940084.098  
  22820463.920   119922356.939    22820468.340    93446021.452  
  22712136.680   119353107.465    22712136.160    93002427.671  
  20846593.580   109549641.160    20846595.640    85363360.478  
  24146661.280   126891572.930    24146665.860    98876560.343  
  23610974.260   124076516.399    23610974.620    96683019.557  
  21994574.880   115582312.244    21994578.140    90064165.655  
  20341796.600   106896937.173    20341795.920    83296342.818  
  24343044.680   127923567.760    24343051.260    99680739.868  
  19387212.380   103563057.813    19387216.800    80549088.296  
  23226911.080   123986827.0631   23226916.860    96434225.5061 
  22183207.840   118457123.187    22183213.800    92133351.610  
  21297538.920   113847587.587    21297544.380    88548170.673  
  21206138.600   113319239.105    21206143.520    88137233.339  
  19512589.200   104122925.236                                  
  22560585.880   120768596.737    22560591.340    93931157.573  
 21  8 31  0 16  0.0000000  0 17G10G12G 1G22G32G 3G21G25G31G26R16R22
                                R 9R 5R15R 6R 7
  22505257.520   118265952.386    22505260.960    92155310.111  
  23683825.920   124459365.696    23683825.620    96981339.598  
  22822660.460   119933900.720    22822664.940    93455016.616  
  22697722.280   119277360.633    22697721.720    92943404.198  
  20852312.080   109579691.273    20852314.160    85386776.137  
  24127047.980   126788505.249    24127053.020    98796247.965  
  23617612.100   124111397.464    23617612.440    96710199.585  
  21995535.880   115587361.684    21995538.960    90068100.271  
  20334181.400   106856919.778    20334180.900    83265160.453  
  24321652.960   127811154.382    24321659.480    99593145.194  
  19379835.780   103523653.500    19379840.200    80518440.518  
  23237686.780   124044349.5281   23237693.220    96478964.9371 
  22159820.100   118332234.866    22159826.260    92036216.361  
  21311254.960   113920906.580    21311260.180    88605196.521  
  21223235.340   113410596.765    21223240.100    88208289.268  
  19505798.240   104086686.110                                  
  22541792.920   120667995.395    22541798.420    93852912.128  
 21  8 31  0 16 30.0000000  0 17G10G12G 1G22G32G 3G21G25G31G26R16R22
                                R 9R 5R15R 6R 7
  22523515.200   118361896.482    22523518.660    92230071.692  
  23694005.340   124512858.718    23694005.100    97023022.460  
  22824970.520   119946041.210    22824975.120    93464476.751  
  22683368.380   119201930.411    22683367.660    92884627.422  
  20858078.620   109609994.814    20858080.580    85410389.273  
  24107462.120   126685580.054    24107466.440    98716046.581  
  23624322.640   124146661.558    23624322.980    96737678.069  
  21996618.900   115593053.143    21996621.880    90072535.172  
  20326664.220   106817417.041    20326663.720    83234379.121  
  24300260.660   127698737.494    24300266.900    99505547.750  
  19372606.000   103485033.564    19372610.540    80488402.806  
  23248576.780   124102481.015    23248583.240    96524178.267  
  22136483.720   118207620.643    22136489.900    91939294.277  
  21325035.460   113994571.836    21325040.960    88662491.672  
  21240427.940   113502469.662    21240432.380    88279745.921  
  19499081.780   104050845.966                                  
  22523004.500   120567420.231    22523010.200    93774687.078  
 21  8 31  0 17  0.0000000  0 17G10G12G 1G22G32G 3G21G25G31G26R16R22
                                R 9R 5R15R 6R 7
  22541830.820   118458146.595    22541834.460    92305071.724  
  23704288.220   124566900.486    23704288.240    97065132.904  
  22827394.740   119958779.540    22827399.160    93474402.718  
  22669075.440   119126820.914    22669074.580    92826100.588  
  20863893.760   109640554.006    20863895.580    85434201.629  
  24087904.140   126582801.881    24087908.420    98635959.796  
  23631106.080   124182308.902    23631106.560    96765455.202  
  21997824.440   115599388.816    21997827.340    90077472.056  
  20319245.500   106778431.367    20319244.980    83204000.687  
  24278868.660   127586322.001    24278874.840    99417951.389  
  19365523.660   103447200.860    19365528.320    80458977.376  
  23259580.680   124161219.385    23259587.100    96569863.663  
  22113199.780   118083286.504    22113205.980    91842590.033  
  21338881.020   114068585.045    21338886.800    88720057.444  
  21257716.500   113594855.898    21257721.260    88351601.850  
  19492440.880   104015408.616                                  
  22504221.200   120466874.689    22504227.120    93696485.030  
 21  8 31  0 17 30.0000000  0 17G10G12G 1G22G32G 3G21G25G31G26R16R22
                                R 9R 5R15R 6R 7
  22560204.100   118554700.079    22560207.860    92380308.142  
  23714675.080   124621488.375    23714675.860    97107668.911  
  22829932.440   119972113.924    22829936.620    93484793.156  
  22654844.140   119052033.601    22654842.900    92767824.770  
  20869757.320   109671368.063    20869759.480    85458212.563  
  24068374.400   126480172.312    24068378.320    98555988.746  
  23637962.040   124218336.944    23637962.360    96793528.985  
  21999152.640   115606368.042    21999155.520    90082910.424  
  20311925.060   106739962.574    20311924.660    83174025.030  
  24257477.200   127473909.943    24257483.500    99330357.733  
  19358588.680   103410155.634    19358593.540    80430164.439  
  23270697.780   124220560.241    23270703.560    96616017.667  
  22089968.860   117959234.882    22089975.060    91746105.516  
  21352791.840   114142945.207    21352797.320    88777893.083  
  21275100.380   113687750.862    21275105.420    88423853.459  
  19485875.780   103980376.446                                  
  22485443.700   120366359.775    22485450.060    93618306.863  
 21  8 31  0 18  0.0000000  0 17G10G12G 1G22G32G 3G21G25G31G26R16R22
                                R 9R 5R15R 6R 7
  22578634.600   118651553.549    22578638.360    92455778.306  
  23725165.380   124676619.210    23725167.000    97150627.991  
  22832582.800   119986041.970    22832587.040    93495646.176  
  22640674.440   118977569.937    22640673.180    92709801.163  
  20875669.200   109702435.591    20875671.600    85482421.017  
  24048872.760   126377692.255    24048876.680    98476134.224  
  23644889.580   124254742.873    23644890.120    96821897.203  
  22000602.720   115613989.364    22000606.080    90088849.113  
  20304702.840   106702009.128    20304702.280    83144450.919  
  24236086.620   127361502.643    24236093.140    99242767.754  
  19351800.940   103373897.269    19351805.900    80401963.507  
  23281926.480   124280498.635    23281931.720    96662636.422  
  22066791.140   117835467.794    22066797.520    91649842.324  
  21366767.020   114217650.663    21366772.500    88835997.281  
  21292578.520   113781149.141    21292583.520    88496496.553  
  19479386.720   103945748.872                                  
  22466672.100   120265876.037    22466678.560    93540152.896  
 21  8 31  0 18 30.0000000  0 16G10G12G 1G22G32G 3G21G25G31G26R16R 9
                                R 5R15R 6R 7
  22597121.400   118748701.605    22597125.060    92531478.039  
  23735759.160   124732287.225    23735759.820    97194005.640  
  22835345.200   120000559.034    22835349.620    93506958.173  
  22626565.860   118903427.801    22626564.360    92652028.106  
  20881628.720   109733753.156    20881631.080    85506824.298  
  24029400.040   126275360.802    24029403.400    98396395.399  
  23651888.240   124291520.901    23651889.020    96850555.371  
  22002174.480   115622249.366    22002178.060    90095285.486  
  20297577.840   106664567.534    20297577.400    83115275.677  
  24214696.920   127249099.349    24214703.420    99155180.876  
  19345160.120   103338423.772    19345165.200    80374373.026  
  22043666.720   117711985.279    22043673.120    91553800.462  
  21380806.080   114292697.305    21380811.580    88894366.860  
  21310149.800   113875043.267    21310154.860    88569525.301  
  19472973.220   103911525.636                                  
  22447906.440   120165421.567    22447912.700    93462021.752  
 21  8 31  0 19  0.0000000  0 16G10G12G 1G22G32G 3G21G25G31G26R16R 9
                                R 5R15R 6R 7
  22615664.960   118846147.383    22615668.560    92607409.763  
  23746456.020   124788495.788    23746456.740    97237804.546  
  22838220.480   120015669.174    22838224.900    93518732.320  
  22612519.860   118829614.703    22612518.380    92594511.456  
  20887636.740   109765325.782    20887639.200    85531426.330  
  24009956.760   126173185.211    24009959.900    98316778.053  
  23658958.580   124328674.690    23658959.300    96879506.353  
  22003868.720   115631152.980    22003872.220    90102223.375  
  20290551.560   106627643.419    20290550.860    83086503.646  
  24193309.460   127136707.912    24193315.900    99067603.262  
  19338667.400   103303741.335    19338672.320    80347397.807  
  22020597.380   117588795.604    22020603.540    91457986.360  
  21394909.700   114368089.996    21394915.280    88953005.578  
  21327813.880   113969434.501    21327819.400    88642940.690  
  19466636.580   103877713.362                                  
  22429147.760   120065002.919    22429153.500    93383918.445  
 21  8 31  0 19 30.0000000  0 16G10G12G 1G22G32G 3G21G25G31G26R16R 9
                                R 5R15R 6R 7
  22634264.240   118943886.532    22634268.000    92683570.067  
  23757254.760   124845240.822    23757255.340    97282021.427  
  22841208.100   120031368.774    22841212.300    93530965.790  
  22598536.580   118756130.625    22598534.680    92537251.152  
  20893692.780   109797151.128    20893695.440    85556225.288  
  23990543.120   126071165.737    23990546.580    98237282.406  
  23666099.460   124366199.803    23666100.280    96908746.672  
  22005684.880   115640697.714    22005688.560    90109660.820  
  20283623.300   106591234.486    20283622.420    83058133.067  
  24171924.280   127024328.731    24171930.820    98980035.182  
  19332322.420   103269848.005    19332327.360    80321036.343  
  21997583.160   117465900.257    21997589.160    91362401.168  
  21409077.660   114443826.105    21409083.340    89011911.414  
  21345569.440   114064316.415    21345575.240    88716737.716  
  19460377.000   103844312.304                                  
  22410395.400   119964619.766    22410401.140    93305842.740  
 21  8 31  0 20  0.0000000  0 16G10G12G 1G22G32G 3G21G25G31G26R16R 9
                                R 5R15R 6R 7
  22652919.440   119041919.849    22652923.360    92759959.593  
  23768155.600   124902523.274    23768155.840    97326657.119  
  22844308.120   120047659.528    22844312.300    93543659.897  
  22584616.900   118682980.471    22584614.620    92480251.064  
  20899797.420   109829232.001    20899800.060    85581223.358  
  23971160.120   125969307.324    23971163.600    98157912.253  
  23673311.220   124404097.550    23673311.940    96938277.343  
  22007623.760   115650886.395    22007627.420    90117600.058  
  20276793.520   106555343.595    20276792.580    83030166.145  
  24150542.600   126911967.334    24150549.040    98892480.977  
  19326125.880   103236747.547    19326131.000    80295291.561  
  21974625.200   117343305.249    21974631.040    91267049.568  
  21423310.280   114519907.752    21423316.120    89071085.960  
  21363416.820   114159687.947    21363422.800    88790915.531  
  19454195.440   103811326.179                                  
  22391650.200   119864276.664    22391655.920    93227798.188  
 21  8 31  0 20 30.0000000  0 16G10G12G 1G22G32G 3G21G25G31G26R16R 9
                                R 5R15R 6R 7
  22671629.760   119140243.565    22671633.700    92836575.420  
  23779157.740   124960339.347    23779158.300    97371708.575  
  22847520.040   120064538.445    22847524.220    93556812.291  
  22570760.640   118610164.616    22570758.120    92423511.468  
  20905950.480   109861566.533    20905953.080    85606419.090  
  23951807.860   125867610.695    23951811.560    98078668.167  
  23680593.360   124442363.830    23680593.700    96968095.238  
  22009684.760   115661716.957    22009688.360    90126039.476  
  20270061.880   106519969.066    20270061.040    83002601.602  
  24129164.440   126799624.710    24129170.940    98804941.385  
  19320077.700   103204438.954    19320082.680    80270162.670  
  21951723.620   117221011.985    21951729.180    91171932.656  
  21437607.140   114596332.767    21437613.080    89130527.604  
  21381354.800   114255543.467    21381360.740    88865469.790  
  19448091.920   103778756.381                                  
  22372912.320   119763973.190    22372918.180    93149784.453  
 21  8 31  0 21  0.0000000  0 16G10G12G 1G22G32G 3G21G25G31G26R16R 9
                                R 5R15R 6R 7
  22690395.440   119238857.290    22690398.980    92913417.245  
  23790260.920   125018688.778    23790261.860    97417175.641  
  22850844.040   120082005.867    22850847.780    93570423.303  
  22556968.380   118537687.007    22556966.080    92367035.445  
  20912152.220   109894156.395    20912154.960    85631813.771  
  23932487.120   125766079.902    23932490.580    97999553.284  
  23687945.600   124480998.856    23687945.680    96998200.410  
  22011868.260   115673190.925    22011871.540    90134980.228  
  20263428.880   106485112.666    20263428.080    82975440.787  
  24107790.500   126687305.279    24107796.860    98717419.839  
  19314178.260   103172924.707    19314183.160    80245651.600  
  21928879.500   117099025.824    21928884.820    91077054.602  
  21451968.520   114673102.207    21451974.520    89190237.121  
  21399383.080   114351880.274    21399389.040    88940398.403  
  19442067.220   103746606.646                                  
  22354183.020   119663713.088    22354188.800    93071804.436  
 21  8 31  0 21 30.0000000  0 17G10G12G 1G22G32G 3G21G25G31G26R16R22
                                R 9R 5R15R 6R 7
  22709216.100   119337759.619    22709219.200    92990483.955  
  23801465.440   125077570.145    23801466.620    97463057.160  
  22854279.660   120100061.236    22854283.540    93584492.393  
  22543240.760   118465550.383    22543238.680    92310825.089  
  20918402.760   109927002.180    20918405.240    85657407.887  
  23913198.340   125664717.940    23913201.960    97920569.951  
  23695367.680   124520000.955    23695367.600    97028591.641  
  22014174.120   115685308.614    22014177.480    90144422.605  
  20256894.720   106450775.205    20256893.800    82948684.332  
  24086421.800   126575012.413    24086428.240    98629919.006  
  19308427.720   103142206.312    19308432.700    80221759.531  
  23363602.620   124716497.7241   23363609.160    97001745.9191 
  21906093.480   116977350.670    21906098.740    90982418.439  
  21466394.500   114750216.466    21466400.360    89250214.835  
  21417501.060   114448695.329    21417506.380    89015699.010  
  19436121.680   103714879.377                                  
  22335462.500   119563498.885    22335468.060    92993860.112  
 21  8 31  0 22  0.0000000  0 17G10G12G 1G22G32G 3G21G25G31G26R16R22
                                R 9R 5R15R 6R 7
  22728090.500   119436945.014    22728093.680    93067771.220  
  23812769.980   125136977.180    23812770.740    97509348.377  
  22857826.520   120118699.681    22857830.540    93599015.846  
  22529577.640   118393753.393    22529576.060    92254879.385  
  20924701.240   109960100.311    20924703.580    85683198.627  
  23893941.580   125563523.661    23893945.440    97841717.308  
  23702858.260   124559365.035    23702858.040    97059264.904  
  22016601.960   115698066.287    22016605.160    90154363.647  
  20250458.560   106416952.880    20250457.640    82922329.277  
  24065057.960   126462745.367    24065064.620    98542438.314  
  19302825.600   103112280.624    19302830.500    80198484.013  
  23375703.260   124781090.510    23375709.840    97051984.701  
  21883365.680   116855986.284    21883370.980    90888023.994  
  21480884.180   114827671.180    21480889.700    89310457.361  
  21435706.720   114545980.922    21435711.900    89091365.544  
  19430254.860   103683573.128                                  
  22316750.260   119463328.623    22316755.240    92915949.971  
 21  8 31  0 22 30.0000000  0 16G10G12G 1G22G32G 3G21G25G31G26R16R 9
                                R 5R15R 6R 7
  22747018.780   119536413.615    22747022.240    93145279.155  
  23824174.700   125196911.044    23824174.720    97556050.064  
  22861484.560   120137922.054    22861488.220    93613994.324  
  22515979.820   118322300.276    22515979.060    92199201.662  
  20931048.080   109993453.002    20931050.580    85709187.724  
  23874717.640   125462501.716    23874721.580    97762998.976  
  23710417.860   124599091.643    23710417.640    97090220.683  
  22019152.000   115711465.826    22019155.140    90164804.849  
  20244120.840   106383648.591    20244120.040    82896377.898  
  24043700.200   126350509.113    24043706.660    98454981.574  
  19297372.460   103083150.504    19297377.160    80175827.259  
  21860697.300   116734938.373    21860702.720    90793875.697  
  21495437.820   114905468.606    21495443.520    89370966.429  
  21453999.800   114643734.937    21454005.020    89167396.394  
  19424467.720   103652692.016                                  
  22298046.240   119363206.087    22298051.260    92838076.972  
 21  8 31  0 23  0.0000000  0 17G10G12G 1G22G32G 3G21G25G31G26R16R22
                                R 9R 5R15R 6R 7
  22766000.160   119636161.183    22766003.740    93223004.475  
  23835679.160   125257367.163    23835679.220    97603158.759  
  22865253.100   120157724.875    22865256.820    93629425.086  
  22502447.820   118251191.199    22502447.520    92143792.006  
  20937442.960   110027058.003    20937445.280    85735373.437  
  23855526.640   125361652.265    23855530.660    97684415.082  
  23718045.260   124639175.842    23718045.440    97121455.108  
  22021823.440   115725504.725    22021826.840    90175744.264  
  20237881.220   106350859.460    20237880.500    82870827.942  
  24022348.360   126238304.179    24022354.740    98367549.271  
  19292067.860   103054814.169    19292072.600    80153787.899  
  23400221.260   124911968.8621   23400227.980    97153782.1341 
  21838088.280   116614207.972    21838093.900    90699974.345  
  21510054.820   114983605.637    21510060.640    89431739.627  
  21472379.660   114741951.598    21472385.000    89243787.084  
  19418760.480   103622236.076                                  
  22279351.120   119263130.872    22279356.540    92760240.758  
 21  8 31  0 23 30.0000000  0 16G10G12G 1G22G32G 3G21G25G31G26R16R 9
                                R 5R15R 6R 7
  22785034.860   119736189.220    22785038.500    93300948.343  
  23847283.300   125318346.461    23847283.500    97650675.085  
  22869132.160   120178110.371    22869136.100    93645309.868  
  22488982.760   118180431.873    22488982.640    92088654.869  
  20943886.400   110060918.871    20943888.620    85761758.519  
  23836369.480   125260981.290    23836373.720    97605970.239  
  23725741.380   124679619.488    23725741.880    97152969.613  
  22024617.200   115740186.214    22024620.600    90187184.369  
  20231740.400   106318589.291    20231739.680    82845682.360  
  24001003.640   126126136.963    24001009.760    98280146.340  
  19286912.580   103027275.847    19286917.340    80132369.215  
  21815539.820   116493802.200    21815545.660    90606325.502  
