     2.11           OBSERVATION DATA    M (MIXED)           RINEX VERSION / TYPE
CONVBIN 2.4.3                           20210901 012356 UTC PGM / RUN BY / DATE 
log: ngs/moip2420.21o                                       COMMENT             
format: RINEX                                               COMMENT             
MOIP                                                        MARKER NAME         
MOIP                                                        MARKER NUMBER       
                                                            OBSERVER / AGENCY   
5750R40067          TRIMBLE ALLOY       Nav 6.10 / Boot 5.50REC # / TYPE / VERS 
1431179213          TRM115000.00    NONE                    ANT # / TYPE        
  -379062.4570 -4940496.4220  4002992.1490                  APPROX POSITION XYZ 
        0.0000        0.0000        0.0000                  ANTENNA: DELTA H/E/N
     1     1                                                WAVELENGTH FACT L1/2
     4    C1    L1    P2    L2                              # / TYPES OF OBSERV 
    30.000                                                  INTERVAL            
  2021     8    30     0     0    0.0000000     GPS         TIME OF FIRST OBS   
  2021     8    30    23    59   30.0000000     GPS         TIME OF LAST OBS    
                                                            END OF HEADER       
 21  8 30  0  0  0.0000000  0 17G 1G 3G10G12G21G22G23G25G31G32R 4R 5
                                R14R15R16R20R21
  22478313.367   118124304.771    22478315.734    92044970.985  
  24680959.516   129699319.682    24680961.227   101064403.634  
  21985653.430   115535450.702    21985654.516    90027609.350  
  23977394.313   126002078.073    23977393.523    98183491.579  
  22923289.242   120462711.752    22923287.492    93867061.663  
  23074923.039   121259514.306    23074919.902    94487963.553  
  25029284.758   131529784.124    25029285.371   102490730.491  
  22588694.742   118704447.984    22588695.785    92496987.665  
  20457755.047   107506510.708    20457752.625    83771147.335  
  20941231.016   110046970.772    20941231.539    85750915.851  
  21194260.977   113494331.620    21194257.262    88273394.374  
  19838937.813   106050546.705    19838934.566    82483728.278  
  21047681.063   112196027.785    21047679.020    87263645.267  
  19826330.273   105945977.889    19826327.043    82402425.099  
  23012139.203   122926709.281    23012135.332    95609699.449  
  22843864.180   122156406.628    22843864.754    95010532.166  
  22678949.547   121359613.647    22678947.602    94390832.687  
 21  8 30  0  0 30.0000000  0 17G 1G 3G10G12G21G22G23G25G31G32R 4R 5
                                R14R15R16R20R21
  22474125.383   118102298.997    22474128.527    92027823.633  
  24661219.313   129595586.583    24661220.793   100983572.725  
  22000624.703   115614125.151    22000625.676    90088914.077  
  23982798.625   126030475.945    23982798.711    98205619.815  
  22925347.609   120473525.448    22925345.172    93875487.898  
  23058736.836   121174451.532    23058733.180    94421680.902  
  25049302.414   131634980.476    25049303.172   102572701.651  
  22585510.797   118687716.078    22585512.266    92483949.824  
  20448076.523   107455652.433    20448074.688    83731517.523  
  20947131.172   110077975.074    20947131.680    85775075.031  
  21204947.875   113551558.485    21204944.250    88317904.172  
  19834213.766   106025294.226    19834210.602    82464087.453  
  21060726.836   112265570.501    21060725.195    87317734.063  
  19816315.695   105892465.898    19816313.070    82360804.678  
  22986667.719   122790650.400    22986665.082    95503876.019  
  22863236.430   122259992.487    22863236.195    95091098.884  
  22680663.445   121368780.674    22680660.727    94397962.568  
 21  8 30  0  1  0.0000000  0 17G 1G 3G10G12G21G22G23G25G31G32R 4R 5
                                R14R15R16R20R21
  22470053.938   118080902.923    22470056.176    92011151.390  
  24641486.516   129491887.273    24641487.012   100902768.116  
  22015663.242   115693154.164    22015664.301    90150495.081  
  23988312.844   126059453.630    23988313.250    98228199.877  
  22927492.289   120484798.940    22927489.820    93884272.369  
  23042587.375   121089585.126    23042584.004    94355551.275  
  25069341.141   131740285.065    25069341.133   102654757.116  
  22582438.945   118671576.598    22582440.891    92471373.614  
  20438501.195   107405332.143    20438498.953    83692306.926  
  20953070.188   110109186.515    20953071.047    85799395.635  
  21215686.078   113609060.818    21215682.574    88362628.189  
  19829542.336   106000321.531    19829538.773    82444664.286  
  21073896.344   112335771.400    21073894.461    87372334.743  
  19806442.031   105839705.699    19806439.637    82319768.983  
  22961221.203   122654718.432    22961218.113    95398151.300  
  22882663.047   122363877.891    22882663.281    95171898.587  
  22682518.211   121378710.513    22682516.125    94405685.790  
 21  8 30  0  1 30.0000000  0 17G 1G 3G10G12G21G22G23G25G31G32R 4R 5
                                R14R15R16R20R21
  22466099.039   118060116.513    22466100.848    91994954.190  
  24621759.836   129388222.815    24621760.023   100821990.690  
  22030769.195   115772535.937    22030770.168    90212350.981  
  23993936.984   126089010.027    23993935.832    98251230.809  
  22929724.719   120496530.994    22929722.844    93893414.238  
  23026475.438   121004916.724    23026471.945    94289575.933  
  25089400.391   131845695.756    25089398.137   102736895.302  
  22579480.828   118656030.223    22579482.266    92459259.580  
  20429028.320   107355549.994    20429025.824    83653515.647  
  20959049.133   110140604.192    20959049.410    85823876.933  
  21226475.164   113666838.407    21226471.926    88407566.283  
  19824923.125   105975629.416    19824919.758    82425459.304  
  21087188.758   112406626.578    21087186.770    87427444.311  
  19796710.000   105787698.724    19796707.195    82279319.130  
  22935798.031   122518916.485    22935795.828    95292527.684  
  22902145.617   122468057.185    22902145.102    95252926.870  
  22684516.578   121389401.603    22684513.871    94414001.041  
 21  8 30  0  2  0.0000000  0 17G 1G 3G10G12G21G22G23G25G31G32R 4R 5
                                R14R15R16R20R21
  22462259.297   118039940.096    22462261.246    91979232.311  
  24602039.305   129284595.096    24602041.121   100741241.852  
  22045941.609   115852269.248    22045942.746    90274480.807  
  23999671.477   126119143.688    23999670.445    98274711.561  
  22932044.695   120508720.830    22932042.512    93902912.772  
  23010401.648   120920448.237    23010398.297    94223756.355  
  25109479.492   131951211.057    25109475.520   102819114.877  
  22576635.719   118641078.092    22576636.980    92447608.568  
  20419657.367   107306306.711    20419655.316    83615144.269  
  20965066.609   110172227.655    20965066.840    85848518.576  
  21237316.734   113724891.388    21237312.699    88452718.544  
  19820356.539   105951219.695    19820353.285    82406473.979  
  21100603.438   112478132.457    21100601.316    87483059.987  
  19787118.781   105736447.281    19787116.156    82239456.906  
  22910400.789   122383248.032    22910398.633    95187007.900  
  22921681.109   122572525.603    22921681.203    95334179.999  
  22686656.250   121400852.692    22686653.855    94422907.470  
 21  8 30  0  2 30.0000000  0 17G 1G 3G10G12G21G22G23G25G31G32R 4R 5
                                R14R15R16R20R21
  22458535.516   118020374.256    22458538.098    91963986.205  
  24582326.828   129181006.050    24582329.645   100660523.147  
  22061180.984   115932353.030    22061182.379    90336883.727  
  24005515.313   126149854.191    24005516.965    98298641.791  
  22934451.406   120521367.440    22934449.051    93912767.299  
  22994366.711   120836181.757    22994362.691    94158094.192  
  25129577.461   132056829.429    25129574.500   102901414.852  
  22573903.586   118626721.402    22573905.207    92436421.535  
  20410389.570   107257603.165    20410387.332    83577193.468  
  20971123.938   110204056.675    20971123.441    85873320.414  
  21248208.984   113783220.271    21248204.926    88498085.448  
  19815843.508   105927093.580    19815840.004    82387709.230  
  21114138.938   112550286.062    21114137.035    87539179.455  
  19777669.727   105685953.660    19777666.762    82200184.101  
  22885028.320   122247717.491    22885026.891    95081595.390  
  22941270.641   122677278.224    22941270.238    95415654.176  
  22688937.922   121413062.493    22688935.574    94432403.933  
 21  8 30  0  3  0.0000000  0 17G 1G 3G10G12G21G22G23G25G31G32R 4R 5
                                R14R15R16R20R21
  22454928.883   118001419.375    22454931.195    91949216.181  
  24562623.156   129077457.451    24562624.719   100579835.982  
  22076487.125   116012786.085    22076488.527    90399558.822  
  24011469.016   126181140.809    24011470.176    98323021.007  
  22936944.180   120534470.154    22936941.891    93922977.167  
  22978369.945   120752119.549    22978366.188    94092591.204  
  25149695.352   132162549.351    25149692.059   102983793.892  
  22571284.656   118612961.381    22571286.641    92425699.444  
  20401224.148   107209440.439    20401222.137    83539664.084  
  20977219.313   110236091.030    20977219.535    85898282.234  
  21259152.547   113841825.395    21259148.895    88543667.193  
  19811383.352   105903252.522    19811380.141    82369166.173  
  21127795.523   112623083.900    21127793.617    87595799.960  
  19768362.609   105636219.902    19768359.727    82161502.299  
  22859683.883   122112328.471    22859681.500    94976292.957  
  22960912.836   122782310.587    22960911.816    95497345.949  
  22691361.563   121426029.731    22691358.754    94442489.557  
 21  8 30  0  3 30.0000000  0 17G 1G 3G10G12G21G22G23G25G31G32R 4R 5
                                R14R15R16R20R21
  22451438.625   117983075.974    22451440.676    91934922.653  
  24542925.453   128973951.332    24542927.672   100499181.920  
  22091859.531   116093567.366    22091860.789    90462505.238  
  24017532.352   126213002.735    24017531.008    98347848.506  
  22939524.539   120548028.232    22939521.770    93933541.912  
  22962412.867   120668263.692    22962408.492    94027248.965  
  25169832.391   132268369.360    25169829.965   103066251.015  
  22568780.086   118599799.208    22568781.891    92415443.245  
  20392162.359   107161819.366    20392160.215    83502556.758  
  20983354.336   110268330.495    20983354.621    85923403.881  
  21270149.250   113900707.036    21270145.063    88589464.006  
  19806976.664   105879698.530    19806973.656    82350846.417  
  21141572.797   112696522.836    21141570.918    87652919.145  
  19759198.047   105587248.337    19759195.344    82123413.330  
  22834365.852   121977084.997    22834363.723    94871103.726  
  22980605.945   122887618.082    22980604.980    95579251.700  
  22693925.891   121439753.212    22693923.070    94453163.370  
 21  8 30  0  4  0.0000000  0 16G 1G 3G10G12G21G22G25G31G32R 4R 5R14
                                R15R16R20R21
  22448063.930   117965344.433    22448065.313    91921105.858  
  24523237.133   128870489.540    24523238.473   100418562.357  
  22107297.586   116174695.554    22107298.680    90525721.984  
  24023704.867   126245439.580    24023703.719    98373123.918  
  22942190.688   120562040.659    22942189.230    93944460.686  
  22946494.617   120584616.160    22946491.605    93962069.112  
  22566389.531   118587235.972    22566391.098    92405653.718  
  20383203.336   107114740.471    20383201.305    83465871.925  
  20989528.336   110300774.678    20989528.355    85948685.076  
  21281196.414   113959865.705    21281192.832    88635476.306  
  19802624.938   105856432.434    19802621.254    82332750.570  
  21155469.125   112770599.463    21155467.535    87710534.259  
  19750177.023   105539041.063    19750173.914    82085918.805  
  22809076.055   121841991.091    22809073.957    94766030.811  
  23000349.445   122993195.717    23000348.875    95661367.583  
  22696631.523   121454231.545    22696629.527    94464424.286  
 21  8 30  0  4 30.0000000  0 16G 1G 3G10G12G21G22G25G31G32R 4R 5R14
                                R15R16R20R21
  22444806.656   117948224.839    22444807.891    91907765.924  
  24503558.219   128767073.832    24503559.133   100337978.726  
  22122801.438   116256169.294    22122803.023    90589207.965  
  24029986.500   126278449.971    24029986.320    98398846.353  
  22944944.125   120576506.479    22944941.914    93955732.735  
  22930617.195   120501179.239    22930613.996    93897053.345  
  22564113.375   118575272.607    22564114.527    92396331.615  
  20374348.250   107068204.600    20374345.813    83429610.224  
  20995741.156   110333423.138    20995741.426    85974125.429  
  21292295.398   114019301.281    21292292.340    88681703.932  
  19798326.398   105833455.939    19798323.055    82314879.975  
  21169484.508   112845310.115    21169482.934    87768642.526  
  19741298.883   105491599.789    19741295.805    82049020.040  
  22783814.391   121707049.752    22783812.438    94661076.547  
  23020142.086   123099038.691    23020141.961    95743689.798  
  22699478.000   121469463.077    22699475.449    94476271.036  
 21  8 30  0  5  0.0000000  0 16G 1G 3G10G12G21G22G25G31G32R 4R 5R14
                                R15R16R20R21
  22441665.078   117931717.686    22441667.156    91894903.224  
  24483887.367   128663706.105    24483889.109   100257432.499  
  22138371.422   116337987.439    22138372.379    90652962.349  
  24036377.320   126312033.245    24036375.613    98425015.101  
  22947782.945   120591424.560    22947780.637    93967357.206  
  22914780.133   120417955.174    22914777.102    93832203.439  
  22561950.836   118563910.222    22561952.789    92387477.820  
  20365595.820   107022212.715    20365593.961    83393772.399  
  21001992.734   110366275.711    21001993.102    85999724.828  
  21303446.586   114079014.249    21303443.359    88728147.320  
  19794083.117   105810770.604    19794079.148    82297235.829  
  21183619.125   112920651.561    21183616.582    87827241.427  
  19732564.453   105444926.588    19732561.777    82012718.676  
  22758582.383   121572265.815    22758580.746    94556244.655  
  23039985.492   123205142.345    23039984.371    95826214.777  
  22702464.289   121485446.444    22702462.023    94488702.532  
 21  8 30  0  5 30.0000000  0 16G 1G 3G10G12G21G22G25G31G32R 4R 5R14
                                R15R16R20R21
  22438640.641   117915823.420    22438642.887    91882518.080  
  24464226.758   128560388.570    24464227.949   100176925.360  
  22154006.000   116420148.966    22154007.438    90716984.291  
  24042876.922   126346188.487    24042875.219    98451629.564  
  22950707.609   120606794.452    22950706.398    93979333.726  
  22898983.992   120334945.907    22898980.938    93767520.927  
  22559903.266   118553150.037    22559904.984    92379093.295  
  20356947.742   106976765.459    20356945.586    83358358.968  
  21008283.539   110399332.331    21008283.512    86025483.214  
  21314649.969   114139005.143    21314646.199    88774806.905  
  19789893.891   105788378.056    19789890.551    82279819.406  
  21197869.922   112996620.343    21197868.063    87886328.251  
  19723974.445   105399023.642    19723971.734    81977016.407  
  22733380.344   121437642.446    22733378.980    94451537.664  
  23059874.656   123311502.239    23059874.508    95908939.072  
  22705592.109   121502180.657    22705589.547    94501717.987  
 21  8 30  0  6  0.0000000  0 16G 1G 3G10G12G21G22G25G31G32R 4R 5R14
                                R15R16R20R21
  22435732.797   117900542.225    22435734.414    91870610.661  
  24444576.219   128457122.892    24444576.551   100096458.655  
  22169706.172   116502652.535    22169707.488    90781272.737  
  24049485.641   126380915.020    24049486.086    98478689.206  
  22953717.828   120622615.013    22953715.797    93991661.418  
  22883228.953   120252153.632    22883225.508    93703007.477  
  22557971.031   118542992.941    22557972.484    92371178.691  
  20348403.008   106931863.457    20348401.102    83323370.416  
  21014612.563   110432592.544    21014612.684    86051400.257  
  21325904.094   114199274.068    21325900.848    88821682.699  
  19785759.805   105766279.822    19785756.594    82262631.908  
  21212239.086   113073213.243    21212236.672    87945900.458  
  19715528.992   105353892.707    19715526.004    81941914.587  
  22708209.773   121303184.274    22708207.988    94346959.160  
  23079810.922   123418113.442    23079811.156    95991858.848  
  22708859.203   121519663.652    22708856.375    94515315.839  
 21  8 30  0  6 30.0000000  0 16G 1G 3G10G12G21G22G25G31G32R 4R 5R14
                                R15R16R20R21
  22432941.297   117885874.503    22432943.965    91859181.281  
  24424935.852   128353911.268    24424936.035   100016034.075  
  22185470.469   116585497.035    22185472.203    90845826.843  
  24056201.914   126416211.308    24056202.504    98506192.809  
  22956814.250   120638885.540    22956812.293    94004339.708  
  22867515.852   120169580.266    22867512.117    93638664.612  
  22556152.750   118533440.108    22556154.121    92363734.934  
  20339962.617   106887507.934    20339960.480    83288807.676  
  21020980.234   110466056.273    21020980.965    86077475.890  
  21337211.031   114259821.510    21337207.719    88868775.154  
  19781681.156   105744477.166    19781677.754    82245674.290  
  21226723.938   113150426.705    21226721.945    88005955.349  
  19707227.805   105309536.031    19707225.293    81907414.968  
  22683070.305   121168894.982    22683068.586    94242512.006  
  23099794.242   123524971.677    23099794.125    96074970.694  
  22712265.836   121537894.211    22712262.891    94529495.167  
 21  8 30  0  7  0.0000000  0 16G 1G 3G10G12G21G22G25G31G32R 4R 5R14
                                R15R16R20R21
  22430267.242   117871820.327    22430269.434    91848229.980  
  24405306.055   128250755.528    24405306.168    99935653.041  
  22201299.836   116668681.063    22201301.832    90910645.539  
  24063026.586   126452077.207    24063025.430    98534140.255  
  22959995.773   120655604.749    22959994.383    94017367.656  
  22851844.789   120087228.285    22851841.793    93574494.264  
  22554450.008   118524492.315    22554451.598    92356762.644  
  20331626.430   106843698.941    20331623.898    83254670.796  
  21027387.148   110499723.161    21027387.500    86103709.808  
  21348569.953   114320647.694    21348566.465    88916084.393  
  19777657.992   105722972.001    19777654.926    82228948.054  
  21241324.555   113228257.316    21241322.695    88066490.275  
  19699072.594   105265955.114    19699069.848    81873518.714  
  22657963.250   121034778.396    22657961.426    94138199.190  
  23119822.664   123632071.734    23119822.035    96158270.619  
  22715811.961   121556870.783    22715809.660    94544254.728  
 21  8 30  0  7 30.0000000  0 16G 1G 3G10G12G21G22G25G31G32R 4R 5R14
                                R15R16R20R21
  22427709.547   117858379.922    22427711.848    91837756.940  
  24385686.859   128147657.636    24385687.980    99855317.060  
  22217194.258   116752203.361    22217195.348    90975727.817  
  24069960.078   126488511.177    24069957.734    98562530.378  
  22963262.461   120672771.786    22963260.164    94030744.537  
  22836216.438   120005099.819    22836212.125    93510498.065  
  22552862.891   118516150.498    22552864.387    92350262.532  
  20323393.828   106800437.371    20323391.539    83220960.505  
  21033832.328   110533592.923    21033832.609    86130101.828  
  21359981.016   114381753.064    21359977.172    88963610.740  
  19773691.273   105701765.639    19773687.754    82212454.231  
  21256040.813   113306701.309    21256038.891    88127502.257  
  19691062.625   105223151.910    19691059.738    81840227.345  
  22632889.320   120900838.510    22632887.457    94034023.807  
  23139895.203   123739409.110    23139895.094    96241755.173  
  22719496.828   121576591.453    22719494.336    94559593.078  
 21  8 30  0  8  0.0000000  0 16G 1G 3G10G12G21G22G25G31G32R 4R 5R14
                                R15R16R20R21
  22425268.914   117845553.426    22425270.551    91827762.293  
  24366079.148   128044619.459    24366080.887    99775027.635  
  22233151.969   116836062.582    22233153.078    91041072.636  
  24077001.516   126525512.606    24077000.770    98591362.646  
  22966614.375   120690385.650    22966612.066    94044469.607  
  22820630.406   119923197.019    22820626.410    93446677.733  
  22551391.125   118508415.579    22551391.680    92344235.336  
  20315265.523   106757723.752    20315263.082    83187677.178  
  21040315.922   110567665.269    21040316.254    86156651.710  
  21371444.055   114443137.598    21371440.496    89011354.253  
  19769780.531   105680859.592    19769776.648    82196193.962  
  21270870.859   113385755.375    21270869.457    88188988.721  
  19683197.914   105181128.099    19683195.547    81807542.181  
  22607849.828   120767079.289    22607847.340    93929988.982  
  23160011.125   123846978.818    23160011.383    96325420.438  
  22723321.141   121597054.580    22723319.484    94575508.891  
 21  8 30  0  8 30.0000000  0 16G 1G 3G10G12G21G22G25G31G32R 4R 5R14
                                R15R16R20R21
  22422945.133   117833340.971    22422946.758    91818246.092  
  24346483.867   127941643.040    24346485.430    99694786.350  
  22249174.055   116920257.508    22249174.602    91106679.012  
  24084150.047   126563080.159    24084150.555    98620636.061  
  22970050.898   120708445.173    22970048.500    94058541.962  
  22805088.664   119841521.928    22805083.777    93383034.818  
  22550034.289   118501288.320    22550035.258    92338681.651  
  20307241.906   106715558.727    20307239.195    83154821.326  
  21046838.305   110601939.961    21046838.113    86183359.253  
  21382959.219   114504801.451    21382955.883    89059314.992  
  19765925.969   105660255.383    19765922.344    82180168.477  
  21285815.281   113465415.888    21285813.449    88250946.891  
  19675480.820   105139885.460    19675477.547    81775464.573  
  22582843.461   120633504.477    22582841.652    93826097.563  
  23180170.914   123954776.401    23180169.758    96409262.914  
  22727284.000   121618258.430    22727280.414    94592000.739  
 21  8 30  0  9  0.0000000  0 16G 1G 3G10G12G21G22G25G31G32R 4R 5R14
                                R15R16R20R21
  22420736.938   117821742.785    22420740.004    91809208.555  
  24326900.359   127838730.508    24326901.574    99614594.820  
  22265259.117   117004786.902    22265260.270    91172546.025  
  24091406.477   126601212.573    24091403.805    98650349.660  
  22973572.719   120726949.297    22973570.211    94072960.738  
  22789590.563   119760076.786    22789585.906    93319571.114  
  22548794.211   118494769.742    22548795.336    92333602.258  
  20299322.641   106673942.979    20299320.188    83122393.481  
  21053398.930   110636416.844    21053398.707    86210224.340  
  21394527.195   114566745.169    21394523.316    89107493.403  
  19762128.125   105639954.579    19762124.492    82164378.965  
  21300872.430   113545679.444    21300870.895    88313374.062  
  19667908.828   105099425.694    19667906.074    81743995.888  
  22557873.484   120500118.079    22557871.160    93722352.689  
  23200370.234   124062797.191    23200370.484    96493278.985  
  22731383.664   121640201.205    22731381.883    94609067.346  
 21  8 30  0  9 30.0000000  0 16G 1G 3G10G12G21G22G25G31G32R 4R 5R14
                                R15R16R20R21
  22418647.680   117810758.837    22418648.719    91800649.643  
  24307328.836   127735883.629    24307330.566    99534454.465  
  22281407.898   117089649.317    22281408.828    91238672.548  
  24098769.656   126639909.667    24098769.684    98680503.261  
  22977178.039   120745897.122    22977175.508    94087725.257  
  22774135.898   119678863.678    22774131.703    93256288.202  
  22547669.102   118488860.561    22547670.750    92328997.707  
  20291507.859   106632877.197    20291505.492    83090394.190  
  21059998.383   110671095.593    21059998.246    86237246.741  
  21406147.102   114628969.044    21406143.270    89155889.741  
  19758387.648   105619958.880    19758384.008    82148826.760  
  21316042.250   113626542.323    21316040.195    88376267.388  
  19660484.227   105059750.556    19660481.219    81713137.451  
  22532939.500   120366923.386    22532936.887    93618756.898  
  23220611.500   124171036.172    23220612.418    96577464.787  
  22735622.672   121662881.334    22735620.672    94626707.441  
 21  8 30  0 10  0.0000000  0 16G 1G 3G10G12G21G22G25G31G32R 4R 5R14
                                R15R16R20R21
  22416674.031   117800389.280    22416677.055    91792569.454  
  24287770.242   127633104.589    24287772.340    99454366.945  
  22297619.789   117174843.496    22297621.059    91305057.607  
  24106241.258   126679169.773    24106241.676    98711095.529  
  22980867.445   120765287.570    22980865.945    94102834.706  
  22758725.461   119597884.514    22758721.699    93193187.582  
  22546661.516   118483561.649    22546662.340    92324868.686  
  20283797.781   106592361.742    20283795.559    83058823.715  
  21066635.539   110705976.058    21066636.234    86264426.325  
  21417819.141   114691473.139    21417815.477    89204504.008  
  19754704.063   105600269.694    19754700.809    82133512.960  
  21331323.688   113708000.985    21331321.168    88439624.120  
  19653206.875   105020861.482    19653203.555    81682890.402  
  22508041.484   120233925.098    22508039.406    93515313.887  
  23240892.969   124279489.172    23240893.184    96661817.051  
  22739999.016   121686296.918    22739995.875    94644919.565  
 21  8 30  0 10 30.0000000  0 16G 1G 3G10G12G21G22G25G31G32R 4R 5R14
                                R15R16R20R21
  22414818.266   117790634.122    22414819.738    91784968.025  
  24268224.859   127530395.316    24268227.246    99374333.816  
  22313894.664   117260368.120    22313895.746    91371700.149  
  24113819.055   126718991.314    24113817.199    98742125.305  
  22984641.406   120785119.315    22984639.762    94118288.004  
  22743360.500   119517141.549    22743356.184    93130271.034  
  22545768.984   118478873.772    22545770.625    92321215.806  
  20276193.008   106552397.058    20276190.414    83027682.418  
  21073311.484   110741057.959    21073312.418    86291762.860  
  21429543.836   114754257.879    21429540.211    89253336.566  
  19751078.422   105580888.646    19751075.234    82118438.815  
  21346715.719   113790051.872    21346713.844    88503441.446  
  19646076.805   104982760.113    19646073.484    81653256.021  
  22483180.734   120101126.648    22483178.961    93412026.317  
  23261212.914   124388151.011    23261214.152    96746331.746  
  22744512.031   121710445.894    22744509.496    94663702.093  
 21  8 30  0 11  0.0000000  0 16G 1G 3G10G12G21G22G25G31G32R 4R 5R14
                                R15R16R20R21
  22413078.477   117781493.257    22413079.848    91777845.284  
  24248694.188   127427757.758    24248696.438    99294356.610  
  22330231.820   117346221.769    22330233.316    91438599.054  
  24121503.547   126759373.708    24121500.809    98773592.104  
  22988499.492   120805391.471    22988497.188    94134084.495  
  22728040.906   119436637.035    22728036.801    93067540.276  
  22544993.648   118474797.508    22544994.344    92318039.522  
  20268692.977   106512983.964    20268690.766    82996970.922  
  21080025.797   110776341.024    21080026.367    86319256.153  
  21441321.070   114817323.496    21441317.473    89302387.583  
  19747510.961   105561817.318    19747507.574    82103605.560  
  21362218.813   113872691.352    21362217.137    88567716.563  
  19639094.383   104945447.948    19639090.941    81624235.462  
  22458359.680   119968532.387    22458356.313    93308897.548  
  23281573.508   124497017.050    23281572.410    96831005.229  
  22749160.477   121735326.492    22749158.152    94683053.614  
 21  8 30  0 11 30.0000000  0 16G 1G 3G10G12G21G22G25G31G32R 4R 5R14
                                R15R16R20R21
  22411455.797   117772966.923    22411457.621    91771201.392  
  24229176.758   127325194.187    24229178.828    99214437.009  
  22346632.250   117432403.265    22346633.301    91505753.426  
  24129294.297   126800315.494    24129294.293    98805494.741  
  22992440.445   120826103.056    22992438.430    94150223.355  
  22712767.594   119356373.702    22712763.227    93004997.453  
  22544333.945   118471333.780    22544335.387    92315340.517  
  20261297.969   106474122.561    20261295.750    82966689.323  
  21086777.734   110811825.212    21086778.555    86346906.159  
  21453150.695   114880670.273    21453146.836    89351657.277  
  19744001.422   105543057.277    19743998.074    82089014.415  
  21377831.656   113955915.803    21377830.039    88632446.645  
  19632259.461   104908926.453    19632256.262    81595829.861  
  22433576.539   119836146.163    22433573.117    93205930.581  
  23301968.164   124606083.393    23301968.793    96915834.539  
  22753947.109   121760936.938    22753944.547    94702972.838  
 21  8 30  0 12  0.0000000  0 16G 1G 3G10G12G21G22G25G31G32R 4R 5R14
                                R15R16R20R21
  22409950.477   117765054.945    22409952.789    91765036.205  
  24209674.047   127222706.524    24209674.910    99134576.556  
  22363093.695   117518911.205    22363095.320    91573162.174  
  24137191.602   126841816.064    24137191.426    98837832.859  
  22996465.422   120847252.816    22996463.043    94166703.683  
  22697540.820   119276353.657    22697536.250    92942644.210  
  22543791.969   118468483.170    22543793.129    92313119.279  
  20254008.172   106435813.463    20254005.641    82936838.095  
  21093568.656   110847510.192    21093569.387    86374712.639  
  21465032.563   114944298.300    21465029.203    89401145.718  
  19740550.602   105524610.086    19740547.082    82074666.607  
  21393553.492   114039721.738    21393551.691    88697629.000  
  19625573.430   104873197.436    19625570.137    81568040.634  
  22408832.789   119703971.796    22408829.992    93103128.381  
  23322400.586   124715344.542    23322400.855    97000815.331  
  22758869.109   121787275.153    22758866.508    94723458.096  
 21  8 30  0 12 30.0000000  0 17G 1G 3G10G12G21G22G25G26G31G32R 4R 5
                                R14R15R16R20R21
  22408561.625   117757757.203    22408563.766    91759349.639  
  24190185.750   127120296.711    24190187.465    99054776.759  
  22379617.633   117605744.036    22379619.727    91640824.084  
  24145195.500   126883873.970    24145192.547    98870605.228  
  23000573.164   120868839.346    23000571.324    94183524.323  
  22682359.852   119196578.615    22682355.613    92880481.863  
  22543366.266   118466246.329    22543367.086    92311376.268  
  24436683.320   128415602.9651                                 
  20246823.023   106398057.349    20246821.051    82907417.753  
  21100397.359   110883395.706    21100397.805    86402675.361  
  21476967.203   115008207.885    21476963.738    89450853.168  
  19737158.438   105506477.155    19737154.602    82060563.202  
  21409383.750   114124105.129    21409382.238    88763260.513  
  19619035.930   104838261.811    19619032.527    81540868.488  
  22384129.820   119572013.206    22384127.555    93000493.989  
  23342868.750   124824796.064    23342869.324    97085944.213  
  22763925.969   121814338.892    22763923.816    94744507.614  
 21  8 30  0 13  0.0000000  0 17G 1G 3G10G12G21G22G25G26G31G32R 4R 5
                                R14R15R16R20R21
  22407289.586   117751073.687    22407291.230    91754141.705  
  24170713.258   127017966.940    24170714.820    98975039.334  
  22396203.133   117692900.512    22396204.770    91708738.192  
  24153304.156   126926487.525    24153303.070    98903810.578  
  23004763.648   120890861.489    23004761.781    94200684.422  
  22667225.867   119117050.605    22667221.629    92818512.024  
  22543056.961   118464623.901    22543058.152    92310112.074  
  24416284.570   128308408.522                                  
  20239743.797   106360854.437    20239741.164    82878428.486  
  21107264.680   110919481.592    21107264.926    86430794.248  
  21488953.922   115072399.126    21488950.910    89500779.664  
  19733825.414   105488660.135    19733821.836    82046705.548  
  21425321.281   114209062.599    21425320.191    88829338.539  
  19612646.719   104804121.321    19612643.500    81514314.792  
  22359468.109   119440274.303    22359465.902    92898030.463  
  23363371.422   124934433.352    23363371.766    97171217.563  
  22769119.023   121842126.388    22769116.539    94766120.076  
 21  8 30  0 13 30.0000000  0 17G 1G 3G10G12G21G22G25G26G31G32R 4R 5
                                R14R15R16R20R21
  22406134.680   117745004.151    22406136.957    91749412.193  
  24151256.281   126915719.209    24151258.359    98895365.773  
  22412849.469   117780379.136    22412851.547    91776903.330  
  24161518.977   126969656.006    24161519.770    98937448.365  
  23009037.063   120913318.116    23009035.273    94218183.080  
  22652139.617   119037771.887    22652136.047    92756736.440  
  22542865.547   118463616.420    22542867.133    92309327.048  
  24395878.836   128201174.312                                  
  20232769.281   106324205.026    20232767.336    82849870.516  
  21114169.266   110955767.630    21114170.238    86459069.073  
  21500993.922   115136872.124    21500990.746    89550925.310  
  19730551.328   105471160.576    19730548.145    82033094.763  
  21441366.297   114294590.275    21441364.660    88895860.040  
  19606406.547   104770776.944    19606403.637    81488380.293  
  22334848.086   119308759.007    22334845.789    92795740.850  
  23383908.219   125044251.590    23383908.762    97256631.678  
  22774446.281   121870635.382    22774443.988    94788293.736  
 21  8 30  0 14  0.0000000  0 17G 1G 3G10G12G21G22G25G26G31G32R 4R 5
                                R14R15R16R20R21
  22405096.523   117739548.343    22405098.793    91745160.915  
  24131814.672   126813555.480    24131817.207    98815757.720  
  22429556.961   117868178.462    22429559.047    91845318.342  
  24169838.625   127013377.722    24169838.535    98971517.223  
  23013393.328   120936207.869    23013391.074    94236019.242  
  22637101.656   118958744.789    22637097.500    92695156.917  
  22542791.133   118463224.342    22542792.063    92309021.545  
  24375465.477   128093902.874                                  
  20225901.070   106288109.814    20225898.477    82821744.378  
  21121112.219   110992253.471    21121113.039    86487499.582  
  21513086.875   115201627.287    21513083.195    89601290.405  
  19727337.938   105453979.873    19727334.141    82019732.012  
  21457517.141   114380684.382    21457515.355    88962822.087  
  19600316.094   104738230.123    19600312.941    81463066.102  
  22310269.852   119177471.192    22310268.520    92693628.135  
  23404477.359   125154246.132    23404478.512    97342182.889  
  22779908.586   121899863.655    22779905.930    94811026.842  
 21  8 30  0 14 30.0000000  0 17G 1G 3G10G12G21G22G25G26G31G32R 4R 5
                                R14R15R16R20R21
  22404176.039   117734706.292    22404176.910    91741387.887  
  24112389.828   126711477.959    24112392.168    98736216.865  
  22446325.930   117956297.155    22446327.016    91913982.222  
  24178263.945   127057651.207    24178262.473    99006016.052  
  23017830.961   120959529.927    23017829.375    94254192.265  
  22622111.141   118879971.631    22622107.301    92633775.257  
  22542833.594   118463448.422    22542834.832    92309196.140  
  24355046.539   127986597.2661                                 
  20219137.469   106252568.565    20219135.074    82794049.915  
  21128093.164   111028939.089    21128093.836    86516085.766  
  21525232.578   115266664.905    21525228.660    89651875.180  
  19724183.672   105437119.936    19724180.117    82006618.726  
  21473774.031   114467341.448    21473771.777    89030222.014  
  19594375.016   104706481.939    19594371.555    81438373.088  
  22285735.984   119046415.176    22285734.578    92591695.724  
  23425079.008   125264412.055    23425079.465    97427867.417  
  22785504.164   121929809.062    22785502.320    94834317.676  
 21  8 30  0 15  0.0000000  0 17G 1G 3G10G12G21G22G25G26G31G32R 4R 5
                                R14R15R16R20R21
  22403370.422   117730477.666    22403372.270    91738092.833  
  24092981.758   126609488.697    24092984.348    98656744.754  
  22463154.883   118044733.724    22463155.945    91982893.797  
  24186794.188   127102475.727    24186792.234    99040944.230  
  23022351.313   120983282.502    23022348.992    94272700.747  
  22607169.141   118801454.359    22607166.500    92572592.986  
  22542993.727   118464288.980    22542994.516    92309851.123  
  24334619.781   127879260.0331                                 
  20212479.789   106217581.935    20212477.484    82766787.607  
  21135112.500   111065824.138    21135112.895    86544827.354  
  21537430.461   115331984.920    21537426.863    89702679.618  
  19721089.633   105420582.028    19721086.418    81993755.909  
  21490135.734   114554557.520    21490133.691    89098056.713  
  19588583.367   104675533.850    19588580.035    81414302.362  
  22261246.523   118915594.108    22261244.211    92489946.066  
  23445712.484   125374745.333    23445712.965    97513682.083  
  22791233.969   121960469.548    22791232.188    94858164.672  
 21  8 30  0 15 30.0000000  0 17G 1G 3G10G12G21G22G25G26G31G32R 4R 5
                                R14R15R16R20R21
  22402682.805   117726862.391    22402684.363    91735275.763  
  24073592.078   126507590.041    24073594.363    98577343.223  
  22480043.680   118133486.981    22480045.367    92052052.133  
  24195427.797   127147849.705    24195429.180    99076300.583  
  23026952.805   121007464.618    23026951.137    94291543.937  
  22592277.438   118723195.176    22592274.344    92511611.844  
  22543271.258   118465746.788    22543271.816    92310987.082  
  24314189.359   127771894.335                                  
  20205927.859   106183150.173    20205925.293    82739957.680  
  21142169.281   111102908.697    21142169.781    86573724.399  
  21549680.969   115397587.854    21549678.152    89753704.091  
  19718056.898   105404368.019    19718052.883    81981145.017  
  21506601.102   114642329.089    21506599.371    89166323.480  
  19582941.578   104645387.167    19582938.504    81390854.963  
  22236801.047   118785012.622    22236798.875    92388382.772  
  23466375.883   125485241.104    23466376.563    97599623.138  
  22797097.328   121991842.794    22797095.094    94882566.098  
 21  8 30  0 16  0.0000000  0 17G 1G 3G10G12G21G22G25G26G31G32R 4R 5
                                R14R15R16R20R21
  22402111.414   117723859.961    22402112.613    91732936.193  
  24054218.063   126405783.759    24054220.711    98498013.667  
  22496992.961   118222555.115    22496994.605    92121455.828  
  24204165.930   127193771.849    24204167.242    99112084.029  
  23031635.813   121032074.840    23031633.504    94310720.707  
  22577434.672   118645196.586    22577431.215    92450833.747  
  22543665.492   118467821.969    22543667.141    92312604.119  
  24293752.484   127664502.629    24293755.109    99478863.5141 
  20199481.289   106149273.910    20199478.797    82713560.587  
  21149264.273   111140192.282    21149264.371    86602776.522  
  21561984.781   115463473.389    21561981.668    89804948.380  
  19715084.539   105388479.367    19715080.816    81968787.180  
  21523170.555   114730652.073    21523168.492    89235019.116  
  19577449.984   104616042.538    19577447.309    81368031.369  
  22212401.703   118654674.172    22212399.699    92287008.481  
  23487069.672   125595894.206    23487068.625    97685686.570  
  22803092.531   122023926.374    22803090.629    94907519.925  
 21  8 30  0 16 30.0000000  0 17G 1G 3G10G12G21G22G25G26G31G32R 4R 5
                                R14R15R16R20R21
  22401656.656   117721470.311    22401658.121    91731074.144  
  24034863.047   126304072.188    24034865.746    98418757.954  
  22514001.914   118311936.947    22514003.664    92191103.973  
  24213008.992   127240240.378    24213007.383    99148293.268  
  23036400.313   121057112.220    23036398.492    94330230.331  
  22562642.969   118567460.561    22562638.008    92390260.222  
  22544178.438   118470515.172    22544179.332    92314702.722  
  24273311.930   127557087.9561   24273315.949    99395163.8991 
  20193140.438   106115953.188    20193138.238    82687596.401  
  21156397.273   111177674.884    21156397.539    86631983.756  
  21574341.313   115529642.112    21574338.020    89856412.929  
  19712173.328   105372917.771    19712169.848    81956683.709  
  21539842.406   114819522.994    21539840.613    89304140.934  
  19572109.102   104587501.224    19572105.980    81345832.582  
  22188048.344   118524582.744    22188046.148    92185826.323  
  23507790.289   125706700.986    23507790.004    97771869.518  
  22809220.313   122056718.267    22809218.602    94933024.739  
 21  8 30  0 17  0.0000000  0 17G 1G 3G10G12G21G22G25G26G31G32R 4R 5
                                R14R15R16R20R21
  22401318.156   117719693.178    22401320.316    91729689.344  
  24015527.000   126202457.610    24015528.742    98339577.829  
  22531069.992   118401631.086    22531072.039    92260995.473  
  24221955.359   127287254.096    24221953.586    99184927.389  
  23041245.875   121082575.344    23041243.688    94350071.697  
  22547900.242   118489989.595    22547896.098    92329893.247  
  22544808.617   118473826.930    22544809.535    92317283.320  
  24252867.180   127449653.122    24252872.027    99311448.500  
  20186905.992   106083188.326    20186902.879    82662065.350  
  21163567.648   111215356.486    21163568.324    86661346.003  
  21586750.492   115596094.129    21586747.105    89908097.833  
  19709323.672   105357684.818    19709320.152    81944835.851  
  21556616.680   114908938.101    21556614.422    89373685.991  
  19566918.844   104559764.416    19566915.488    81324259.515  
  22163741.148   118394742.915    22163739.961    92084839.842  
  23528539.211   125817656.214    23528539.590    97858167.937  
  22815480.531   122090216.213    22815477.551    94959078.646  
 21  8 30  0 17 30.0000000  0 17G 1G 3G10G12G21G22G25G26G31G32R 4R 5
                                R14R15R16R20R21
  22401096.352   117718527.957    22401098.598    91728781.389  
  23996208.531   126100941.913    23996210.324    98260474.703  
  22548197.750   118491635.815    22548198.992    92331128.981  
  24231005.383   127334811.622    24231005.820    99221985.130  
  23046172.125   121108462.755    23046170.082    94370243.698  
  22533208.766   118412785.486    22533204.535    92269734.194  
  22545556.781   118477757.344    22545557.520    92320345.979  
  24232420.250   127342200.8551   24232424.414    99227719.5621 
  20180776.109   106050979.458    20180773.754    82636967.536  
  21170776.016   111253236.603    21170776.383    86690862.963  
  21599213.383   115662829.530    21599209.652    89960003.120  
  19706535.938   105342782.111    19706532.324    81933244.878  
  21573492.141   114998893.372    21573489.773    89443651.170  
  19561878.320   104532832.800    19561875.652    81303312.728  
  22139483.180   118265158.057    22139481.180    91984051.696  
  23549315.695   125928755.476    23549316.215    97944578.382  
  22821871.906   122124417.321    22821869.789    94985679.544  
 21  8 30  0 18  0.0000000  0 17G 1G 3G10G12G21G22G25G26G31G32R 4R 5
                                R14R15R16R20R21
  22400990.844   117717974.507    22400992.398    91728350.131  
  23976910.102   125999527.449    23976911.363    98181450.433  
  22565383.703   118581949.757    22565385.551    92401503.450  
  24240158.859   127382911.932    24240160.262    99259465.867  
  23051178.758   121134773.104    23051176.918    94390745.247  
  22518568.563   118335850.427    22518564.250    92209784.823  
  22546422.250   118482306.911    22546423.727    92323891.095  
  24211968.742   127234733.981    24211973.406    99143979.156  
  20174753.234   106019326.819    20174750.648    82612303.139  
  21178021.914   111291315.246    21178022.594    86720534.619  
  21611728.648   115729848.578    21611725.027    90012129.007  
  19703809.797   105328210.954    19703806.504    81921911.732  
  21590467.383   115089385.097    21590465.777    89514033.605  
  19556989.672   104506707.687    19556986.656    81282993.203  
  22115273.695   118135832.289    22115270.727    91883465.063  
  23570117.914   126039994.212    23570118.309    98031097.351  
  22828393.797   122159319.499    22828391.875    95012825.635  
 21  8 30  0 18 30.0000000  0 17G 1G 3G10G12G21G22G25G26G31G32R 4R 5
                                R14R15R16R20R21
  22401002.344   117718032.193    22401003.809    91728395.071  
  23957631.297   125898216.145    23957633.270    98102506.598  
  22582628.328   118672571.310    22582629.902    92472117.623  
  24249414.547   127431553.051    24249414.695    99297368.081  
  23056266.109   121161504.793    23056263.758    94411575.116  
  22503979.719   118259186.753    22503975.645    92150046.914  
  22547406.469   118487475.798    22547407.254    92327918.793  
  24191517.023   127127255.247    24191520.742    99060229.637  
  20168835.555   105988230.455    20168833.059    82588072.219  
  21185305.703   111329592.081    21185306.371    86750360.699  
  21624296.891   115797151.095    21624293.457    90064475.367  
  19701146.602   105313973.033    19701142.988    81910837.803  
  21607543.969   115180409.427    21607542.039    89584830.282  
  19552251.813   104481389.602    19552248.836    81263301.371  
  22091111.961   118006769.180    22091109.664    91783082.734  
  23590944.797   126151367.380    23590945.145    98117720.812  
  22835046.953   122194920.204    22835044.461    95040515.091  
 21  8 30  0 19  0.0000000  0 17G 1G 3G10G12G21G22G25G26G31G32R 4R 5
                                R14R15R16R20R21
  22401129.508   117718700.618    22401131.043    91728915.912  
  23938372.023   125797010.154    23938373.848    98023644.852  
  22599931.945   118763498.878    22599932.906    92542970.247  
  24258773.625   127480733.352    24258772.129    99335690.339  
  23061432.836   121188656.677    23061430.324    94432732.397  
  22489442.672   118182796.342    22489439.492    92090521.946  
  22548507.305   118493264.169    22548508.527    92332429.209  
  24171063.367   127019767.465    24171065.895    98976473.051  
  20163024.180   105957690.230    20163021.414    82564274.657  
  21192627.766   111368066.885    21192627.527    86780341.047  
  21636918.711   115864737.360    21636914.598    90117042.412  
  19698546.180   105300069.958    19698542.043    81900024.298  
  21624719.125   115271962.560    21624717.125    89656038.272  
  19547665.227   104456879.418    19547662.008    81244237.910  
  22067000.820   117877972.820    22066998.758    91682907.877  
  23611796.219   126262870.757    23611797.098    98204445.598  
  22841829.773   122231216.830    22841827.301    95068745.749  
 21  8 30  0 19 30.0000000  0 17G 1G 3G10G12G21G22G25G26G31G32R 4R 5
                                R14R15R16R20R21
  22401372.648   117719979.189    22401374.031    91729912.218  
  23919133.930   125695911.586    23919135.480    97944866.792  
  22617292.359   118854730.929    22617293.758    92614060.136  
  24268234.398   127530451.322    24268233.641    99374431.577  
  23066679.195   121216227.196    23066676.430    94454215.889  
  22474958.773   118106681.669    22474954.703    92031211.798  
  22549726.883   118499672.369    22549727.914    92337422.602  
  24150608.453   126912273.461    24150610.426    98892711.578  
  20157318.188   105927706.595    20157315.578    82540910.786  
  21199986.539   111406739.333    21199986.535    86810475.413  
  21649592.414   115932607.362    21649588.809    90169830.129  
  19696007.734   105286503.019    19696004.289    81889472.242  
  21641992.523   115364040.464    21641991.176    89727654.410  
  19543229.461   104433177.854    19543226.465    81225803.366  
  22042941.023   117749447.086    22042938.633    91582943.479  
  23632672.289   126374499.433    23632672.449    98291267.814  
  22848742.492   122268206.754    22848740.484    95097515.695  
 21  8 30  0 20  0.0000000  0 17G 1G 3G10G12G21G22G25G26G31G32R 4R 5
                                R14R15R16R20R21
  22401732.328   117721867.718    22401734.328    91731383.796  
  23899916.453   125594922.881    23899918.234    97866174.349  
  22634710.750   118946266.214    22634712.461    92685386.292  
  24277797.734   127580705.643    24277798.180    99413590.816  
  23072005.281   121244215.018    23072003.039    94476024.566  
  22460527.734   118030845.308    22460523.039    91972118.554  
  22551064.320   118506700.802    22551066.008    92342899.290  
  24130151.602   126804776.261    24130154.371    98808947.607  
  20151718.750   105898279.969    20151715.984    82517980.951  
  21207383.203   111445609.798    21207383.727    86840764.060  
  21662319.430   116000761.459    21662316.250    90222838.845  
  19693532.773   105273274.209    19693529.348    81879183.168  
  21659363.977   115456639.433    21659362.285    89799675.813  
  19538945.547   104410285.869    19538942.531    81207998.507  
  22018931.477   117621196.350    22018929.613    91483192.983  
  23653569.227   126486249.378    23653570.320    98378184.362  
  22855784.422   122305887.750    22855782.293    95126823.163  
 21  8 30  0 20 30.0000000  0 17G 1G 3G10G12G21G22G25G26G31G32R 4R 5
                                R14R15R16R20R21
  22402207.039   117724365.511    22402209.473    91733330.101  
  23880720.055   125494045.964    23880722.070    97787569.037  
  22652186.914   119038102.927    22652187.875    92756947.314  
  24287462.320   127631494.799    24287461.816    99453166.813  
  23077409.781   121272618.735    23077408.313    94498157.293  
  22446149.234   117955289.097    22446145.781    91913243.592  
  22552519.867   118514349.431    22552521.098    92348859.263  
  24109696.117   126697278.494    24109698.656    98725183.194  
  20146225.016   105869410.110    20146222.344    82495484.969  
  21214818.094   111484677.733    21214818.320    86871206.591  
  21675100.203   116069199.465    21675096.711    90276068.380  
  19691122.063   105260384.966    19691118.113    81869158.188  
  21676832.344   115549755.724    21676831.098    89872099.570  
  19534813.672   104388204.231    19534810.266    81190823.901  
  21994975.008   117493223.954    21994972.551    91383658.952  
  23674489.563   126598115.369    23674490.141    98465191.169  
  22862953.688   122344257.072    22862952.129    95156665.916  
 21  8 30  0 21  0.0000000  0 17G 1G 3G10G12G21G22G25G26G31G32R 4R 5
                                R14R15R16R20R21
  22402798.516   117727472.162    22402800.273    91735750.885  
  23861545.516   125393283.345    23861547.266    97709052.788  
  22669720.008   119130239.781    22669720.973    92828742.236  
  24297228.313   127682816.980    24297225.191    99493158.079  
  23082893.977   121301436.846    23082892.070    94520612.926  
  22431825.695   117880014.966    22431821.469    91854588.441  
  22554093.602   118522618.683    22554095.199    92355302.819  
  24089239.445   126589783.267    24089242.891    98641420.762  
  20140837.008   105841097.273    20140834.680    82473423.020  
  21222289.680   111523943.246    21222290.617    86901803.073  
  21687933.773   116137921.816    21687930.328    90329519.080  
  19688774.289   105247837.204    19688771.035    81859398.812  
  21694397.219   115643385.403    21694395.773    89944922.648  
  19530832.547   104366933.678    19530829.770    81174280.141  
  21971071.273   117365534.287    21971068.879    91284344.829  
  23695430.266   126710093.275    23695430.188    98552284.995  
  22870252.461   122383312.069    22870250.258    95187041.984  
 21  8 30  0 21 30.0000000  0 17G 1G 3G10G12G21G22G25G26G31G32R 4R 5
                                R14R15R16R20R21
  22403505.391   117731187.023    22403507.805    91738645.581  
  23842393.188   125292636.994    23842395.242    97630627.144  
  22687309.406   119222675.005    22687310.867    92900769.657  
  24307096.992   127734670.785    24307092.793    99533563.713  
  23088456.102   121330668.083    23088454.883    94543390.475  
  22417555.102   117805025.565    22417552.203    91796155.176  
  22555785.039   118531508.534    22555786.594    92362229.996  
  24068784.648   126482293.351    24068788.617    98557662.457  
  20135555.336   105813341.429    20135552.879    82451795.106  
  21229799.273   111563405.993    21229800.039    86932553.270  
  21700820.148   116206928.410    21700816.855    90383190.867  
  19686491.461   105235632.114    19686487.703    81849905.970  
  21712057.094   115737524.323    21712056.086    90018141.828  
  19527004.484   104346474.665    19527001.250    81158367.587  
  21947221.336   117238130.440    21947218.887    91185253.013  
  23716391.516   126822178.642    23716390.938    98639462.379  
  22877678.438   122423050.073    22877676.492    95217949.325  
 21  8 30  0 22  0.0000000  0 17G 1G 3G10G12G21G22G25G26G31G32R 4R 5
                                R14R15R16R20R21
  22404327.891   117735509.566    22404330.574    91742013.792  
  23823263.680   125192109.240    23823265.223    97552293.910  
  22704956.328   119315407.177    22704957.336    92973028.450  
  24317065.398   127787054.847    24317063.164    99574382.469  
  23094097.055   121360311.133    23094095.586    94566488.922  
  22403340.328   117730323.046    22403336.707    91737945.434  
  22557594.852   118541019.225    22557596.270    92369640.927  
  24048331.828   126374811.636    24048336.367    98473910.554  
  20130379.797   105786142.800    20130377.133    82430601.382  
  21237346.414   111603065.943    21237346.555    86963457.127  
  21713759.641   116276219.325    21713756.449    90437083.781  
  19684272.297   105223771.532    19684269.195    81840681.073  
  21729812.914   115832169.045    21729810.730    90091754.376  
  19523328.031   104326827.839    19523324.441    81143086.725  
  21923425.133   117111017.379    21923422.973    91086387.336  
  23737370.141   126934366.697    23737371.078    98726719.659  
  22885230.891   122463468.404    22885229.711    95249385.785  
 21  8 30  0 22 30.0000000  0 17G 1G 3G10G12G21G22G25G26G31G32R 4R 5
                                R14R15R16R20R21
  22405266.164   117740439.044    22405267.625    91745854.948  
  23804156.750   125091702.225    23804158.055    97474054.727  
  22722658.844   119408434.573    22722660.375    93045517.298  
  24327133.664   127839966.789    24327133.160    99615612.513  
  23099816.047   121390363.861    23099814.551    94589906.610  
  22389179.773   117655909.419    22389175.527    91679960.824  
  22559522.727   118551150.646    22559524.117    92377535.546  
  24027880.781   126267340.984    24027884.973    98390167.267  
  20125309.664   105759501.236    20125307.383    82409841.728  
  21244930.602   111642922.797    21244931.129    86994514.404  
  21726752.727   116345794.560    21726749.359    90491197.848  
  19682118.602   105212256.918    19682115.035    81831725.255  
  21747661.930   115927315.340    21747659.871    90165757.026  
  19519803.188   104307993.626    19519799.914    81128437.910  
  21899684.859   116984198.354    21899681.762    90987750.399  
  23758368.148   127046652.793    23758369.469    98814053.210  
  22892911.188   122504564.219    22892909.316    95281349.133  
 21  8 30  0 23  0.0000000  0 17G 1G 3G10G12G21G22G25G26G31G32R 4R 5
                                R14R15R16R20R21
  22406319.758   117745974.865    22406321.250    91750168.588  
  23785073.266   124991418.220    23785073.449    97395911.397  
  22740417.367   119501755.695    22740419.035    93118235.027  
  24337302.742   127893405.249    24337299.641    99657252.891  
  23105612.617   121420825.043    23105610.938    94613642.541  
  22375074.477   117581787.072    22375070.602    91622203.135  
  22561568.813   118561903.020    22561570.621    92385914.017  
  24007433.172   126159884.211    24007436.145    98306434.785  
  20120346.289   105733416.666    20120343.891    82389516.107  
  21252552.953   111682976.552    21252553.234    87025725.119  
  21739798.281   116415654.436    21739795.254    90545533.267  
  19680029.063   105201089.739    19680025.793    81823039.653  
  21765604.930   116022959.641    21765602.758    90240146.986  
  19516430.703   104289972.731    19516427.645    81114421.669  
  21875999.688   116857677.465    21875996.859    90889345.293  
  23779384.875   127159032.679    23779385.328    98901459.691  
  22900717.648   122546335.088    22900715.094    95313837.561  
 21  8 30  0 23 30.0000000  0 17G 1G 3G10G12G21G22G25G26G31G32R 4R 5
                                R14R15R16R20R21
  22407488.148   117752116.515    22407490.488    91754954.269  
  23766013.641   124891259.542    23766013.695    97317865.735  
  22758231.406   119595369.031    22758232.738    93191180.459  
  24347571.695   127947368.856    24347569.520    99699302.498  
  23111486.953   121451693.265    23111485.004    94637695.665  
  22361025.203   117507958.170    22361021.039    91564674.138  
  22563733.078   118573276.367    22563734.859    92394776.381  
  23986986.742   126052444.390    23986990.711    98222715.524  
  20115488.430   105707888.900    20115485.816    82369624.346  
  21260212.086   111723227.076    21260212.551    87057089.172  
  21752897.453   116485798.958    21752894.156    90600090.088  
  19678005.266   105190271.745    19678002.328    81814625.676  
  21783639.477   116119097.790    21783637.727    90314921.087  
  19513210.961   104272765.593    19513207.305    81101038.345  
  21852370.672   116731458.838    21852368.578    90791175.261  
  23800416.391   127271501.947    23800417.852    98988935.730  
  22908648.359   122588778.061    22908646.930    95346848.732  
 21  8 30  0 24  0.0000000  0 16G 1G 3G10G12G21G22G25G26G31G32R 4R 5
                                R14R15R16R21
  22408771.891   117758862.992    22408773.984    91760211.265  
  23746977.797   124791228.246    23746978.973    97239919.346  
  22776100.367   119689272.800    22776102.645    93264352.194  
  24357939.719   128001855.722    24357939.070    99741759.753  
  23117437.906   121482966.891    23117435.668    94662064.697  
  22347032.367   117434424.628    22347027.883    91507375.294  
  22566015.406   118585270.557    22566017.379    92404122.500  
  23966545.898   125945024.187    23966549.602    98139011.532  
  20110736.961   105682917.997    20110733.863    82350166.510  
  21267908.953   111763674.092    21267909.672    87088606.303  
  21766049.438   116556228.028    21766046.121    90654868.206  
  19676047.461   105179804.333    19676043.938    81806484.346  
  21801767.094   116215725.913    21801764.953    90390076.288  
  19510142.758   104256372.345    19510139.754    81088288.061  
  21828799.742   116605546.118    21828797.434    90693243.199  
