     2.11           OBSERVATION DATA    M (MIXED)           RINEX VERSION / TYPE
CONVBIN 2.4.3                           20210831 165843 UTC PGM / RUN BY / DATE 
log: ngs/momf2420.21o                                       COMMENT             
format: RINEX                                               COMMENT             
MOMF                                                        MARKER NAME         
MOMF                                                        MARKER NUMBER       
                                                            OBSERVER / AGENCY   
4920K61920          TRIMBLE NETR5       Nav 48.01 / Boot 48.REC # / TYPE / VERS 
1440904874          TRM57971.00     NONE                    ANT # / TYPE        
  -261330.9690 -5070389.4580  3848246.6620                  APPROX POSITION XYZ 
        0.0000        0.0000        0.0000                  ANTENNA: DELTA H/E/N
     1     1                                                WAVELENGTH FACT L1/2
     4    C1    L1    P2    L2                              # / TYPES OF OBSERV 
    30.000                                                  INTERVAL            
  2021     8    30     0     0    0.0000000     GPS         TIME OF FIRST OBS   
  2021     8    30    23    59   30.0000000     GPS         TIME OF LAST OBS    
                                                            END OF HEADER       
 21  8 30  0  0  0.0000000  0 18G 1G 3G10G12G21G22G23G25G26G31G32R 4
                                R 5R14R15R16R20R21
  22658741.406   119072440.635    22658748.762    92783804.040  
  24904726.852   130875208.934    24904733.824   101980730.889  
  21814384.672   114635413.253    21814391.355    89326336.867  
  24007513.188   126160306.727    24007517.734    98306807.463  
  23043471.109   121094373.397    23043474.555    94359180.310  
  23271651.297   122293364.743    23271652.879    95293557.648  
  24804365.438   130347824.586    24804375.508   101569763.103  
  22510422.242   118293142.504    22510429.207    92176506.561  
  24734675.156   129981772.0441   24734685.656   101284408.2371 
  20404109.383   107224408.214    20404112.688    83551524.370  
  20970035.297   110198348.779    20970042.016    85868906.526  
  21114207.445   113065671.581    21114210.832    87939977.051  
  19941856.766   106600690.619    19941859.777    82911718.020  
  21090910.938   112426479.655    21090914.875    87442852.567  
  19714332.914   105347228.970    19714336.430    81936978.813  
  22835274.063   121982874.710    22835276.297    94874869.300  
  22880490.719   122352394.014    22880498.207    95162887.012  
  22885800.367   122466610.917    22885804.648    95251783.118  
 21  8 30  0  0 30.0000000  0 18G 1G 3G10G12G21G22G23G25G26G31G32R 4
                                R 5R14R15R16R20R21
  22654033.727   119047701.447    22654040.965    92764526.741  
  24884922.563   130771137.632    24884929.484   101899636.359  
  21828669.773   114710480.622    21828676.500    89384830.890  
  24013733.508   126192993.914    24013737.500    98332277.989  
  23044890.523   121101833.866    23044894.047    94364993.630  
  23255077.305   122206270.393    23255079.262    95225691.948  
  24824188.523   130451994.0291   24824197.313   101650934.0791 
  22508132.438   118281109.887    22508139.480    92167130.494  
  24714560.500   129876068.6071   24714570.754   101202041.9811 
  20395097.336   107177049.307    20395100.703    83514621.344  
  20975330.539   110226174.448    20975336.750    85890588.852  
  21123857.977   113117349.673    21123861.504    87980171.109  
  19936237.398   106570655.948    19936240.957    82888357.730  
  21104790.227   112500462.528    21104794.305    87500394.795  
  19705319.688   105299066.799    19705323.738    81899519.366  
  22810058.383   121848186.381    22810060.617    94770111.832  
  22899163.922   122452249.014    22899171.492    95240551.946  
  22887168.156   122473930.413    22887172.039    95257476.057  
 21  8 30  0  1  0.0000000  0 18G 1G 3G10G12G21G22G23G25G26G31G32R 4
                                R 5R14R15R16R20R21
  22649439.789   119023560.491    22649446.988    92745715.605  
  24865120.727   130667081.565    24865128.590   101818553.717  
  21843025.656   114785921.202    21843032.301    89443615.720  
  24020061.844   126226249.733    24020066.609    98358191.626  
  23046396.922   121109748.824    23046400.156    94371161.114  
  23238537.656   122119353.521    23238539.266    95157964.548  
  24844035.125   130556289.792    24844040.000   101732203.226  
  22505955.828   118269672.783    22505963.055    92158218.504  
  24694430.266   129770275.870    24694438.840   101119606.187  
  20386187.953   107130227.436    20386191.039    83478136.778  
  20980661.570   110254190.240    20980667.844    85912419.330  
  21133561.148   113169310.611    21133564.566    88020585.168  
  19930666.797   106540875.955    19930670.605    82865195.519  
  21118787.578   112575077.499    21118791.840    87558428.645  
  19696450.320   105251668.857    19696453.617    81862654.302  
  22784873.836   121713650.941    22784877.305    94665473.267  
  22917895.688   122552405.956    22917901.496    95318451.718  
  22888676.063   122481997.290    22888679.574    95263750.300  
 21  8 30  0  1 30.0000000  0 18G 1G 3G10G12G21G22G23G25G26G31G32R 4
                                R 5R14R15R16R20R21
  22644959.766   119000018.029    22644966.688    92727370.810  
  24845322.188   130563042.074    24845329.824   101737484.036  
  21857452.211   114861733.633    21857458.898    89502690.314  
  24026498.258   126260073.156    24026503.281    98384547.526  
  23047989.234   121118117.637    23047992.750    94377682.231  
  23222031.891   122032616.070    23222033.820    95090376.959  
  24863906.969   130660710.112    24863910.594   101813569.588  
  22503894.086   118258832.078    22503900.383    92149771.199  
  24674282.023   129664396.178    24674289.645   101037102.566  
  20377379.836   107083942.926    20377382.941    83442070.945  
  20986028.883   110282395.738    20986034.852    85934397.637  
  21143317.758   113221554.832    21143321.309    88061219.554  
  19925143.625   106511351.891    19925146.734    82842232.356  
  21132903.688   112650320.970    21132907.395    87616951.328  
  19687723.297   105205036.601    19687726.770    81826384.788  
  22759717.102   121579271.803    22759720.957    94560956.283  
  22936681.023   122652859.816    22936686.484    95396582.427  
  22890322.211   122490810.215    22890327.363    95270604.744  
 21  8 30  0  2  0.0000000  0 18G 1G 3G10G12G21G22G23G25G26G31G32R 4
                                R 5R14R15R16R20R21
  22640593.461   118977074.864    22640601.082    92709493.032  
  24825528.195   130459021.348    24825536.191   101656429.065  
  21871949.383   114937917.117    21871956.145    89562054.050  
  24033042.258   126294463.080    24033046.570    98411344.882  
  23049668.234   121126939.824    23049671.352    94384556.646  
  23205560.961   121946060.382    23205562.996    95022931.005  
  24883800.867   130765253.590    24883807.258   101895031.887  
  22501943.938   118248589.051    22501951.027    92141789.627  
  24654117.531   129558432.580    24654126.332   100954533.5761 
  20368674.570   107038196.742    20368678.195    83406424.582  
  20991432.523   110310790.995    20991438.703    85956523.809  
  21153127.227   113274083.011    21153130.168    88102074.793  
  19919668.539   106482086.152    19919671.836    82819470.118  
  21147136.180   112726189.545    21147139.738    87675960.224  
  19679141.063   105159172.521    19679143.727    81790712.733  
  22734591.328   121445052.915    22734594.680    94456563.936  
  22955521.164   122753606.045    22955526.211    95474940.533  
  22892109.453   122500368.399    22892112.844    95278038.906  
 21  8 30  0  2 30.0000000  0 18G 1G 3G10G12G21G22G23G25G26G31G32R 4
                                R 5R14R15R16R20R21
  22636342.172   118954731.611    22636349.340    92692082.737  
  24805737.891   130355021.319    24805745.711   101575390.148  
  21886517.172   115014470.656    21886523.859    89621706.105  
  24039693.992   126329418.823    24039699.395    98438583.133  
  23051433.883   121136214.444    23051436.777    94391783.581  
  23189124.883   121859688.525    23189126.363    94955628.298  
  24903717.648   130869918.615    24903725.672   101976589.017  
  22500108.594   118238944.745    22500115.676    92134274.609  
  24633935.797   129452387.702    24633947.113   100871901.399  
  20360071.969   106992989.481    20360075.117    83371198.159  
  20996871.961   110339375.855    20996878.289    85978797.723  
  21162989.422   113326895.835    21162992.477    88143151.411  
  19914242.484   106453080.027    19914245.402    82796909.811  
  21161485.281   112802680.100    21161489.445    87735452.851  
  19670701.828   105114078.561    19670705.285    81755639.667  
  22709494.078   121310998.622    22709499.473    94352299.618  
  22974415.047   122854639.894    22974419.734    95553522.328  
  22894034.758   122510670.604    22894038.191    95286051.714  
 21  8 30  0  3  0.0000000  0 18G 1G 3G10G12G21G22G23G25G26G31G32R 4
                                R 5R14R15R16R20R21
  22632204.953   118932988.952    22632211.813    92675140.403  
  24785951.773   130251044.018    24785959.160   101494368.907  
  21901155.625   115091393.242    21901161.660    89681645.763  
  24046453.703   126364939.825    24046457.723    98466261.803  
  23053283.703   121145941.015    23053287.766    94399362.723  
  23172724.781   121773503.005    23172725.879    94888470.769  
  24923654.836   130974703.767    24923667.457   102058239.854  
  22498388.016   118229900.405    22498394.785    92127227.067  
  24613743.680   129346264.583    24613751.645   100789208.279  
  20351572.156   106948322.306    20351575.316    83336392.572  
  21002347.430   110368150.354    21002353.762    86001219.409  
  21172905.438   113379993.976    21172907.938    88184449.957  
  19908865.281   106424335.341    19908868.754    82774552.832  
  21175951.320   112879789.154    21175955.129    87795426.542  
  19662407.563   105069756.705    19662411.285    81721167.121  
  22684432.117   121177112.777    22684435.715    94248166.245  
  22993361.930   122955957.027    22993368.121    95632324.471  
  22896097.813   122521715.715    22896101.836    95294642.391  
 21  8 30  0  3 30.0000000  0 18G 1G 3G10G12G21G22G23G25G26G31G32R 4
                                R 5R14R15R16R20R21
  22628181.063   118911847.055    22628188.699    92658666.206  
  24766170.578   130147090.839    24766177.086   101413366.442  
  21915862.648   115168683.491    21915869.664    89741871.895  
  24053320.250   126401024.747    24053325.238    98494379.935  
  23055220.789   121156118.565    23055223.965    94407293.230  
  23156359.328   121687505.472    23156361.332    94821459.741  
  24943619.570   131079607.550    24943629.832   102139983.004  
  22496781.422   118221456.627    22496787.789    92120647.506  
  24593532.531   129240065.303    24593542.914   100706455.755  
  20343175.281   106904195.391    20343178.363    83302007.978  
  21007859.469   110397114.057    21007865.305    86023788.510  
  21182875.289   113433377.552    21182877.484    88225970.494  
  19903536.320   106395853.864    19903540.895    82752400.582  
  21190532.125   112957513.074    21190535.676    87855878.463  
  19654257.633   105026208.619    19654261.480    81687296.408  
  22659400.109   121043398.993    22659403.746    94144166.762  
  23012358.148   123057552.347    23012366.430    95711342.978  
  22898300.883   122533502.327    22898304.637    95303809.757  
 21  8 30  0  4  0.0000000  0 18G 1G 3G10G12G21G22G23G25G26G31G32R 4
                                R 5R14R15R16R20R21
  22624272.469   118891306.079    22624279.992    92642660.272  
  24746393.180   130043163.579    24746400.645   101332384.198  
  21930640.766   115246339.930    21930647.336    89802383.372  
  24060294.148   126437672.588    24060298.563    98522936.697  
  23057243.055   121166745.797    23057246.348    94415574.157  
  23140031.422   121601697.699    23140032.609    94754596.573  
  24963606.961   131184627.896    24963613.086   102221816.930  
  22495289.008   118213614.074    22495294.965    92114536.445  
  24573309.258   129133792.213    24573319.738   100623645.646  
  20334880.602   106860608.867    20334884.082    83268044.469  
  21013406.695   110426266.413    21013412.828    86046504.617  
  21192896.688   113487046.993    21192900.023    88267713.373  
  19898258.328   106367636.302    19898262.063    82730453.595  
  21205227.305   113035847.988    21205231.277    87916805.605  
  19646253.547   104983435.854    19646257.020    81654028.715  
  22634401.859   120909861.116    22634405.105    94040304.066  
  23031408.516   123159420.8611   23031416.066    95790573.9531 
  22900642.109   122546028.679    22900645.406    95313552.463  
 21  8 30  0  4 30.0000000  0 18G 1G 3G10G12G21G22G23G25G26G31G32R 4
                                R 5R14R15R16R20R21
  22620478.219   118871366.685    22620485.695    92627123.098  
  24726622.000   129939264.252    24726629.125   101251423.740  
  21945487.281   115324361.691    21945493.965    89863179.529  
  24067376.172   126474882.648    24067379.660    98551931.503  
  23059351.141   121177822.323    23059354.594    94424205.183  
  23123739.164   121516082.470    23123741.211    94687883.423  
  24983614.188   131289763.512    24983616.664   102303740.524  
  22493911.289   118206373.951    22493917.137    92108894.783  
  24553073.086   129027448.146    24553083.309   100540780.308  
  20326689.789   106817563.893    20326692.668    83234502.941  
  21018989.992   110455607.500    21018996.277    86069367.802  
  21202973.883   113541002.826    21202975.219    88309678.994  
  19893029.516   106339684.999    19893033.043    82708713.690  
  21220037.180   113114790.599    21220040.914    87978205.396  
  19638394.813   104941440.293    19638398.496    81621365.517  
  22609436.594   120776502.651    22609441.113    93936580.925  
  23050509.977   123261558.075    23050516.777    95870013.930  
  22903121.156   122559293.664    22903124.352    95323869.643  
 21  8 30  0  5  0.0000000  0 18G 1G 3G10G12G21G22G23G25G26G31G32R 4
                                R 5R14R15R16R20R21
  22616798.781   118852029.569    22616805.551    92612055.248  
  24706856.305   129835395.097    24706864.047   101170486.802  
  21960403.680   115402747.936    21960410.465    89924259.680  
  24074562.484   126512654.011    24074567.270    98581363.758  
  23061544.023   121189347.293    23061547.434    94433185.654  
  23107483.836   121430662.229    23107485.770    94621322.219  
  25003643.656   131395013.114    25003645.102   102385752.975  
  22492648.258   118199737.396    22492654.855    92103723.464  
  24532823.359   128921036.213    24532833.156   100457862.049  
  20318601.500   106775061.383    20318604.508    83201384.118  
  21024609.711   110485137.556    21024615.934    86092378.220  
  21213101.320   113595245.974    21213104.406    88351868.104  
  19887850.383   106312001.854    19887854.102    82687182.374  
  21234959.805   113194337.816    21234963.664    88040075.428  
  19630681.914   104900223.987    19630685.078    81589308.408  
  22584505.336   120643328.597    22584510.473    93833001.236  
  23069660.734   123363959.625    23069665.816    95949659.529  
  22905737.703   122573296.231    22905742.250    95334760.524  
 21  8 30  0  5 30.0000000  0 18G 1G 3G10G12G21G22G23G25G26G31G32R 4
                                R 5R14R15R16R20R21
  22613233.586   118833294.986    22613240.355    92597456.869  
  24687096.570   129731557.934    24687104.305   101089574.786  
  21975389.602   115481497.292    21975395.922    89985622.778  
  24081857.070   126550985.439    24081862.477    98611232.378  
  23063822.375   121201319.905    23063825.340    94442514.921  
  23091266.016   121345438.611    23091268.105    94554914.234  
  25023690.000   131500374.969    25023697.742   102467852.919  
  22491500.227   118193705.221    22491507.254    92099023.064  
  24512561.273   128814558.965    24512571.211   100374892.882  
  20310616.781   106733101.469    20310619.914    83168688.094  
  21030265.047   110514856.223    21030270.836    86115535.609  
  21223285.586   113649776.837    21223288.570    88394280.970  
  19882722.984   106284588.351    19882726.219    82665860.769  
  21249994.539   113274485.668    21249999.141    88102412.624  
  19623114.992   104859788.446    19623118.004    81557858.548  
  22559610.039   120510341.924    22559614.953    93729567.253  
  23088858.445   123466620.687    23088864.953    96029506.944  
  22908491.008   122588034.892    22908496.133    95346223.963  
 21  8 30  0  6  0.0000000  0 17G 1G 3G10G12G21G22G25G26G31G32R 4R 5
                                R14R15R16R20R21
  22609783.078   118815163.591    22609790.520    92583328.522  
  24667341.578   129627754.835    24667350.984   101008689.382  
  21990444.414   115560608.952    21990450.609    90047268.176  
  24089257.664   126589876.627    24089261.516    98641537.233  
  23066186.219   121213739.605    23066189.434    94452192.592  
  23075086.531   121260414.318    23075088.219    94488661.565  
  22490467.602   118188278.483    22490473.895    92094794.447  
  24492287.992   128708019.389    24492296.930   100291875.127  
  20302735.555   106691685.139    20302738.625    83136415.631  
  21035955.672   110544763.699    21035961.891    86138840.135  
  21233522.383   113704596.144    21233525.648    88436918.181  
  19877645.500   106257446.659    19877649.223    82644750.564  
  21265142.414   113355231.191    21265146.988    88165214.679  
  19615693.766   104820135.678    19615697.891    81527017.529  
  22534750.016   120377547.542    22534755.055    93626282.857  
  23108103.742   123569536.889    23108110.242    96109552.811  
  22911382.531   122603508.344    22911387.398    95358258.843  
 21  8 30  0  6 30.0000000  0 17G 1G 3G10G12G21G22G25G26G31G32R 4R 5
                                R14R15R16R20R21
  22606447.406   118797635.303    22606454.391    92569670.132  
  24647595.813   129523987.431    24647605.023   100927831.696  
  22005567.117   115640081.251    22005573.625    90109194.625  
  24096764.250   126629325.219    24096768.496    98672276.407  
  23068634.188   121226605.168    23068637.891    94462217.688  
  23058945.063   121175590.721    23058946.934    94422565.285  
  22489549.984   118183457.625    22489556.438    92091037.936  
  24472002.977   128601419.734    24472011.250   100208810.552  
  20294957.914   106650812.777    20294960.871    83104567.046  
  21041683.305   110574859.415    21041688.902    86162291.333  
  21243812.891   113759704.048    21243815.559    88479779.869  
  19872618.547   106230577.605    19872622.727    82623852.423  
  21280401.359   113436570.270    21280406.309    88228478.385  
  19608420.734   104781267.044    19608423.656    81496786.383  
  22509928.148   120244948.755    22509932.695    93523150.598  
  23127398.508   123672703.417    23127403.297    96189793.290  
  22914410.461   122619714.730    22914415.195    95370863.832  
 21  8 30  0  7  0.0000000  0 18G 1G 3G10G12G21G22G23G25G26G31G32R 4
                                R 5R14R15R16R20R21
  22603226.891   118780710.235    22603233.742    92556481.769  
  24627857.961   129420257.509    24627865.266   100847003.324  
  22020758.391   115719912.818    22020764.770    90171401.010  
  24104378.086   126669330.905    24104382.234    98703449.654  
  23071167.180   121239915.335    23071170.641    94472589.212  
  23042842.648   121090970.208    23042844.375    94356627.248  
  25083975.039   131817117.8781                                 
  22488748.125   118179243.244    22488754.852    92087754.023  
  24451706.383   128494762.604    24451715.352   100125701.203  
  20287283.422   106610484.202    20287286.477    83073142.205  
  21047446.344   110605143.070    21047451.996    86185888.977  
  21254157.625   113815100.857    21254161.941    88522866.248  
  19867643.680   106203983.206    19867646.969    82603167.895  
  21295771.875   113518499.234    21295775.242    88292200.882  
  19601293.086   104743183.648    19601296.867    81467165.976  
  22485143.758   120112549.178    22485146.156    93420173.242  
  23146736.531   123776115.003    23146742.105    96270224.433  
  22917576.422   122636652.534    22917580.438    95384037.662  
 21  8 30  0  7 30.0000000  0 18G 1G 3G10G12G21G22G23G25G26G31G32R 4
                                R 5R14R15R16R20R21
  22600120.969   118764388.722    22600128.500    92543763.708  
  24608126.781   129316567.034    24608134.465   100766205.582  
  22036018.125   115800102.481    22036024.910    90233886.433  
  24112096.570   126709892.112    24112101.031    98735055.762  
  23073784.586   121253669.291    23073788.160    94483306.566  
  23026778.500   121006555.008    23026780.293    94290849.205  
  25104100.602   131922912.976                                  
  22488061.055   118175636.086    22488068.141    92084943.257  
  24431399.398   128388050.661    24431408.621   100042549.174  
  20279712.953   106570700.207    20279715.766    83042141.694  
  21053244.586   110635614.540    21053250.422    86209632.970  
  21264557.883   113870787.181    21264560.391    88566177.819  
  19862720.266   106177664.980    19862723.891    82582698.163  
  21311251.758   113601014.165    21311255.414    88356379.152  
  19594314.188   104705887.271    19594317.387    81438157.692  
  22460394.625   119980352.856    22460399.043    93317353.991  
  23166119.672   123879767.168    23166124.305    96350842.663  
  22920878.313   122654319.839    22920882.539    95397778.864  
 21  8 30  0  8  0.0000000  0 18G 1G 3G10G12G21G22G23G25G26G31G32R 4
                                R 5R14R15R16R20R21
  22597129.734   118748670.906    22597137.258    92531516.098  
  24588402.781   129212917.922    24588410.195   100685440.099  
  22051345.875   115880649.006    22051352.457    90296649.923  
  24119919.984   126751008.002    24119924.203    98767094.143  
  23076485.961   121267866.199    23076489.914    94494369.077  
  23010754.242   120922347.326    23010756.043    94225232.859  
  25124251.281   132028812.236                                  
  22487491.109   118172636.929    22487497.797    92082606.272  
  24411082.781   128281286.694    24411092.109    99959356.570  
  20272245.922   106531461.136    20272249.293    83011565.809  
  21059078.930   110666273.688    21059084.672    86233523.213  
  21275010.016   113926763.341    21275013.613    88609714.807  
  19857848.773   106151624.633    19857851.793    82562444.560  
  21326840.734   113684111.760    21326844.551    88421010.590  
  19587482.023   104669379.302    19587485.910    81409762.623  
  22435685.438   119848363.941    22435689.535    93214696.068  
  23185547.141   123983655.009    23185552.504    96431644.256  
  22924316.734   122672715.180    22924320.508    95412086.343  
 21  8 30  0  8 30.0000000  0 18G 1G 3G10G12G21G22G23G25G26G31G32R 4
                                R 5R14R15R16R20R21
  22594253.563   118733557.176    22594260.430    92519739.168  
  24568687.031   129109312.208    24568694.465   100604708.378  
  22066741.180   115961551.205    22066747.922    90359690.581  
  24127850.070   126792677.416    24127853.602    98799563.817  
  23079271.828   121282504.959    23079274.832    94505775.883  
  22994770.352   120838349.314    22994772.031    94159779.891  
  25144422.586   132134814.070                                  
  22487036.219   118170246.535    22487042.375    92080743.612  
  24390758.055   128174473.590    24390766.473    99876125.699  
  20264882.945   106492767.553    20264886.262    82981414.977  
  21064948.977   110697120.500    21064954.207    86257559.679  
  21285517.266   113983029.727    21285521.527    88653477.542  
  19853029.422   106125863.987    19853033.574    82542408.510  
  21342537.758   113767788.378    21342541.613    88486092.401  
  19580797.977   104633661.356    19580801.445    81381981.994  
  22411017.438   119716586.118    22411019.723    93112202.313  
  23205017.000   124087774.223    23205024.117    96512625.783  
  22927889.328   122691836.940    22927893.555    95426958.801  
 21  8 30  0  9  0.0000000  0 18G 1G 3G10G12G21G22G23G25G26G31G32R 4
                                R 5R14R15R16R20R21
  22591493.242   118719047.812    22591499.711    92508433.173  
  24548980.336   129005751.978    24548987.746   100524012.050  
  22082204.031   116042807.990    22082210.172    90423007.526  
  24135883.867   126834898.910    24135889.672    98832463.645  
  23082141.367   121297584.671    23082144.203    94517526.276  
  22978826.328   120754563.312    22978827.637    94094492.109  
  25164609.164   132240916.9021                                 
  22486697.828   118168465.659    22486704.051    92079355.937  
  24370423.234   128067614.181    24370432.020    99792858.699  
  20257623.828   106454619.992    20257626.598    82951689.614  
  21070854.180   110728154.962    21070860.422    86281742.357  
  21296079.281   114039587.108    21296082.855    88697466.601  
  19848263.273   106100384.766    19848266.848    82522591.347  
  21358342.930   113852040.435    21358346.422    88551621.760  
  19574262.281   104598734.845    19574266.113    81354816.945  
  22386387.820   119585023.487    22386390.953    93009875.902  
  23224531.141   124192120.046    23224536.285    96593783.604  
  22931597.859   122711683.322    22931602.203    95442394.887  
 21  8 30  0  9 30.0000000  0 16G 1G 3G10G12G21G22G25G26G31G32R 4R 5
                                R14R15R16R21
  22588847.094   118705142.979    22588854.238    92497598.232  
  24529281.383   128902239.246    24529289.867   100443352.840  
  22097733.656   116124418.054    22097740.242    90486599.753  
  24144023.406   126877672.100    24144028.305    98865793.415  
  23085095.094   121313104.528    23085098.180    94529619.663  
  22962923.367   120670991.470    22962924.688    94029371.201  
  22486474.398   118167295.012    22486481.281    92078443.758  
  24350078.680   127960711.140    24350088.805    99709557.741  
  20250468.594   106417019.028    20250471.055    82922390.168  
  21076795.625   110759376.983    21076801.754    86306071.197  
  21306695.633   114096436.075    21306699.016    88741682.430  
  19843550.570   106075188.966    19843553.484    82502994.609  
  21374255.859   113936864.257    21374260.148    88617595.829  
  19567874.195   104564601.358    19567877.980    81328268.683  
  22361800.117   119453679.471    22361803.785    92907719.544  
  22935442.500   122732252.971    22935445.406    95458393.482  
 21  8 30  0 10  0.0000000  0 17G 1G 3G10G12G21G22G25G26G31G32R 4R 5
                                R14R15R16R20R21
  22586316.102   118691843.379    22586323.570    92487234.926  
  24509593.078   128798776.542    24509602.336   100362732.668  
  22113330.914   116206380.663    22113337.086    90550466.685  
  24152268.180   126920995.803    24152271.781    98899552.127  
  23088131.656   121329064.064    23088135.160    94542055.659  
  22947060.914   120587636.221    22947062.203    93964419.071  
  22486368.039   118166735.689    22486374.258    92078007.933  
  24329727.586   127853767.768    24329736.902    99626225.383  
  20243417.250   106379965.355    20243420.586    82893517.188  
  21082772.797   110790786.977    21082778.766    86330546.511  
  21317366.344   114153577.267    21317369.746    88786125.558  
  19838890.180   106050278.627    19838893.227    82483619.909  
  21390275.438   114022256.712    21390280.016    88684012.155  
  19561635.156   104531262.515    19561639.004    81302338.475  
  22337254.148   119322559.240    22337258.348    92805737.228  
  23263681.148   124401473.5711   23263686.625    96756613.9141 
  22939421.063   122753544.537    22939425.367    95474953.596  
 21  8 30  0 10 30.0000000  0 17G 1G 3G10G12G21G22G25G26G31G32R 4R 5
                                R14R15R16R20R21
  22583900.211   118679148.697    22583907.785    92477342.959  
  24489914.234   128695365.504    24489923.414   100282152.722  
  22128994.359   116288694.145    22129000.832    90614607.051  
  24160615.977   126964867.923    24160619.871    98933738.224  
  23091251.469   121345461.595    23091255.195    94554832.938  
  22931240.633   120504499.507    22931242.418    93899637.233  
  22486377.563   118166788.019    22486384.594    92078048.709  
  24309369.953   127746786.559    24309378.918    99542863.500  
  20236470.461   106343458.849    20236473.531    82865070.579  
  21088785.836   110822384.460    21088791.781    86355167.912  
  21328091.563   114211011.061    21328094.813    88830796.260  
  19834283.906   106025655.211    19834286.832    82464468.357  
  21406400.461   114108213.750    21406404.547    88750867.613  
  19555545.477   104498719.307    19555548.688    81277027.101  
  22312751.367   119191665.863    22312754.680    92703931.345  
  23283316.516   124506471.996    23283321.699    96838279.275  
  22943534.883   122775555.665    22943538.527    95492073.365  
 21  8 30  0 11  0.0000000  0 17G 1G 3G10G12G21G22G25G26G31G32R 4R 5
                                R14R15R16R20R21
  22581599.766   118667058.541    22581606.375    92467922.059  
  24470246.828   128592007.718    24470255.098   100201614.248  
  22144724.125   116371356.722    22144730.918    90679019.405  
  24169069.188   127009287.396    24169073.891    98968350.772  
  23094455.203   121362295.929    23094459.039    94567950.580  
  22915461.750   120421583.171    22915463.684    93835027.122  
  22486504.102   118167451.860    22486510.621    92078566.007  
  24289005.555   127639769.638    24289014.672    99459473.824  
  20229627.500   106307499.724    20229630.570    82837050.489  
  21094834.281   110854168.856    21094839.941    86379934.967  
  21338871.508   114268737.343    21338875.457    88875694.469  
  19829731.297   106001320.039    19829734.742    82445541.008  
  21422630.742   114194731.173    21422634.957    88818158.931  
  19549603.773   104466972.455    19549608.320    81252335.121  
  22288289.586   119061003.278    22288294.059    92602304.934  
  23302989.172   124611677.866    23302995.926    96920106.023  
  22947782.352   122798284.177    22947785.695    95509751.093  
 21  8 30  0 11 30.0000000  0 17G 1G 3G10G12G21G22G25G26G31G32R 4R 5
                                R14R15R16R20R21
  22579413.867   118655572.846    22579420.434    92458972.159  
  24450589.508   128488704.940    24450596.707   100121118.656  
  22160520.953   116454366.916    22160527.453    90743702.650  
  24177626.344   127054252.218    24177630.797    99003388.278  
  23097741.875   121379565.729    23097745.340    94581407.556  
  22899726.289   120338889.647    22899727.727    93770590.633  
  22486746.633   118168727.725    22486753.637    92079560.193  
  24268633.961   127532719.750    24268643.836    99376058.430  
  20222889.219   106272087.570    20222891.844    82809456.615  
  21100917.648   110886139.906    21100923.367    86404847.464  
  21349706.648   114326756.345    21349710.195    88920820.334  
  19825232.836   105977274.534    19825236.434    82426838.959  
  21438965.836   114281804.967    21438970.355    88885882.971  
  19543812.609   104436022.909    19543816.133    81228263.261  
  22263873.930   118930575.031    22263877.719    92500860.813  
  23322701.609   124717087.156    23322708.633    97002090.922  
  22952162.867   122821727.974    22952167.078    95527985.133  
 21  8 30  0 12  0.0000000  0 17G 1G 3G10G12G21G22G25G26G31G32R 4R 5
                                R14R15R16R20R21
  22577343.734   118644691.969    22577350.852    92450493.545  
  24430941.414   128385459.601    24430949.617   100040667.819  
  22176382.953   116537723.864    22176389.316    90808656.081  
  24186284.375   127099762.150    24186289.629    99038850.559  
  23101111.039   121397270.311    23101114.145    94595203.330  
  22884033.195   120256421.548    22884034.891    93706329.773  
  22487106.328   118170616.487    22487112.895    92081031.971  
  24248257.664   127425639.971    24248267.000    99292619.752  
  20216254.844   106237223.286    20216257.328    82782289.654  
  21107037.258   110918297.838    21107043.598    86429905.590  
  21360595.742   114385068.699    21360599.254    88966174.382  
  19820789.906   105953520.883    19820793.332    82408363.901  
  21455405.148   114369431.942    21455408.840    88954037.264  
  19538170.492   104405872.530    19538173.969    81204812.973  
  22239501.758   118800385.367    22239506.148    92399602.262  
  23342450.938   124822694.681    23342457.824    97084230.040  
  22956677.016   122845885.524    22956682.145    95546774.357  
 21  8 30  0 12 30.0000000  0 17G 1G 3G10G12G21G22G25G26G31G32R 4R 5
                                R14R15R16R20R21
  22575388.273   118634415.894    22575395.395    92442486.219  
  24411306.117   128282273.785    24411313.004    99960263.372  
  22192311.164   116621426.011    22192317.859    90873878.491  
  24195049.523   127145815.688    24195053.621    99074736.455  
  23104562.414   121415408.356    23104565.855    94609336.854  
  22868383.164   120174180.646    22868384.520    93642245.976  
  22487582.531   118173118.579    22487589.434    92082981.655  
  24227875.602   127318533.094    24227886.293    99209159.973  
  20209724.195   106202907.399    20209727.371    82755550.009  
  21113192.227   110950642.634    21113198.379    86455109.311  
  21371540.969   114443675.078    21371543.695    89011757.080  
  19816401.219   105930060.691    19816403.984    82390117.092  
  21471946.164   114457608.071    21471950.426    89022618.660  
  19532678.258   104376522.037    19532681.645    81181984.824  
  22215175.852   118670438.330    22215179.379    92298532.431  
  23362235.938   124928496.168    23362243.695    97166520.000  
  22961324.289   122870754.617    22961328.852    95566116.981  
 21  8 30  0 13  0.0000000  0 17G 1G 3G10G12G21G22G25G26G31G32R 4R 5
                                R14R15R16R20R21
  22573547.156   118624744.797    22573554.859    92434950.300  
  24391682.359   128179149.652    24391688.059    99879906.916  
  22208304.805   116705472.306    22208311.469    90939369.083  
  24203916.297   127192411.063    24203920.848    99111044.533  
  23108096.023   121433978.884    23108099.637    94623807.391  
  22852776.695   120092169.047    22852778.773    93578340.865  
  22488174.891   118176234.600    22488182.320    92085409.726  
  24207490.273   127211402.116    24207499.426    99125681.387  
  20203298.227   106169140.043    20203301.781    82729237.792  
  21119382.820   110983174.318    21119389.148    86480458.664  
  21382539.563   114502575.717    21382543.195    89057568.685  
  19812067.055   105906895.970    19812070.754    82372100.091  
  21488590.289   114546329.974    21488594.762    89091624.565  
  19527335.617   104347972.953    19527338.648    81159779.994  
  22190896.078   118540737.912    22190899.801    92197654.361  
  23382057.227   125034487.150    23382064.855    97248957.360  
  22966104.828   122896333.804    22966108.785    95586011.858  
 21  8 30  0 13 30.0000000  0 17G 1G 3G10G12G21G22G25G26G31G32R 4R 5
                                R14R15R16R20R21
  22571821.852   118615678.303    22571829.152    92427885.502  
  24372071.438   128076089.074    24372076.578    99799600.004  
  22224363.023   116789861.078    22224369.797    91005126.545  
  24212885.961   127239547.201    24212890.766    99147773.992  
  23111712.078   121452980.657    23111715.609    94638613.956  
  22837214.219   120010388.946    22837216.496    93514616.132  
  22488885.656   118179964.773    22488891.656    92088316.352  
  24187098.523   127104249.590    24187108.668    99042186.056  
  20196977.156   106135921.130    20196979.938    82703352.937  
  21125609.203   111015892.555    21125614.703    86505953.397  
  21393593.383   114561770.810    21393596.996    89103609.291  
  19807789.383   105884028.141    19807792.895    82354314.001  
  21505335.469   114635593.456    21505339.777    89161051.691  
  19522142.617   104320225.773    19522146.070    81138198.862  
  22166661.852   118411287.739    22166664.656    92096970.981  
  23401911.438   125140662.491    23401920.078    97331538.127  
  22971017.539   122922620.514    22971021.824    95606457.054  
 21  8 30  0 14  0.0000000  0 17G 1G 3G10G12G21G22G25G26G31G32R 4R 5
                                R14R15R16R20R21
  22570212.047   118607216.546    22570219.332    92421291.891  
  24352471.258   127973094.170    24352478.164    99719344.294  
  22240487.328   116874591.096    22240493.820    91071149.908  
  24221958.094   127287222.657    24221963.383    99184923.646  
  23115410.211   121472412.543    23115413.113    94653755.665  
  22821696.883   119928842.936    22821698.859    93451073.794  
  22489712.109   118184309.518    22489718.957    92091701.890  
  24166705.602   126997078.426    24166714.164    98958676.146  
  20190760.258   106103251.453    20190763.570    82677896.054  
  21131870.461   111048797.393    21131876.273    86531593.530  
  21404703.297   114621261.128    21404707.305    89149879.508  
  19803567.680   105861459.169    19803570.918    82336760.355  
  21522182.664   114725394.952    21522186.070    89230897.296  
  19517100.656   104293281.861    19517104.426    81117242.500  
  22142476.039   118282091.929    22142479.516    91996485.426  
  23421800.250   125247017.983    23421808.133    97414258.973  
  22976061.133   122949612.912    22976065.727    95627451.157  
 21  8 30  0 14 30.0000000  0 17G 1G 3G10G12G21G22G25G26G31G32R 4R 5
                                R14R15R16R20R21
  22568717.008   118599359.210    22568724.613    92415169.280  
  24332884.977   127870166.895    24332891.672    99639141.292  
  22256674.852   116959660.842    22256681.945    91137437.986  
  24231132.898   127335435.516    24231136.289    99222492.158  
  23119189.539   121492273.536    23119193.141    94669231.761  
  22806224.078   119847532.986    22806225.863    93387715.411  
  22490655.852   118189269.142    22490662.227    92095566.508  
  24146308.125   126889891.293    24146317.074    98875153.835  
  20184647.797   106071130.312    20184650.555    82652866.604  
  21138167.914   111081888.673    21138173.734    86557378.935  
  21415868.188   114681046.822    21415870.777    89196379.471  
  19799401.531   105839190.743    19799404.465    82319440.470  
  21539128.977   114815730.544    21539132.574    89301158.306  
  19512208.359   104267141.748    19512212.219    81096911.298  
  22118338.773   118153154.497    22118342.918    91896200.845  
  23441724.008   125353548.351    23441730.305    97497115.824  
  22981236.898   122977308.569    22981241.047    95648992.248  
 21  8 30  0 15  0.0000000  0 17G 1G 3G10G12G21G22G25G26G31G32R 4R 5
                                R14R15R16R20R21
  22567336.047   118592106.172    22567344.133    92409517.576  
  24313311.336   127767309.380    24313318.195    99558992.598  
  22272927.945   117045068.925    22272934.578    91203989.696  
  24240408.766   127384184.930    24240414.625    99260478.714  
  23123050.320   121512561.967    23123053.516    94685040.917  
  22790796.859   119766461.234    22790797.863    93324542.614  
  22491716.367   118194843.957    22491723.176    92099910.530  
  24125908.414   126782691.050    24125917.344    98791621.268  
  20178639.945   106039558.198    20178642.777    82628264.963  
  21144500.102   111115166.260    21144506.531    86583309.527  
  21427087.789   114741128.165    21427091.164    89243109.388  
  19795292.938   105817224.457    19795296.258    82302355.581  
  21556175.094   114906596.310    21556179.367    89371831.668  
  19507467.953   104241806.639    19507471.379    81077206.226  
  22094249.984   118024478.803    22094254.035    91796119.828  
  23461677.438   125460249.559    23461683.715    97580105.539  
  22986543.727   123005705.531    22986547.461    95671078.687  
 21  8 30  0 15 30.0000000  0 17G 1G 3G10G12G21G22G25G26G31G32R 4R 5
                                R14R15R16R20R21
  22566071.617   118585457.510    22566078.305    92404336.803  
  24293751.586   127664523.848    24293759.141    99478899.988  
  22289244.672   117130814.112    22289251.316    91270804.101  
  24249788.641   127433469.215    24249793.855    99298882.008  
  23126992.250   121533276.935    23126995.367    94701182.415  
  22775415.188   119685629.894    22775416.328    93261557.156  
  22492894.797   118201034.399    22492901.531    92104734.256  
  24105507.000   126675480.723    24105515.598    98708080.850  
  20172736.430   106008535.188    20172739.668    82604091.191  
  21150868.336   111148630.299    21150874.359    86609385.395  
  21438362.477   114801505.796    21438366.379    89290069.757  
  19791240.469   105795562.315    19791243.445    82285507.254  
  21573320.383   114997988.666    21573324.660    89442914.578  
  19502877.047   104217277.523    19502880.695    81058128.036  
  22070211.055   117896069.304    22070215.262    91696245.850  
  23481663.008   125567116.821    23481669.262    97663224.451  
  22991980.375   123034801.613    22991984.977    95693708.960  
 21  8 30  0 16  0.0000000  0 17G 1G 3G10G12G21G22G25G26G31G32R 4R 5
                                R14R15R16R20R21
  22564921.234   118579412.932    22564928.242    92399626.729  
  24274205.859   127561812.310    24274214.191    99398865.102  
  22305625.164   117216894.947    22305632.191    91337880.039  
  24259268.430   127483287.165    24259273.230    99337701.136  
  23131014.969   121554417.243    23131018.879    94717655.392  
  22760079.398   119605041.721    22760080.285    93198761.181  
  22494189.750   118207840.755    22494196.430    92110037.936  
  24085103.086   126568263.130    24085113.324    98624534.803  
  20166937.648   105978061.953    20166940.723    82580345.816  
  21157272.078   111182280.688    21157278.016    86635606.469  
  21449692.680   114862179.862    21449696.793    89337260.662  
  19787245.570   105774206.230    19787248.477    82268896.957  
  21590563.141   115089903.635    21590567.355    89514403.975  
  19498438.289   104193554.974    19498441.418    81039677.164  
  22046224.523   117767929.757    22046227.422    91596581.843  
  23501676.602   125674145.166    23501684.582    97746468.623  
  22997548.852   123064594.629    22997552.379    95716881.269  
 21  8 30  0 16 30.0000000  0 17G 1G 3G10G12G21G22G25G26G31G32R 4R 5
                                R14R15R16R20R21
  22563885.578   118573972.019    22563893.117    92395387.061  
  24254675.797   127459176.767    24254683.176    99318889.430  
  22322069.141   117303309.737    22322075.801    91405216.212  
  24268849.102   127533636.567    24268852.992    99376934.457  
  23135119.078   121575981.626    23135121.633    94734458.789  
  22744790.859   119524698.348    22744792.176    93136155.952  
  22495601.805   118215263.006    22495609.398    92115821.513  
  24064700.438   126461040.888    24064708.977    98540985.072  
  20161243.422   105948137.971    20161246.461    82557028.439  
  21163710.383   111216117.117    21163716.617    86661972.518  
  21461079.219   114923150.624    21461082.480    89384682.342  
  19783307.359   105753157.568    19783310.961    82252525.773  
  21607903.898   115182337.258    21607908.109    89586296.756  
  19494149.336   104170639.501    19494153.387    81021854.033  
  22022286.422   117640063.629    22022290.152    91497130.488  
  23521722.984   125781330.687    23521729.070    97829834.993  
  23003247.219   123095082.228    23003250.121    95740593.789  
 21  8 30  0 17  0.0000000  0 17G 1G 3G10G12G21G22G25G26G31G32R 4R 5
                                R14R15R16R20R21
  22562965.070   118569134.877    22562972.496    92391617.876  
  24235160.195   127356619.714    24235167.117    99238974.872  
  22338576.844   117390057.506    22338583.473    91472811.842  
  24278531.109   127584516.380    24278534.883    99416581.103  
  23139302.641   121597968.966    23139305.977    94751591.761  
  22729548.813   119444602.488    22729550.672    93073743.616  
  22497131.695   118223301.825    22497139.152    92122085.528  
  24044296.086   126353817.051    24044304.270    98457434.092  
  20155653.414   105918763.640    20155656.828    82534139.360  
  21170184.773   111250139.947    21170190.785    86688483.814  
  21472521.648   114984418.725    21472523.840    89432335.279  
  19779427.805   105732418.508    19779431.602    82236395.401  
  21625340.781   115275285.930    21625345.074    89658590.129  
  19490012.328   104148532.324    19490016.352    81004659.557  
  21998401.438   117512475.746    21998406.043    91397895.543  
  23541795.344   125888668.293    23541801.746    97913319.701  
  23009071.344   123126262.314    23009076.660    95764844.972  
 21  8 30  0 17 30.0000000  0 17G 1G 3G10G12G21G22G25G26G31G32R 4R 5
                                R14R15R16R20R21
  22562159.547   118564900.994    22562166.879    92388318.745  
  24215659.188   127254143.003    24215667.238    99159122.938  
  22355147.391   117477136.432    22355154.594    91540665.527  
  24288314.484   127635924.985    24288318.395    99456639.748  
  23143567.922   121620377.864    23143570.230    94769053.232  
  22714354.422   119364755.973    22714356.297    93011525.562  
  22498778.945   118231957.036    22498785.445    92128829.853  
  24023891.867   126246594.427    24023901.383    98373884.087  
  20150168.141   105889938.868    20150171.496    82511678.495  
  21176694.531   111284348.847    21176700.488    86715140.100  
  21484017.367   115045984.348    21484020.840    89480219.656  
  19775606.914   105711990.793    19775609.266    82220507.168  
  21642873.422   115368745.584    21642877.965    89731280.953  
  19486026.930   104127233.773    19486030.551    80988094.035  
  21974570.688   117385169.495    21974573.891    91298879.626  
  23561893.422   125996153.573    23561902.102    97996919.348  
  23015028.094   123158132.311    23015032.867    95789632.726  
 21  8 30  0 18  0.0000000  0 17G 1G 3G10G12G21G22G25G26G31G32R 4R 5
                                R14R15R16R20R21
  22561468.508   118561269.967    22561475.434    92385489.387  
  24196174.023   127151748.654    24196181.781    99079335.194  
  22371780.844   117564545.060    22371787.332    91608776.112  
  24298197.930   127687861.032    24298202.945    99497109.370  
  23147911.422   121643206.757    23147914.031    94786841.962  
  22699208.281   119285160.886    22699209.996    92949503.452  
  22500543.594   118241228.823    22500550.473    92136054.626  
  24003489.297   126139375.714    24003497.566    98290337.120  
  20144787.484   105861663.466    20144790.840    82489645.727  
  21183239.602   111318743.691    21183245.551    86741941.271  
  21495569.695   115107847.656    21495573.492    89528335.530  
  19771843.781   105691875.631    19771847.148    82204862.035  
  21660502.148   115462712.210    21660505.430    89804366.063  
  19482192.609   104106744.586    19482196.016    80972158.000  
  21950792.898   117258148.775    21950795.191    91200085.777  
  23582020.813   126103781.672    23582028.656    98080630.085  
  23021113.070   123190689.788    23021117.457    95814955.166  
 21  8 30  0 18 30.0000000  0 17G 1G 3G10G12G21G22G25G26G31G32R 4R 5
                                R14R15R16R20R21
  22560892.398   118558241.546    22560899.523    92383129.571  
  24176704.398   127049438.870    24176712.438    98999613.329  
  22388476.773   117652281.868    22388483.152    91677142.418  
  24308180.922   127740322.613    24308185.469    99537988.530  
  23152335.125   121666454.300    23152338.191    94804956.935  
  22684109.992   119205819.669    22684111.684    92887679.156  
  22502425.180   118251117.268    22502432.070    92143759.914  
  23983087.547   126032163.842    23983095.539    98206795.448  
  20139511.625   105833937.485    20139514.742    82468041.066  
  21189820.078   111353324.444    21189826.293    86768887.315  
  21507177.477   115170008.848    21507181.648    89576683.120  
  19768139.414   105672075.117    19768142.766    82189461.634  
  21678223.805   115557182.066    21678228.047    89877842.577  
  19478509.633   104087065.166    19478513.426    80956851.802  
  21927066.484   117131417.234    21927069.863    91101516.877  
  23602174.742   126211547.9041   23602181.434    98164448.1571 
  23027324.430   123223932.430    23027329.770    95840810.513  
 21  8 30  0 19  0.0000000  0 17G 1G 3G10G12G21G22G25G26G31G32R 4R 5
                                R14R15R16R20R21
  22560430.406   118555815.469    22560438.188    92381239.128  
  24157252.359   126947215.942    24157260.480    98919959.170  
  22405234.953   117740345.531    22405241.168    91745763.419  
  24318264.820   127793308.242    24318268.813    99579275.939  
  23156838.750   121690119.620    23156841.645    94823397.414  
  22669060.734   119126734.496    22669062.535    92826054.381  
  22504424.602   118261622.554    22504430.898    92151945.843  
  23962687.375   125924961.725    23962695.492    98123261.397  
  20134339.883   105806760.794    20134343.355    82446864.435  
  21196435.828   111388091.201    21196442.199    86795978.297  
  21518842.039   115232468.543    21518845.438    89625262.847  
  19764494.680   105652591.211    19764498.109    82174307.479  
  21696039.828   115652151.420    21696043.926    89951707.610  
  19474978.938   104068196.296    19474982.246    80942176.021  
  21903397.203   117004979.184    21903400.340    91003176.216  
  23622352.711   126319448.074    23622359.883    98248370.421  
  23033664.813   123257857.935    23033669.078    95867196.996  
 21  8 30  0 19 30.0000000  0 16G 1G 3G10G12G21G22G25G26G31G32R 4R 5
                                R14R15R16R21
  22560083.250   118553991.235    22560090.938    92379817.677  
  24137817.109   126845081.934    24137825.043    98840374.279  
  22422054.586   117828734.429    22422061.816    91814637.865  
  24328445.156   127846816.011    24328448.949    99620970.358  
  23161421.125   121714201.068    23161424.270    94842162.167  
  22654060.281   119047907.748    22654061.941    92764630.974  
  22506539.992   118272744.812    22506546.918    92160612.549  
  23942289.789   125817772.306    23942298.785    98039737.260  
  20129273.148   105780133.624    20129276.148    82426115.992  
  21203087.336   111423043.721    21203093.590    86823214.030  
  21530562.000   115295226.901    21530565.234    89674074.874  
  19760909.016   105633425.403    19760912.570    82159400.738  
  21713949.031   115747616.189    21713952.004    90025957.968  
  19471599.492   104050138.320    19471603.238    80928130.936  
  21879783.750   116878838.460    21879786.313    90905066.834  
  23040131.273   123292463.623    23040135.504    95894112.474  
 21  8 30  0 20  0.0000000  0 16G 1G 3G10G12G21G22G25G26G31G32R 4R 5
                                R14R15R16R21
  22559850.922   118552768.607    22559858.348    92378864.980  
  24118398.977   126743039.157    24118406.047    98760860.478  
  22438935.789   117917447.208    22438943.023    91883764.669  
  24338725.414   127900844.661    24338731.391    99663070.645  
  23166082.789   121738697.378    23166086.195    94861250.167  
  22639110.000   118969342.013    22639111.543    92703410.962  
  22508774.852   118284484.091    22508781.652    92169760.030  
  23921894.883   125710598.439    23921904.711    97956225.254  
  20124310.359   105754056.051    20124313.738    82405795.814  
  21209774.023   111458182.353    21209779.824    86850594.772  
  21542337.016   115358284.313    21542340.551    89723119.520  
  19757383.477   105614579.718    19757387.082    82144742.990  
  21731950.430   115843572.391    21731954.309    90100590.519  
  19468371.891   104032891.735    19468375.469    80914716.938  
  21856227.570   116752999.225    21856229.414    90807191.944  
  23046725.086   123327747.205    23046730.191    95921555.246  
 21  8 30  0 20 30.0000000  0 16G 1G 3G10G12G21G22G25G26G31G32R 4R 5
                                R14R15R16R21
  22559732.625   118552147.155    22559739.637    92378380.738  
  24098998.477   126641089.824    24099005.520    98681419.479  
  22455878.938   118006482.412    22455885.637    91953142.726  
  24349108.633   127955392.881    24349112.199    99705575.685  
  23170822.898   121763607.379    23170826.234    94880660.551  
  22624209.133   118891039.389    22624210.578    92642395.941  
  22511125.969   118296840.518    22511132.684    92179388.405  
  23901503.789   125603443.253    23901514.086    97872727.780  
  20119452.805   105728527.979    20119455.820    82385903.815  
  21216495.883   111493506.995    21216501.895    86878120.461  
  21554168.820   115421641.037    21554172.387    89772396.919  
  19753918.266   105596056.100    19753921.688    82130335.732  
  21750043.055   115940016.566    21750046.566    90175602.668  
  19465296.648   104016457.284    19465299.922    80901934.599  
  21832726.594   116627465.109    21832729.094    90709554.368  
  23053444.914   123363706.365    23053449.000    95949523.428  
 21  8 30  0 21  0.0000000  0 16G 1G 3G10G12G21G22G25G26G31G32R 4R 5
                                R14R15R16R21
  22559728.766   118552126.132    22559735.855    92378364.361  
  24079616.320   126539235.754    24079623.305    98602052.736  
  22472883.086   118095838.212    22472889.352    92022770.587  
  24359587.328   128010457.790    24359590.031    99748483.410  
  23175641.227   121788929.117    23175644.637    94900391.767  
  22609358.836   118813001.350    22609360.715    92581587.120  
  22513594.945   118309813.775    22513601.453    92189497.434  
  23881117.313   125496309.205    23881126.121    97789246.796  
  20114699.797   105703548.896    20114702.508    82366439.596  
  21223253.602   111529017.291    21223259.430    86905790.823  
  21566055.680   115485297.102    21566060.285    89821907.171  
  19750513.867   105577856.053    19750517.367    82116180.155  
  21768226.945   116036944.189    21768230.258    90250990.759  
  19462372.773   104000834.842    19462376.508    80889783.819  
  21809283.219   116502239.971    21809286.980    90612157.093  
  23060289.820   123400337.875    23060295.266    95978014.545  
 21  8 30  0 21 30.0000000  0 16G 1G 3G10G12G21G22G25G26G31G32R 4R 5
                                R14R15R16R21
  22559838.188   118552705.348    22559845.652    92378815.698  
  24060252.438   126437479.576    24060259.691    98522762.268  
  22489947.734   118185513.307    22489953.621    92092647.240  
  24370163.203   128066038.814    24370165.871    99791793.250  
  23180538.367   121814661.789    23180541.914    94920443.195  
  22594559.539   118735230.945    22594560.930    92520986.833  
  22516180.414   118323404.046    22516187.543    92200087.259  
  23860735.758   125389199.617    23860743.855    97705784.823  
  20110050.766   105679119.084    20110053.578    82347403.375  
  21230046.383   111564713.515    21230052.336    86933606.064  
  21577999.273   115549253.062    21578002.520    89871650.668  
  19747170.047   105559981.512    19747172.813    82102277.737  
  21786498.383   116134351.508    21786503.309    90326752.001  
  19459601.516   103986025.002    19459604.898    80878265.072  
  21785898.430   116377327.203    21785903.063    90515002.804  
  23067261.430   123437639.629    23067265.473    96007027.022  
 21  8 30  0 22  0.0000000  0 16G 1G 3G10G12G21G22G25G26G31G32R 4R 5
                                R14R15R16R21
  22560063.094   118553883.924    22560070.203    92379734.089  
  24040908.273   126335823.053    24040915.273    98443549.484  
  22507072.102   118275505.794    22507078.680    92162771.220  
  24380836.750   128122133.685    24380840.289    99835503.638  
  23185512.461   121840803.735    23185516.168    94940813.528  
  22579812.047   118657729.957    22579813.715    92460596.488  
  22518884.758   118337611.071    22518890.840    92211157.661  
  23840357.602   125282116.954    23840366.316    97622343.879  
  20105506.258   105655238.100    20105509.262    82328794.820  
  21236874.117   111600595.335    21236880.367    86961565.905  
  21589998.008   115613508.652    21590002.137    89921627.201  
  19743887.461   105542433.992    19743890.621    82088629.675  
  21804861.766   116232234.487    21804866.281    90402883.163  
  19456981.883   103972027.664    19456985.988    80867378.258  
  21762574.000   116252731.419    21762578.168    90418095.021  
  23074356.820   123475608.542    23074359.898    96036558.359  
 21  8 30  0 22 30.0000000  0 16G 1G 3G10G12G21G22G25G26G31G32R 4R 5
                                R14R15R16R21
  22560401.641   118555661.824    22560408.754    92381119.476  
  24021583.328   126234268.933    24021590.031    98364416.475  
  22524258.203   118365814.673    22524264.793    92233141.736  
  24391608.641   128178740.608    24391614.023    99879612.866  
  23190564.898   121867353.517    23190568.301    94961501.642  
  22565116.047   118580501.124    22565117.289    92400418.208  
  22521705.555   118352435.088    22521712.559    92222708.855  
  23819986.063   125175064.614    23819995.098    97538926.549  
  20101066.039   105631906.279    20101069.250    82310614.185  
  21243737.641   111636663.154    21243744.367    86989670.697  
  21602054.031   115678064.768    21602058.059    89971837.480  
  19740666.695   105525215.810    19740669.320    82075237.771  
  21823312.641   116330589.534    21823317.055    90479381.513  
  19454515.156   103958843.582    19454518.305    80857123.976  
  21739309.883   116128456.429    21739312.832    90321436.758  
  23081574.711   123514242.435    23081580.434    96066606.908  
 21  8 30  0 23  0.0000000  0 16G 1G 3G10G12G21G22G25G26G31G32R 4R 5
                                R14R15R16R21
  22560853.500   118558037.895    22560860.867    92382970.954  
  24002278.320   126132818.929    24002285.066    98285364.565  
  22541502.648   118456437.808    22541509.609    92303757.127  
  24402478.375   128235857.7341   24402483.516    99924119.6211 
  23195694.141   121894309.303    23195698.316    94982506.136  
  22550471.695   118503546.157    22550473.168    92340453.309  
  22524643.016   118367875.589    22524650.012    92234740.422  
  23799622.070   125068045.097    23799629.680    97455534.795  
  20096730.531   105609122.738    20096733.957    82292860.780  
  21250636.789   111672916.545    21250642.863    87017920.075  
  21614165.531   115742921.173    21614169.426    90022281.308  
  19737506.375   105508328.016    19737510.152    82062102.825  
  21841851.688   116429412.448    21841856.602    90556243.746  
  19452199.594   103946472.493    19452203.438    80847502.026  
  21716106.242   116004505.625    21716109.758    90225030.644  
  23088919.039   123553538.296    23088924.953    96097170.358  
 21  8 30  0 23 30.0000000  0 16G 1G 3G10G12G21G22G25G26G31G32R 4R 5
                                R14R15R16R21
  22561419.148   118561011.910    22561427.457    92385288.368  
  23982992.750   126031475.500    23983000.031    98206395.689  
  22558807.766   118547373.902    22558814.621    92374616.378  
  24413444.391   128293483.562    24413448.051    99969022.898  
  23200901.250   121921669.960    23200904.590    95003826.113  
  22535880.141   118426867.544    22535881.684    92280703.766  
  22527699.125   118383932.562    22527704.984    92247252.358  
  23779262.844   124961061.513    23779271.367    97372171.026  
