     2.11           OBSERVATION DATA    M (MIXED)           RINEX VERSION / TYPE
CONVBIN 2.4.3                           20210829 171709 UTC PGM / RUN BY / DATE 
log: ngs/njtw2400.21o                                       COMMENT             
format: RINEX                                               COMMENT             
NJTW                                                        MARKER NAME         
21                                                          MARKER NUMBER       
                                                            OBSERVER / AGENCY   
5920R40010          TRIMBLE ALLOY       NP 6.10 / SP 5.50   REC # / TYPE / VERS 
1441025881          TRM115000.00    NONE                    ANT # / TYPE        
  1271653.0480 -4729243.5750  4072560.6810                  APPROX POSITION XYZ 
        0.0460        0.0000        0.0000                  ANTENNA: DELTA H/E/N
     1     1                                                WAVELENGTH FACT L1/2
     4    C1    L1    P2    L2                              # / TYPES OF OBSERV 
    30.000                                                  INTERVAL            
  2021     8    28     0     0    0.0000000     GPS         TIME OF FIRST OBS   
  2021     8    28    23    59   30.0000000     GPS         TIME OF LAST OBS    
                                                            END OF HEADER       
 21  8 28  0  0  0.0000000  0  9G 1G10G12G21G22G23G25G31G32
  23761868.109   124869427.306    23761870.996    97300873.865  
  21136122.086   111071132.764    21136123.016    86548984.753  
  22576236.578   118639035.716    22576235.137    92446029.149  
  24319218.398   127798409.449    24319217.957    99583124.758  
  24410078.938   128275797.031    24410075.633    99955171.191  
  23740875.836   124759184.372    23740877.086    97214959.892  
  21326090.797   112069583.151    21326093.199    87326909.117  
  21301264.508   111938989.672    21301263.355    87225236.439  
  20523611.953   107852425.812    20523612.313    84040952.588  
 21  8 28  0  0 30.0000000  0  9G 1G10G12G21G22G23G25G31G32
  23758984.734   124854274.407    23758987.809    97289066.451  
  21149395.992   111140887.917    21149397.000    86603339.414  
  22582324.477   118671029.601    22582323.527    92470959.491  
  24321930.953   127812665.021    24321930.711    99594233.020  
  24392296.969   128182350.921    24392293.578    99882355.994  
  23761731.797   124868782.754    23761732.973    97300361.197  
  21321567.469   112045812.999    21321569.434    87308386.969  
  21288073.391   111869669.845    21288072.309    87171221.053  
  20522440.320   107846270.688    20522440.910    84036156.415  
 21  8 28  0  1  0.0000000  0  9G 1G10G12G21G22G23G25G31G32
  23756213.117   124839707.907    23756215.754    97277715.979  
  21162757.383   111211103.912    21162758.355    86658053.160  
  22588529.414   118703634.579    22588528.531    92496366.040  
  24324722.680   127827334.971    24324722.324    99605664.152  
  24374550.500   128089095.631    24374547.520    99809689.495  
  23782618.305   124978542.029    23782619.672    97385887.898  
  21317164.180   112022670.643    21317166.176    87290354.019  
  21274959.234   111800754.065    21274957.805    87117520.497  
  20521318.133   107840373.490    20521318.699    84031561.221  
 21  8 28  0  1 30.0000000  0  9G 1G10G12G21G22G23G25G31G32
  23753552.539   124825728.239    23753555.570    97266822.738  
  21176206.500   111281779.536    21176207.797    86713125.069  
  22594850.273   118736850.763    22594849.414    92522248.811  
  24327592.516   127842418.818    24327592.875    99617417.774  
  24356841.609   127996034.029    24356838.781    99737173.917  
  23803534.891   125088460.454    23803535.949    97471538.590  
  21312880.156   112000157.758    21312881.543    87272811.539  
  21261921.977   111732243.256    21261920.344    87064135.517  
  20520245.313   107834735.166    20520245.832    84027167.736  
 21  8 28  0  2  0.0000000  0  9G 1G10G12G21G22G23G25G31G32
  23751004.023   124812335.340    23751006.785    97256386.733  
  21189742.523   111352913.164    21189743.789    86768553.855  
  22601286.805   118770676.635    22601286.059    92548606.681  
  24330541.844   127857915.245    24330541.582    99629492.910  
  24339169.891   127903168.473    24339166.773    99664811.150  
  23824481.609   125198535.864    23824482.477    97557311.608  
  21308715.586   111978275.368    21308717.582    87255760.375  
  21248961.820   111664138.383    21248960.645    87011066.834  
  20519221.500   107829356.230    20519222.105    84022976.373  
 21  8 28  0  2 30.0000000  0  9G 1G10G12G21G22G23G25G31G32
  23748566.969   124799529.189    23748569.613    97246407.895  
  21203365.523   111424503.024    21203367.344    86824338.160  
  22607839.227   118805110.854    22607837.883    92575438.604  
  24333568.828   127873823.043    24333568.547    99641888.575  
  24321535.891   127810501.130    24321532.836    99592602.815  
  23845458.094   125308765.893    23845459.125    97643205.117  
  21304671.992   111957024.446    21304673.379    87239201.263  
  21236079.031   111596439.949    21236078.188    86958314.858  
  20518247.734   107824237.098    20518247.973    84018987.457  
 21  8 28  0  3  0.0000000  0  9G 1G10G12G21G22G23G25G31G32
  23746241.844   124787309.911    23746244.906    97236886.373  
  21217075.453   111496547.669    21217076.723    86880476.837  
  22614507.883   118840152.445    22614507.070    92602743.792  
  24336673.852   127890141.066    24336674.246    99654603.902  
  24303939.891   127718034.412    24303937.180    99520550.839  
  23866463.016   125419148.537    23866464.992    97729217.546  
  21300748.172   111936406.270    21300749.980    87223135.215  
  21223274.461   111529148.888    21223273.016    86905880.325  
  20517323.148   107819378.509    20517323.508    84015201.555  
 21  8 28  0  3 30.0000000  0  9G 1G10G12G21G22G23G25G31G32
  23744028.281   124775677.424    23744031.223    97227822.089  
  21230871.227   111569045.410    21230872.660    86936968.575  
  22621290.773   118875800.011    22621290.578    92630521.161  
  24339857.148   127906868.116    24339857.090    99667637.944  
  24286382.563   127625770.526    24286379.648    99448656.895  
  23887496.656   125529681.570    23887498.105    97815347.188  
  21296945.516   111916421.924    21296946.715    87207563.037  
  21210547.117   111462266.517    21210545.664    86853764.253  
  20516448.078   107814780.970    20516448.520    84011619.078  
 21  8 28  0  4  0.0000000  0  9G 1G10G12G21G22G23G25G31G32
  23741926.258   124764631.751    23741929.297    97219215.032  
  21244753.203   111641994.626    21244754.348    86993812.111  
  22628189.539   118912053.043    22628188.742    92658770.316  
  24343117.664   127924002.970    24343117.516    99680989.762  
  24268864.242   127533711.914    24268861.789    99376922.915  
  23908559.063   125640362.816    23908560.047    97901592.325  
  21293263.055   111897072.430    21293264.891    87192485.561  
  21197897.555   111395793.332    21197896.000    86801967.017  
  20515623.023   107810445.082    20515623.355    84008240.482  
 21  8 28  0  4 30.0000000  0  9G 1G10G12G21G22G23G25G31G32
  23739935.922   124754172.464    23739939.137    97211064.907  
  21258720.523   111715393.309    21258721.344    87051005.884  
  22635203.172   118948909.817    22635201.871    92687489.919  
  24346456.469   127941544.306    24346456.020    99694658.303  
  24251386.031   127441860.281    24251382.805    99305350.165  
  23929648.578   125751189.909    23929649.500    97987951.100  
  21289702.359   111878358.479    21289703.488    87177903.311  
  21185325.953   111329729.653    21185324.445    86750488.885  
  20514847.797   107806371.123    20514847.867    84005065.974  
 21  8 28  0  5  0.0000000  0  9G 1G10G12G21G22G23G25G31G32
  23738057.188   124744299.749    23738060.270    97203371.837  
  21272773.055   111789240.166    21272774.309    87108548.872  
  22642331.516   118986369.330    22642329.598    92716679.205  
  24349871.578   127959491.329    24349871.035    99708642.977  
  24233946.594   127350218.453    24233943.898    99233940.955  
  23950765.281   125862160.914    23950766.648    98074422.023  
  21286262.188   111860281.406    21286263.379    87163817.340  
  21172832.719   111264076.752    21172830.938    86699330.842  
  20514122.344   107802559.983    20514122.797    84002096.280  
 21  8 28  0  5 30.0000000  0  9G 1G10G12G21G22G23G25G31G32
  23736290.398   124735013.900    23736293.102    97196136.074  
  21286910.563   111863533.735    21286911.848    87166439.967  
  22649574.719   119024430.581    22649572.949    92746337.378  
  24353363.258   127977842.911    24353363.266    99722942.867  
  24216548.414   127258789.089    24216545.586    99162697.281  
  23971909.680   125973273.979    23971910.574    98161003.610  
  21282943.422   111842842.501    21282945.262    87150228.635  
  21160417.516   111198835.517    21160415.961    86648493.574  
  20513447.453   107799012.548    20513447.555    83999332.071  
 21  8 28  0  6  0.0000000  0  9G 1G10G12G21G22G23G25G31G32
  23734634.711   124726314.610    23734637.539    97189357.373  
  21301132.750   111938272.216    21301134.234    87224677.742  
  22656931.391   119063092.031    22656930.695    92776463.232  
  24356932.422   127996597.571    24356931.965    99737556.892  
  24199190.930   127167574.283    24199187.969    99091620.816  
  23993079.773   126084526.743    23993081.047    98247694.026  
  21279746.461   111826042.508    21279748.371    87137137.793  
  21148081.266   111134006.742    21148079.566    86597977.704  
  20512822.484   107795729.274    20512822.754    83996773.702  
 21  8 28  0  6 30.0000000  0  9G 1G10G12G21G22G23G25G31G32
  23733091.148   124718201.416    23733094.008    97183035.369  
  21315439.594   112013453.604    21315441.266    87283260.637  
  22664402.156   119102352.681    22664401.410    92807056.008  
  24360577.727   128015753.897    24360577.176    99752483.890  
  24181874.547   127076576.156    24181871.531    99020713.193  
  24014276.453   126195916.797    24014277.961    98334491.475  
  21276671.570   111809882.183    21276673.199    87124545.368  
  21135822.938   111069590.846    21135821.445    86547783.561  
  20512248.141   107792710.502    20512248.449    83994421.432  
 21  8 28  0  7  0.0000000  0  9G 1G10G12G21G22G23G25G31G32
  23731658.523   124710674.087    23731661.941    97177169.899  
  21329829.977   112089076.169    21329831.266    87342187.281  
  22671987.328   119142210.681    22671985.586    92838114.228  
  24364298.969   128035310.601    24364298.781    99767722.897  
  24164599.586   126985797.039    24164597.055    98949976.216  
  24035500.039   126307441.931    24035499.906    98421394.201  
  21273717.977   111794362.229    21273720.230    87112451.949  
  21123643.648   111005588.416    21123642.125    86497911.592  
  20511724.336   107789956.748    20511724.289    83992275.674  
 21  8 28  0  7 30.0000000  0  9G 1G10G12G21G22G23G25G31G32
  23730337.734   124703732.573    23730340.859    97171760.875  
  21344303.789   112165138.280    21344305.535    87401456.448  
  22679685.414   119182664.970    22679683.836    92869637.104  
  24368096.555   128055266.505    24368096.387    99783272.929  
  24147367.586   126895239.389    24147364.258    98879411.839  
  24056746.891   126419100.183    24056748.730    98508400.644  
  21270886.680   111779483.723    21270888.645    87100858.372  
  21111543.227   110942000.429    21111541.555    86448362.559  
  20511250.570   107787468.830    20511250.832    83990337.054  
 21  8 28  0  8  0.0000000  0  9G 1G10G12G21G22G23G25G31G32
  23729128.094   124697376.509    23729131.293    97166808.066  
  21358861.398   112241638.001    21358862.844    87461066.612  
  22687496.656   119223714.111    22687495.324    92901623.491  
  24371969.938   128075620.115    24371969.348    99799132.883  
  24130177.398   126804905.453    24130174.480    98809021.737  
  24078019.961   126530889.082    24078021.855    98595508.872  
  21268177.273   111765247.370    21268179.609    87089765.159  
  21099522.078   110878827.368    21099520.070    86399136.850  
  20510827.727   107785247.130    20510827.945    83988605.888  
 21  8 28  0  8 30.0000000  0  9G 1G10G12G21G22G23G25G31G32
  23728029.891   124691605.661    23728033.152    97162311.294  
  21373501.906   112318573.676    21373502.645    87521016.481  
  22695421.125   119265356.856    22695419.758    92934072.444  
  24375918.563   128096370.237    24375917.684    99815301.815  
  24113030.422   126714797.586    24113027.746    98738807.832  
  24099316.969   126642806.676    24099318.680    98682717.382  
  21265590.445   111751654.052    21265593.406    87079173.001  
  21087579.039   110816070.026    21087577.887    86350235.075  
  20510455.680   107783292.369    20510455.934    83987082.724  
 21  8 28  0  9  0.0000000  0 10G 1G10G12G21G22G23G25G26G31G32
  23727043.211   124686419.817    23727046.184    97158270.381  
  21388224.867   112395943.560    21388225.770    87581304.706  
  22703458.078   119307591.686    22703456.617    92966982.741  
  24379942.469   128117515.543    24379941.820    99831778.681  
  24095927.039   126624918.523    24095924.137    98668772.257  
  24120638.523   126754850.713    24120639.449    98770024.448  
  21263126.297   111738704.566    21263128.762    87069082.547  
  25059895.664   131690635.2181   25059901.391   102616105.7861 
  21075716.367   110753729.191    21075714.672    86301657.864  
  20510134.383   107781605.177    20510134.840    83985768.059  
 21  8 28  0  9 30.0000000  0 10G 1G10G12G21G22G23G25G26G31G32
  23726167.758   124681818.641    23726170.297    97154685.050  
  21403029.844   112473745.852    21403031.625    87641929.862  
  22711607.016   119350417.578    22711606.453    93000353.627  
  24384040.766   128139054.534    24384040.496    99848562.310  
  24078867.719   126535270.046    24078864.648    98598916.340  
  24141983.305   126867019.113    24141984.551    98857428.402  
  21260785.477   111726399.620    21260787.230    87059494.317  
  25037994.266   131575542.998    25038000.520   102526423.697  
  21063932.852   110691805.729    21063930.969    86253405.861  
  20509864.656   107780186.168    20509864.891    83984662.363  
 21  8 28  0 10  0.0000000  0 10G 1G10G12G21G22G23G25G26G31G32
  23725403.273   124677801.784    23725406.746    97151555.031  
  21417917.586   112551978.683    21417918.629    87702890.509  
  22719869.102   119393832.848    22719867.875    93034183.766  
  24388214.547   128160986.021    24388214.047    99865651.800  
  24061852.227   126445854.658    24061849.188    98529242.042  
  24163351.406   126979309.635    24163352.590    98944927.480  
  21258565.953   111714739.927    21258568.215    87050408.880  
  25016081.250   131460388.052    25016086.742   102436692.720  
  21052228.461   110630300.106    21052226.645    86205479.460  
  20509645.719   107779035.903    20509645.988    83983766.073  
 21  8 28  0 10 30.0000000  0 10G 1G10G12G21G22G23G25G26G31G32
  23724750.031   124674368.628    23724753.012    97148879.856  
  21432886.305   112630640.088    21432887.859    87764185.103  
  22728242.633   119437835.685    22728241.480    93068471.733  
  24392462.031   128183308.381    24392462.090    99883045.826  
  24044881.727   126356674.689    24044878.953    98459751.194  
  24184742.531   127091719.889    24184742.977    99032519.936  
  21256469.836   111703726.058    21256472.563    87041826.675  
  24994156.164   131345172.792    24994161.223   102346914.760  
  21040603.844   110569212.417    21040602.297    86157878.709  
  20509477.906   107778154.873    20509478.316    83983079.581  
 21  8 28  0 11  0.0000000  0 10G 1G10G12G21G22G23G25G26G31G32
  23724207.789   124671518.978    23724211.129    97146659.359  
  21447936.266   112709728.361    21447937.414    87825812.309  
  22736727.523   119482424.841    22736726.578    93103216.570  
  24396784.023   128206020.443    24396783.703    99900743.537  
  24027956.719   126267732.540    24027953.703    98390445.671  
  24206155.914   127204247.888    24206155.863    99120204.096  
  21254497.148   111693358.774    21254499.559    87033748.317  
  24972220.367   131229899.927    24972225.434   102257091.913  
  21029058.211   110508543.641    21029057.105    86110604.393  
  20509361.852   107777543.797    20509362.090    83982603.444  
 21  8 28  0 11 30.0000000  0 10G 1G10G12G21G22G23G25G26G31G32
  23723776.500   124669252.451    23723779.320    97144893.246  
  21463067.211   112789241.668    21463068.129    87887770.737  
  22745323.719   119527598.922    22745323.184    93138417.205  
  24401180.070   128229120.850    24401179.469    99918743.868  
  24011077.672   126179030.465    24011074.313    98321327.207  
  24227591.305   127316891.482    24227591.762    99207978.325  
  21252647.875   111683638.702    21252649.723    87026174.283  
  24950274.383   131114571.680    24950278.945   102167225.875  
  21017593.836   110448295.197    21017592.238    86063657.611  
  20509296.867   107777203.327    20509297.254    83982338.166  
 21  8 28  0 12  0.0000000  0 10G 1G10G12G21G22G23G25G26G31G32
  23723456.117   124667568.573    23723459.098    97143581.133  
  21478278.547   112869178.105    21478279.227    87950058.857  
  22754030.820   119573356.281    22754030.105    93174072.321  
  24405649.094   128252608.206    24405648.969    99937045.722  
  23994244.297   126090570.801    23994241.066    98252397.654  
  24249048.305   127429648.418    24249049.090    99295840.847  
  21250921.102   111674566.449    21250923.180    87019105.037  
  24928318.141   130999190.597    24928322.559   102077318.673  
  21006208.914   110388466.690    21006207.277    86017038.052  
  20509283.891   107777134.010    20509283.969    83982284.185  
 21  8 28  0 12 30.0000000  0 10G 1G10G12G21G22G23G25G26G31G32
  23723246.156   124666466.747    23723249.336    97142722.550  
  21493570.188   112949535.718    21493570.676    88012675.165  
  22762849.164   119619695.137    22762848.633    93210180.553  
  24410191.930   128276480.904    24410191.375    99955647.821  
  23977457.328   126002355.882    23977454.281    98183658.812  
  24270526.641   127542516.399    24270526.289    99383789.972  
  21249318.383   111666142.516    21249320.012    87012540.974  
  24906351.672   130883759.104    24906356.379   101987372.133  
  20994904.188   110329058.860    20994902.348    85970746.289  
  20509322.258   107777336.441    20509322.375    83982441.944  
 21  8 28  0 13  0.0000000  0 10G 1G10G12G21G22G23G25G26G31G32
  23723147.281   124665946.609    23723150.672    97142317.286  
  21508941.484   113030312.747    21508942.270    88075618.309  
  22771777.672   119666614.664    22771776.402    93246741.277  
  24414808.266   128300737.540    24414807.684    99974549.093  
  23960717.461   125914388.281    23960714.539    98115112.697  
  24292024.961   127655493.462    24292026.145    99471824.089  
  21247838.508   111658367.584    21247840.383    87006482.638  
  24884377.133   130768279.931    24884380.984   101897388.511  
  20983679.469   110270072.377    20983677.535    85924782.842  
  20509412.445   107777811.372    20509412.934    83982812.043  
 21  8 28  0 13 30.0000000  0 10G 1G10G12G21G22G23G25G26G31G32
  23723158.820   124666007.450    23723161.613    97142364.694  
  21524392.063   113111507.083    21524393.234    88138886.618  
  22780815.938   119714112.523    22780814.355    93283752.629  
  24419496.602   128325376.298    24419496.375    99993748.146  
  23944025.055   125826670.257    23944022.391    98046761.043  
  24313543.602   127768577.199    24313545.168    99559941.292  
  21246482.570   111651241.999    21246484.668    87000930.269  
  24862393.141   130652755.378    24862396.793   101807369.495  
  20972534.578   110211507.747    20972532.961    85879148.121  
  20509554.852   107778559.181    20509554.922    83983394.779  
 21  8 28  0 14  0.0000000  0 10G 1G10G12G21G22G23G25G26G31G32
  23723280.797   124666648.932    23723284.410    97142864.544  
  21539921.875   113193116.920    21539923.664    88202478.691  
  22789964.313   119762187.040    22789963.324    93321213.324  
  24424257.852   128350396.134    24424257.387   100013244.100  
  23927381.023   125739204.139    23927377.859    97978605.732  
  24335083.148   127881765.487    24335083.180    99648140.031  
  21245250.344   111644766.337    21245251.887    86995884.330  
  24840401.375   130537187.977    24840405.164   101717317.054  
  20961470.383   110153365.649    20961468.988    85833842.649  
  20509749.367   107779580.666    20509749.254    83984190.758  
 21  8 28  0 14 30.0000000  0 10G 1G10G12G21G22G23G25G26G31G32
  23723513.109   124667870.239    23723516.996    97143816.187  
  21555530.953   113275140.256    21555531.797    88266392.974  
  22799221.914   119810836.957    22799220.668    93359122.386  
  24429091.508   128375795.376    24429091.035   100033035.745  
  23910784.547   125651992.173    23910781.637    97910648.426  
  24356641.469   127995056.074    24356642.207    99736418.471  
  21244141.719   111638940.914    21244143.367    86991345.101  
  24818402.016   130421580.026    24818406.523   101627233.055  
  20950486.836   110095646.533    20950485.211    85788866.770  
  20509995.703   107780876.323    20509996.043    83985200.385  
 21  8 28  0 15  0.0000000  0 10G 1G10G12G21G22G23G25G26G31G32
  23723855.992   124669670.952    23723859.371    97145219.348  
  21571217.289   113357575.202    21571218.559    88330627.988  
  22808589.148   119860060.508    22808587.633    93397478.469  
  24433996.313   128401572.541    24433996.027   100053121.857  
  23894237.992   125565036.832    23894234.371    97842891.116  
  24378219.289   128108446.903    24378218.785    99824774.989  
  21243156.859   111633766.329    21243158.496    86987313.001  
  24796394.734   130305934.303    24796399.832   101537119.546  
  20939583.844   110038351.058    20939582.094    85744220.982  
  20510294.680   107782446.869    20510294.891    83986424.216  
 21  8 28  0 15 30.0000000  0 10G 1G10G12G21G22G23G25G26G31G32
  23724308.844   124672050.362    23724311.801    97147073.447  
  21586982.078   113440419.769    21586983.125    88395182.186  
  22818064.492   119909856.029    22818063.914    93436280.218  
  24438972.906   128427726.032    24438973.008   100073501.226  
  23877739.367   125478340.686    23877736.742    97775335.767  
  24399815.188   128221935.716    24399814.043    99913207.856  
  21242296.063   111629242.869    21242297.461    86983788.272  
  24774381.828   130190253.287    24774386.066   101446978.473  
  20928761.570   109981479.764    20928759.879    85699905.740  
  20510646.023   107784292.875    20510646.109    83987862.692  
 21  8 28  0 16  0.0000000  0 10G 1G10G12G21G22G23G25G26G31G32
  23724871.523   124675007.617    23724875.270    97149377.767  
  21602824.281   113523671.691    21602825.465    88460053.813  
  22827648.656   119960221.073    22827647.348    93475525.773  
  24444021.680   128454254.090    24444021.102   100094172.462  
  23861291.625   125391905.483    23861288.914    97707983.756  
  24421429.625   128335520.018    24421428.453   100001715.147  
  21241558.891   111625370.683    21241561.031    86980771.037  
  24752361.664   130074539.265    24752366.129   101356811.725  
  20918019.711   109925032.709    20918018.414    85655921.063  
  20511049.742   107786414.705    20511050.008    83989516.092  
 21  8 28  0 16 30.0000000  0 10G 1G10G12G21G22G23G25G26G31G32
  23725544.117   124678542.112    23725547.316    97152131.938  
  21618743.633   113607329.198    21618745.172    88525241.480  
  22837341.313   120011154.970    22837339.914    93515214.567  
  24449140.266   128481155.362    24449140.363   100115134.497  
  23844893.688   125305733.715    23844890.637    97640837.001  
  24443062.609   128449197.827    24443061.953   100090295.299  
  21240946.523   111622150.255    21240947.922    86978261.664  
  24730336.641   129958794.978    24730340.684   101266621.379  
  20907359.328   109869010.396    20907357.598    85612267.373  
  20511506.234   107788813.195    20511506.246    83991385.069  
 21  8 28  0 17  0.0000000  0 10G 1G10G12G21G22G23G25G26G31G32
  23726326.258   124682653.350    23726329.746    97155335.487  
  21634739.898   113691390.408    21634742.078    88590743.723  
  22847141.523   120062655.781    22847140.445    93555345.108  
  24454330.961   128508428.712    24454330.125   100136386.466  
  23828545.750   125219827.857    23828543.406    97573897.399  
  24464710.766   128562967.098    24464712.055   100178946.741  
  21240457.711   111619582.045    21240458.961    86976260.508  
  24708306.461   129843023.314    24708310.332   101176409.751  
  20896779.188   109813413.752    20896777.816    85568945.360  
  20512015.133   107791489.071    20512015.254    83993470.186  
 21  8 28  0 17 30.0000000  0 10G 1G10G12G21G22G23G25G26G31G32
  23727218.352   124687340.389    23727221.941    97158987.742  
  21650813.125   113775853.027    21650814.387    88656558.741  
  22857048.953   120114720.996    22857047.719    93595915.455  
  24459590.563   128536071.979    24459590.102   100157926.703  
  23812250.180   125134190.203    23812247.043    97507166.827  
  24486377.828   128676825.457    24486379.031   100267667.556  
  21240093.117   111617666.045    21240094.566    86974767.577  
  24686270.484   129727226.406    24686275.367   101086178.466  
  20886280.641   109758243.005    20886279.133    85525955.223  
  20512577.320   107794442.693    20512577.289    83995771.734  
 21  8 28  0 18  0.0000000  0 10G 1G10G12G21G22G23G25G26G31G32
  23728219.938   124692602.710    23728223.199    97163088.268  
  21666961.773   113860715.382    21666963.004    88722685.246  
  22867063.539   120167349.610    22867062.699    93636924.849  
  24464921.047   128564083.857    24464920.770   100179754.155  
  23796005.438   125048823.749    23796002.367    97440647.564  
  24508060.977   128790770.849    24508062.371   100356456.268  
  21239852.742   111616402.850    21239853.992    86973783.324  
  24664230.797   129611407.208    24664235.762   100995929.881  
  20875863.375   109703498.618    20875861.484    85483297.311  
  20513192.227   107797675.046    20513192.285    83998290.475  
 21  8 28  0 18 30.0000000  0 10G 1G10G12G21G22G23G25G26G31G32
  23729330.258   124698439.498    23729333.672    97167636.393  
  21683186.461   113945975.322    21683187.258    88789121.566  
  22877185.398   120220539.622    22877183.711    93678371.690  
  24470321.578   128592462.742    24470321.152   100201867.594  
  23779812.344   124963730.365    23779809.520    97374341.110  
  24529760.531   128904801.097    24529761.570   100445311.095  
  21239736.883   111615792.571    21239737.273    86973307.837  
  24642187.148   129495568.185    24642191.887   100905665.861  
  20865527.023   109649181.248    20865525.199    85440972.134  
  20513860.711   107801186.640    20513860.441    84001026.803  
 21  8 28  0 19  0.0000000  0 10G 1G10G12G21G22G23G25G26G31G32
  23730550.109   124704849.565    23730553.660    97172631.256  
  21699485.852   114031630.476    21699486.676    88855865.840  
  22887413.445   120274289.024    22887412.152    93720254.382  
  24475791.695   128621206.966    24475791.109   100224265.727  
  23763671.984   124878912.071    23763668.809    97308248.986  
  24551475.570   129018913.682    24551476.281   100534230.034  
  21239744.805   111615835.085    21239745.320    86973341.007  
  24620140.516   129379711.547    24620145.055   100815388.146  
  20855271.992   109595290.509    20855270.340    85398979.385  
  20514581.883   107804977.793    20514581.750    84003980.968  
 21  8 28  0 19 30.0000000  0 10G 1G10G12G21G22G23G25G26G31G32
  23731878.781   124711832.189    23731882.531    97178072.258  
  21715860.336   114117678.887    21715861.953    88922916.557  
  22897747.773   120328595.815    22897746.180    93762571.426  
  24481330.898   128650314.731    24481330.125   100246947.095  
  23747584.969   124794371.561    23747581.324    97242373.338  
  24573205.773   129133106.410    24573206.758   100623211.452  
  21239876.914   111616530.646    21239878.188    86973883.053  
  24598090.977   129263839.961    24598095.473   100725098.769  
  20845098.156   109541827.297    20845096.629    85357319.798  
  20515356.969   107809049.217    20515356.531    84007153.528  
 21  8 28  0 20  0.0000000  0 10G 1G10G12G21G22G23G25G26G31G32
  23733316.563   124719386.541    23733319.648    97183958.789  
  21732309.766   114204118.442    21732310.844    88990272.050  
  22908187.516   120383458.141    22908185.781    93805321.368  
  24486938.055   128679784.093    24486937.625   100269910.274  
  23731550.016   124710111.052    23731546.922    97176715.838  
  24594950.023   129247377.284    24594951.430   100712253.710  
  21240133.289   111617879.359    21240134.531    86974934.037  
  24576038.156   129147955.930    24576043.223   100634799.679  
  20835005.781   109488791.855    20835004.184    85315993.524  
  20516184.820   107813401.523    20516184.848    84010544.950  
 21  8 28  0 20 30.0000000  0 10G 1G10G12G21G22G23G25G26G31G32
  23734862.867   124727511.999    23734866.195    97190290.322  
  21748832.305   114290947.406    21748833.465    89057930.970  
  22918733.086   120438874.503    22918731.711    93848503.011  
  24492614.523   128709613.953    24492614.016   100293154.369  
  23715569.492   124626133.087    23715566.656    97111278.532  
  24616709.297   129361724.149    24616710.750   100801355.244  
  21240514.313   111619881.630    21240515.242    86976494.308  
  24553984.406   129032062.339    24553989.691   100544493.171  
  20824995.242   109436185.084    20824993.293    85275001.290  
  20517066.945   107818035.681    20517066.551    84014155.996  
 21  8 28  0 21  0.0000000  0 10G 1G10G12G21G22G23G25G26G31G32
  23736517.391   124736207.620    23736520.934    97197066.126  
  21765428.844   114378163.622    21765429.844    89125891.658  
  22929383.367   120494842.852    22929382.168    93892114.756  
  24498359.461   128739802.568    24498358.766   100316677.992  
  23699643.211   124542440.126    23699639.969    97046063.268  
  24638482.648   129476144.946    24638484.246   100890514.396  
  21241019.859   111622537.507    21241020.637    86978563.858  
  24531929.148   128916161.6301   24531934.527   100454181.207  
  20815065.969   109384007.109    20815064.203    85234343.176  
  20518002.547   107822952.242    20518002.242    84017987.113  
 21  8 28  0 21 30.0000000  0 11G 1G 3G10G12G21G22G23G25G26G31G32
  23738280.156   124745472.095    23738283.648    97204285.178  
  25196128.578   132406543.399    25196127.980   103173932.035  
  21782098.930   114465764.588    21782100.008    89194152.151  
  22940138.406   120551361.092    22940137.430    93936155.013  
  24504171.914   128770348.754    24504171.168   100340480.251  
  23683771.945   124459033.839    23683768.438    96981071.401  
  24660270.273   129590636.991    24660270.934   100979729.058  
  21241649.602   111625846.621    21241650.094    86981142.448  
  24509872.500   128800256.185    24509877.891   100363865.498  
  20805218.344   109332257.823    20805216.535    85194019.103  
  20518991.617   107828151.463    20518991.777    84022038.472  
 21  8 28  0 22  0.0000000  0 11G 1G 3G10G12G21G22G23G25G26G31G32
  23740151.398   124755304.668    23740155.180    97211946.932  
  25175760.492   132299508.966    25175760.215   103090528.723  
  21798841.680   114553748.372    21798843.016    89262710.929  
  22950997.648   120608427.032    22950995.746    93980622.043  
  24510052.383   128801249.613    24510051.816   100364558.889  
  23667955.375   124375917.131    23667952.113    96916305.163  
  24682070.594   129705198.321    24682070.418   101068997.750  
  21242403.477   111629809.191    21242404.566    86984230.207  
  24487815.766   128684348.764    24487820.879   100273548.217  
  20795452.531   109280938.016    20795450.754    85154029.691  
  20520034.906   107833634.166    20520035.023    84026310.736  
 21  8 28  0 22 30.0000000  0 11G 1G 3G10G12G21G22G23G25G26G31G32
  23742130.625   124765704.292    23742133.852    97220050.511  
  25155413.766   132192586.392    25155413.410   103007212.473  
  21815656.422   114642112.725    21815658.055    89331566.281  
  22961960.961   120666039.055    22961959.285    94025514.576  
  24516000.055   128832503.663    24515999.113   100388912.740  
  23652193.844   124293092.434    23652191.176    96851766.481  
  24703883.578   129819826.648    24703883.449   101158318.638  
  21243281.797   111634425.093    21243282.734    86987827.059  
  24465759.195   128568441.872    24465763.586   100183231.309  
  20785768.789   109230047.836    20785766.551    85114375.060  
  20521132.516   107839400.899    20521132.313    84030804.322  
 21  8 28  0 23  0.0000000  0 11G 1G 3G10G12G21G22G23G25G26G31G32
  23744217.094   124776669.763    23744220.813    97228595.051  
  25135088.477   132085778.428    25135088.441   102923985.508  
  21832543.883   114730855.481    21832545.430    89400716.472  
  22973027.383   120724194.982    22973025.664    94070830.937  
  24522014.039   128864109.358    24522013.379   100413540.596  
  23636488.664   124210561.583    23636486.090    96787456.743  
  24725708.523   129934519.724    24725708.754   101247689.912  
  21244284.492   111639694.184    21244285.543    86991932.888  
  24443703.258   128452538.048    24443709.012   100092916.841  
  20776166.031   109179587.353    20776164.137    85075055.241  
  20522283.789   107845452.167    20522283.922    84035519.614  
 21  8 28  0 23 30.0000000  0 11G 1G 3G10G12G21G22G23G25G26G31G32
  23746411.500   124788200.278    23746415.250    97237579.846  
  25114786.031   131979087.564    25114786.297   102840849.756  
  21849502.836   114819974.547    21849503.785    89470159.896  
  22984197.828   120782892.763    22984194.527    94116569.542  
  24528095.227   128896065.159    24528094.074   100438441.210  
  23620840.430   124128327.120    23620837.320    96723377.989  
  24747545.914   130049275.421    24747546.676   101337110.079  
  21245411.461   111645616.510    21245412.320    86996547.719  
  24421648.313   128336639.999    24421653.824   100002606.940  
  20766645.766   109129557.079    20766643.680    85036070.654  
  20523489.633   107851788.759    20523489.695    84040457.237  
 21  8 28  0 24  0.0000000  0 11G 1G 3G10G12G21G22G23G25G26G31G32
  23748712.938   124800294.687    23748716.598    97247004.055  
  25094505.570   131872516.407    25094506.488   102757807.330  
  21866532.477   114909467.756    21866533.875    89539894.869  
  22995469.805   120842130.539    22995468.023    94162728.901  
  24534242.609   128928369.095    24534241.465   100463613.154  
  23605248.398   124046391.575    23605245.215    96659532.135  
  24769394.992   130164091.588    24769396.391   101426577.270  
  21246662.586   111652191.955    21246663.188    87001671.481  
  24399595.117   128220750.317    24399600.434    99912303.550  
  20757207.000   109079957.273    20757205.160    84997421.499  
  20524750.102   107858411.236    20524749.895    84045617.634  
 21  8 28  0 24 30.0000000  0 11G 1G 3G10G12G21G22G23G25G26G31G32
  23751121.297   124812951.874    23751125.313    97256866.792  
  25074248.961   131766067.262    25074250.105   102674860.012  
  21883633.258   114999332.818    21883634.703    89609919.589  
  23006845.000   120901906.077    23006843.273    94209307.286  
  24540455.211   128961019.600    24540454.496   100489055.145  
  23589714.016   123964757.115    23589710.582    96595920.922  
  24791254.273   130278965.835    24791255.871   101516089.713  
  21248038.188   111659420.239    21248038.922    87007303.959  
  24377544.305   128104871.568    24377548.586    99822008.621  
  20747850.359   109030788.009    20747848.484    84959107.840  
  20526064.375   107865320.151    20526064.602    84051001.231  
 21  8 28  0 25  0.0000000  0 11G 1G 3G10G12G21G22G23G25G26G31G32
  23753636.820   124826170.669    23753640.324    97267167.120  
  25054016.039   131659742.566    25054017.461   102592009.661  
  21900804.359   115089567.517    21900805.539    89680232.342  
  23018321.500   120962217.232    23018319.695    94256303.042  
  24546734.227   128994014.576    24546733.695   100514765.540  
  23574237.031   123883425.952    23574233.898    96532546.046  
  24813124.695   130393896.027    24813126.000   101605645.797  
  21249538.078   111667301.209    21249538.820    87013445.014  
  24355495.781   127989006.338    24355499.258    99731724.217  
  20738575.609   108982049.510    20738573.691    84921129.825  
  20527433.672   107872516.094    20527433.738    84056608.481  
 21  8 28  0 25 30.0000000  0 11G 1G 3G10G12G21G22G23G25G26G31G32
  23756259.359   124839950.025    23756262.348    97277904.252  
  25033807.719   131553544.919    25033808.594   102509258.323  
  21918045.742   115180169.772    21918047.000    89750831.500  
  23029899.906   121023061.796    23029897.617    94303714.448  
  24553077.789   129027352.372    24553077.387   100540743.072  
  23558819.047   123802400.904    23558815.145    96469409.701  
  24835005.398   130508880.013    24835006.305   101695243.883  
  21251161.563   111675834.774    21251162.453    87020094.580  
  24333450.188   127873157.299    24333454.484    99641452.508  
  20729383.070   108933742.162    20729381.180    84883487.772  
  20528857.617   107879999.786    20528858.059    84062439.966  
 21  8 28  0 26  0.0000000  0 11G 1G 3G10G12G21G22G23G25G26G31G32
  23758987.469   124854288.732    23758991.082    97289077.243  
  25013624.031   131447476.493    25013624.199   102426607.588  
  21935356.523   115271137.287    21935357.684    89821715.282  
  23041579.250   121084438.009    23041577.848    94351540.134  
  24559486.344   129061031.098    24559486.414   100566986.272  
  23543458.500   123721683.866    23543455.227    96406513.340  
  24856896.367   130623915.506    24856896.957   101784882.008  
  21252909.305   111685020.591    21252910.254    87027252.388  
  24311408.227   127757327.114    24311412.086    99551195.461  
  20720272.766   108885866.350    20720270.465    84846181.988  
  20530336.930   107887771.792    20530336.992    84068496.102  
 21  8 28  0 26 30.0000000  0 11G 1G 3G10G12G21G22G23G25G26G31G32
  23761822.320   124869185.584    23761825.742    97300685.160  
  24993464.859   131341540.038    24993464.734   102344059.718  
  21952735.703   115362467.808    21952737.285    89892881.913  
  23053359.727   121146343.522    23053357.879    94399778.229  
  24565959.695   129095048.864    24565959.438   100593493.665  
  23528156.977   123641277.043    23528153.809    96343858.695  
  24878796.266   130739000.318    24878796.629   101874558.585  
  21254781.563   111694858.393    21254782.352    87034918.240  
  24289370.625   127641518.334    24289374.516    99460955.059  
  20711244.148   108838421.977    20711242.066    84809212.393  
  20531871.258   107895832.664    20531870.887    84074777.337  
 21  8 28  0 27  0.0000000  0 11G 1G 3G10G12G21G22G23G25G26G31G32
  23764763.336   124884639.394    23764766.582    97312727.060  
  24973331.297   131235738.104    24973330.863   102261616.670  
  21970184.188   115454159.200    21970185.836    89964329.737  
  23065240.172   121208776.262    23065238.113    94448427.163  
  24572497.648   129129403.933    24572497.246   100620263.880  
  23512916.125   123561182.884    23512912.527    96281447.658  
  24900704.820   130854132.169    24900704.750   101964271.809  
  21256777.977   111705347.952    21256778.719    87043091.963  
  24267337.063   127525733.607    24267341.828    99370733.449  
  20702297.711   108791409.161    20702295.746    84772579.084  
  20533459.805   107904183.142    20533459.926    84081284.233  
 21  8 28  0 27 30.0000000  0 11G 1G 3G10G12G21G22G23G25G26G31G32
  23767810.063   124900648.846    23767813.156    97325201.918  
  24953224.117   131130073.413    24953224.125   102179280.695  
  21987700.414   115546209.048    21987701.621    90036056.893  
  23077220.570   121271733.861    23077218.406    94497485.070  
  24579099.188   129164094.547    24579098.168   100647295.592  
  23497734.688   123481403.637    23497730.816    96219282.025  
  24922621.695   130969309.059    24922622.230   102054020.107  
  21258897.758   111716488.811    21258898.469    87051773.183  
  24245309.281   127409975.533    24245313.414    99280532.646  
  20693433.977   108744828.368    20693431.828    84736282.398  
  20535103.859   107912823.724    20535104.129    84088017.177  
 21  8 28  0 28  0.0000000  0 11G 1G 3G10G12G21G22G23G25G26G31G32
  23770961.742   124917212.822    23770965.324    97338108.854  
  24933142.609   131024548.093    24933142.238   102097053.256  
  22005285.125   115638615.205    22005286.188    90108061.687  
  23089300.188   121335214.682    23089297.082    94546950.688  
  24585763.969   129199118.838    24585763.211   100674587.288  
  23482613.727   123401942.107    23482609.941    96157363.963  
  24944547.555   131084528.648    24944547.336   102143801.691  
  21261141.625   111728280.770    21261142.188    87060961.762  
  24223286.086   127294246.862    24223290.145    99190354.660  
  20684651.828   108698679.756    20684650.016    84700322.486  
  20536803.797   107921755.091    20536803.707    84094976.709  
 21  8 28  0 28 30.0000000  0 11G 1G 3G10G12G21G22G23G25G26G31G32
  23774219.133   124934329.948    23774222.344    97351446.828  
  24913089.102   130919164.875    24913088.148   102014936.531  
  22022936.828   115731375.374    22022938.066    90180342.351  
  23101479.375   121399216.298    23101476.242    94596822.138  
  24592492.297   129234474.982    24592490.836   100702137.577  
  23467553.648   123322800.060    23467549.785    96095694.849  
  24966480.953   131199788.657    24966479.977   102233614.799  
  21263509.523   111740723.381    21263509.902    87070657.342  
  24201269.859   127178550.218    24201273.387    99100201.605  
  20675952.398   108652963.473    20675950.516    84664699.458  
  20538558.531   107930977.931    20538558.617    84102163.361  
 21  8 28  0 29  0.0000000  0 11G 1G 3G10G12G21G22G23G25G26G31G32
  23777581.703   124951998.982    23777584.227    97365214.871  
  24893062.820   130813926.128    24893062.301   101932932.343  
  22040655.516   115824487.321    22040656.496    90252897.095  
  23113757.250   121463736.519    23113755.227    94647097.692  
  24599282.797   129270161.135    24599281.605   100729945.029  
  23452554.500   123243980.127    23452550.836    96034276.758  
  24988421.883   131315087.003    24988421.047   102323457.741  
  21266000.766   111753816.275    21266001.301    87080859.639  
  24179259.938   127062888.212    24179263.840    99010075.558  
  20667335.609   108607679.700    20667333.207    84629413.443  
  20540369.234   107940492.697    20540368.941    84109577.474  
 21  8 28  0 29 30.0000000  0 11G 1G 3G10G12G21G22G23G25G26G31G32
  23781048.313   124970218.581    23781051.414    97379411.925  
  24873064.781   130708834.444    24873064.035   101851042.744  
  22058440.211   115917948.730    22058441.637    90325724.144  
  23126133.484   121528772.897    23126130.938    94697775.457  
  24606135.688   129306175.259    24606134.605   100758008.011  
  23437617.063   123165484.858    23437613.613    95973111.634  
  25010368.938   131430421.496    25010368.578   102413328.830  
  21268616.367   111767558.949    21268616.758    87091568.260  
  24157257.141   126947263.461    24157260.359    98919978.602  
  20658800.516   108562828.597    20658798.246    84594464.587  
  20542235.563   107950300.055    20542235.453    84117219.601  
 21  8 28  0 30  0.0000000  0 11G 1G 3G10G12G21G22G23G25G26G31G32
  23784620.188   124988987.262    23784623.492    97394036.843  
  24853094.758   130603892.373    24853094.219   101769269.654  
  22076291.383   116011757.198    22076292.711    90398821.644  
  23138606.547   121594323.177    23138605.211    94748853.645  
  24613051.773   129342515.389    24613050.453   100786325.035  
  23422741.938   123087316.396    23422738.551    95912201.163  
  25032323.406   131545789.935    25032322.762   102503226.387  
  21271354.695   111781950.918    21271355.262    87102782.795  
  24135262.234   126831678.663    24135265.102    98829912.736  
  20650347.734   108518409.957    20650345.434    84559852.690  
  20544157.508   107960400.609    20544157.520    84125090.177  
 21  8 28  0 30 30.0000000  0 11G 1G 3G10G12G21G22G23G25G26G31G32
  23788295.992   125008303.726    23788299.691    97409088.608  
  24833153.820   130499102.674    24833153.297   101687615.420  
  22094208.688   116105910.535    22094209.488    90472187.879  
  23151178.188   121660385.125    23151176.594    94800330.563  
  24620028.203   129379179.676    24620028.035   100814894.630  
  23407929.430   123009476.590    23407926.191    95851546.774  
  25054282.961   131661190.001    25054282.109   102593148.604  
  21274216.813   111796991.690    21274217.121    87114502.915  
  24113275.148   126716136.535    24113277.914    98739880.074  
  20641977.219   108474423.956    20641975.313    84525577.928  
  20546135.586   107970794.961    20546135.180    84133189.706  
 21  8 28  0 31  0.0000000  0 11G 1G 3G10G12G21G22G23G25G26G31G32
  23792075.859   125028166.397    23792079.629    97424566.002  
  24813241.906   130394467.588    24813241.523   101606081.723  
  22112190.766   116200406.184    22112191.813    90545820.852  
  23163845.656   121726956.550    23163845.297    94852204.403  
  24627066.367   129416165.860    24627065.656   100843715.057  
  23393180.484   122931967.494    23393176.828    95791150.093  
  25076247.203   131776619.397    25076247.828   102683093.578  
  21277202.398   111812680.574    21277202.422    87126728.061  
  24091296.500   126600639.383    24091299.422    98649882.464  
  20633689.711   108430870.396    20633687.285    84491640.137  
  20548169.234   107981483.522    20548169.371    84141518.492  
 21  8 28  0 31 30.0000000  0 11G 1G 3G10G12G21G22G23G25G26G31G32
  23795959.367   125048573.997    23795962.762    97440467.994  
  24793360.258   130289989.870    24793359.734   101524670.547  
  22130236.914   116295242.012    22130238.840    90619718.874  
  23176610.945   121794035.376    23176609.824    94904473.670  
  24634165.492   129453472.207    24634165.168   100872784.951  
  23378494.492   122854792.082    23378490.988    95731013.406  
  25098218.930   131892076.189    25098218.934   102773060.085  
  21280311.203   111829017.172    21280311.223    87139457.914  
  24069326.805   126485190.221    24069330.172    98559922.249  
  20625483.672   108387749.579    20625481.672    84458039.543  
  20550259.109   107992467.102    20550259.395    84150077.158  
 21  8 28  0 32  0.0000000  0 10G 1G 3G10G12G21G22G25G26G31G32
  23799946.023   125069524.913    23799949.742    97456793.381  
  24773509.133   130185671.848    24773508.813   101443383.813  
  22148347.836   116390415.531    22148349.699    90693880.043  
  23189471.016   121861618.894    23189469.594    94957136.177  
  24641325.375   129491096.625    24641324.625   100902102.650  
  23363872.031   122777952.246    23363869.238    95671138.196  
  21283542.828   111846000.767    21283543.348    87152691.919  
  24047367.055   126369791.485    24047370.832    98470001.334  
  20617360.297   108345061.795    20617358.449    84424776.380  
  20552405.742   108003746.139    20552405.648    84158866.046  
 21  8 28  0 32 30.0000000  0 10G 1G 3G10G12G21G22G25G26G31G32
  23804036.016   125091018.055    23804039.379    97473541.256  
  24753689.461   130081516.443    24753689.168   101362223.806  
  22166522.844   116485924.700    22166523.500    90768302.764  
  23202427.570   121929704.728    23202426.633    95010190.127  
  24648545.398   129529037.573    24648544.598   100931667.020  
  23349314.867   122701450.745    23349310.973    95611526.672  
  21286897.625   111863631.097    21286897.781    87166429.873  
  24025417.672   126254446.240    24025421.133    98380122.104  
  20609319.336   108302807.184    20609317.516    84391850.757  
  20554608.305   108015321.594    20554608.133    84167885.909  
 21  8 28  0 33  0.0000000  0 10G 1G 3G10G12G21G22G25G26G31G32
  23808229.250   125113051.869    23808231.988    97490710.468  
  24733900.430   129977526.180    24733900.383   101281192.420  
  22184760.758   116581767.152    22184762.008    90842985.202  
  23215478.914   121998290.844    23215477.875    95063633.926  
  24655825.000   129567293.086    24655824.688   100961476.524  
  23334821.234   122625289.669    23334817.547    95552180.385  
  21290375.406   111881907.385    21290375.840    87180671.180  
  24003478.344   126139157.035    24003481.645    98290286.529  
  20601360.961   108260985.608    20601358.949    84359262.563  
  20556867.578   108027193.960    20556867.168    84177137.143  
 21  8 28  0 33 30.0000000  0 10G 1G 3G10G12G21G22G25G26G31G32
  23812524.586   125135624.638    23812527.914    97508299.642  
  24714144.172   129873703.442    24714143.871   101200291.550  
  22203061.977   116677940.343    22203063.668    90917925.323  
  23228625.367   122067375.125    23228624.453    95117465.884  
  24663163.859   129605861.025    24663163.457   100991529.477  
  23320393.703   122549471.164    23320390.352    95493101.040  
  21293976.195   111900828.890    21293976.680    87195415.245  
  23981550.758   126023926.499    23981553.699    98200496.634  
  20593485.383   108219597.197    20593483.176    84327011.898  
  20559183.375   108039363.715    20559183.254    84186620.099  
 21  8 28  0 34  0.0000000  0 10G 1G 3G10G12G21G22G25G26G31G32
  23816922.039   125158734.850    23816925.313    97526307.599  
  24694419.578   129770050.966    24694419.016   101119523.383  
  22221425.211   116774441.880    22221426.641    90993121.323  
  23241866.266   122136954.585    23241865.191    95171683.703  
  24670562.781   129644739.224    24670562.230   101021824.147  
  23306031.305   122473997.686    23306027.973    95434290.535  
  21297699.047   111920394.863    21297699.730    87210661.493  
  23959634.336   125908757.250    23959638.023    98110754.492  
  20585691.828   108178641.601    20585689.598    84295098.497  
  20561556.211   108051831.441    20561555.594    84196335.252  
 21  8 28  0 34 30.0000000  0 10G 1G 3G10G12G21G22G25G26G31G32
  23821421.766   125182380.857    23821425.148    97544733.069  
  24674728.023   129666571.223    24674728.137   101038889.766  
  22239851.141   116871269.389    22239852.895    91068571.319  
  23255200.648   122207027.175    23255199.754    95226285.774  
  24678019.148   129683925.909    24678018.840   101052359.242  
  23291735.391   122398871.308    23291731.938    95375750.525  
  21301545.016   111940604.532    21301545.355    87226409.327  
  23937730.227   125793651.995    23937734.207    98021062.232  
  20577980.391   108138118.866    20577978.297    84263522.390  
  20563985.250   108064597.725    20563984.641    84206283.038  
 21  8 28  0 35  0.0000000  0 10G 1G 3G10G12G21G22G25G26G31G32
  23826023.477   125206561.186    23826026.730    97563574.898  
  24655070.070   129563266.977    24655069.684   100958392.920  
  22258337.953   116968420.556    22258340.094    91144273.513  
  23268628.234   122277590.566    23268626.988    95281270.282  
  24685534.781   129723418.751    24685533.773   101083132.915  
  23277505.656   122324094.334    23277502.207    95317482.788  
  21305513.367   111961457.281    21305513.664    87242658.262  
  23915839.578   125678613.490    23915843.109    97931422.007  
  20570352.031   108098029.163    20570349.402    84232283.702  
  20566471.516   108077663.205    20566471.262    84216463.966  
 21  8 28  0 35 30.0000000  0 10G 1G 3G10G12G21G22G25G26G31G32
  23830726.023   125231274.072    23830728.938    97582831.712  
  24635445.594   129460140.725    24635445.395   100878034.736  
  22276886.914   117065892.848    22276888.059    91220225.924  
  23282148.797   122348642.344    23282147.902    95336635.343  
  24693107.883   129763215.932    24693106.723   101114143.702  
  23263343.016   122249668.942    23263340.008    95259488.987  
  21309603.563   111982952.151    21309603.934    87259407.547  
  23893960.938   125563644.248    23893965.035    97841835.783  
  20562805.039   108058372.512    20562802.828    84201382.458  
  20569015.023   108091028.394    20569014.500    84226878.424  
 21  8 28  0 36  0.0000000  0 10G 1G 3G10G12G21G22G25G26G31G32
  23835529.477   125256518.096    23835532.824    97602502.405  
  24615855.055   129357195.021    24615855.711   100797817.188  
  22295495.898   117163684.003    22295496.863    91296426.822  
  23295761.625   122420179.635    23295761.160    95392378.736  
  24700738.648   129803315.408    24700737.559   101145390.073  
  23249247.516   122175597.830    23249244.574    95201771.253  
  21313816.063   112005088.493    21313816.816    87276656.700  
  23872097.273   125448747.206    23872100.402    97752305.752  
  20555341.164   108019148.606    20555338.648    84170818.422  
  20571615.500   108104693.998    20571615.164    84237526.983  
 21  8 28  0 36 30.0000000  0 10G 1G 3G10G12G21G22G25G26G31G32
  23840434.352   125282291.392    23840437.059    97622585.489  
  24596301.172   129254432.575    24596300.672   100717742.491  
  22314164.938   117261791.503    22314166.680    91372874.239  
  23309466.766   122492200.339    23309465.867    95448498.767  
  24708426.133   129843715.188    24708425.496   101176870.438  
  23235220.391   122101882.665    23235216.547    95144330.910  
  21318150.359   112027865.346    21318150.953    87294404.941  
  23850246.703   125333924.943    23850250.305    97662834.024  
  20547959.234   107980357.653    20547956.852    84140591.745  
  20574273.039   108118660.501    20574272.602    84248410.005  
 21  8 28  0 37  0.0000000  0 10G 1G 3G10G12G21G22G25G26G31G32
  23845439.305   125308592.339    23845442.383    97643079.743  
  24576781.070   129151856.108    24576781.484   100637812.741  
  22332894.234   117360212.887    22332896.191    91449566.209  
  23323263.352   122564702.133    23323262.891    95504993.698  
  24716170.977   129884413.011    24716170.004   101208583.025  
  23221261.016   122028525.971    23221257.590    95087169.880  
  21322606.000   112051281.813    21322606.809    87312651.583  
  23828411.578   125219180.096    23828415.246    97573422.644  
  20540659.672   107941999.367    20540657.535    84110702.208  
  20576988.102   108132928.451    20576987.742    84259527.917  
 21  8 28  0 37 30.0000000  0 10G 1G 3G10G12G21G22G25G26G31G32
  23850543.938   125335419.387    23850547.496    97663983.935  
  24557297.656   129049468.017    24557296.805   100558029.679  
  22351682.641   117458945.929    22351684.219    91526501.044  
  23337151.141   122637682.309    23337149.535    95561861.447  
  24723971.594   129925406.794    24723971.184   101240526.240  
  23207370.391   121955529.882    23207366.844    95030289.855  
  21327183.305   112075337.186    21327184.457    87331396.072  
  23806591.180   125104515.591    23806594.652    97484073.858  
  20533443.195   107904073.930    20533440.605    84081149.968  
  20579760.680   108147498.618    20579760.648    84270881.321  
 21  8 28  0 38  0.0000000  0 10G 1G 3G10G12G21G22G25G26G31G32
  23855749.117   125362770.651    23855752.711    97685296.640  
  24537850.344   128947270.968    24537849.484   100478395.493  
  22370529.602   117557988.038    22370530.875    91603676.702  
  23351129.578   122711138.662    23351126.840    95619100.211  
  24731828.758   129966694.661    24731827.957   101272698.588  
  23193548.688   121882896.896    23193544.777    94973692.756  
  21331882.547   112100030.397    21331883.848    87350637.579  
  23784787.250   124989933.906    23784790.137    97394789.629  
  20526308.289   107866581.162    20526305.895    84051934.857  
  20582590.633   108162371.404    20582590.797    84282470.533  
 21  8 28  0 38 30.0000000  0  9G 1G10G12G21G22G25G26G31G32
  23861053.055   125390644.492    23861056.801    97707016.512  
  22389434.930   117657336.825    22389436.230    91681091.354  
  23365197.438   122785068.566    23365194.129    95676707.981  
  24739741.234   130008274.640    24739740.281   101305098.592  
  23179796.492   121810628.901    23179792.645    94917380.071  
  21336702.563   112125360.521    21336703.949    87370375.399  
  23762999.813   124875437.917    23763002.438    97305572.140  
  20519255.945   107829520.658    20519253.461    84023056.580  
  20585478.664   108177547.506    20585478.578    84294296.087  
 21  8 28  0 39  0.0000000  0  9G 1G10G12G21G22G25G26G31G32
  23866456.516   125419038.954    23866460.027    97729142.096  
  22408397.906   117756989.646    22408400.332    91758742.916  
  23379355.516   122859469.359    23379352.832    95734682.699  
  24747708.852   130050144.129    24747707.387   101337724.211  
  23166113.898   121738728.195    23166110.332    94861353.595  
  21341643.586   112151326.493    21341644.996    87390608.651  
  23741228.148   124761030.118    23741231.258    97216423.399  
  20512285.688   107792892.331    20512283.191    83994515.067  
  20588425.070   108193027.308    20588424.102    84306358.288  
 21  8 28  0 39 30.0000000  0  9G 1G10G12G21G22G25G26G31G32
  23871958.461   125447952.278    23871961.699    97751671.970  
  22427418.523   117856944.167    22427421.023    91836629.528  
  23393602.578   122934338.658    23393600.133    95793022.480  
  24755730.570   130092301.368    24755730.336   101370573.979  
  23152502.461   121667196.858    23152498.277    94805614.930  
  21346705.984   112177927.258    21346706.754    87411336.574  
  23719473.750   124646713.210    23719476.730    97127345.402  
  20505397.516   107756696.248    20505395.484    83966310.362  
  20591428.367   108208811.419    20591428.090    84318657.618  
 21  8 28  0 40  0.0000000  0  9G 1G10G12G21G22G25G26G31G32
  23877558.914   125477382.698    23877562.051    97774604.767  
  22446496.219   117957197.861    22446498.168    91914749.309  
  23407938.648   123009673.634    23407934.855    95851725.119  
  24763807.023   130134744.393    24763806.824   101403646.464  
  23138961.188   121596037.270    23138956.973    94750165.935  
  21351888.375   112205161.895    21351888.902    87432558.408  
  23697737.828   124532489.992    23697741.293    97038340.483  
  20498592.039   107720932.179    20498589.707    83938442.296  
  20594489.703   108224900.474    20594489.465    84331194.574  
 21  8 28  0 40 30.0000000  0 10G 1G 3G10G12G21G22G25G26G31G32
  23883257.703   125507328.589    23883260.527    97797939.262  
  24441177.094   128439187.8291   24441176.414   100082538.7781 
  22465630.906   118057748.501    22465632.336    91993100.464  
  23422361.977   123085471.978    23422358.480    95910788.824  
  24771938.359   130177470.992    24771937.598   101436939.888  
  23125490.891   121525251.733    23125486.938    94695008.420  
  21357190.898   112233029.487    21357191.887    87454273.471  
  23676020.492   124418363.394    23676023.727    96949410.814  
  20491868.773   107685599.974    20491866.137    83910910.765  
  20597609.375   108241295.233    20597609.535    84343969.720  
 21  8 28  0 41  0.0000000  0 10G 1G 3G10G12G21G22G25G26G31G32
  23889053.578   125537788.233    23889056.910    97821674.040  
  24421957.953   128338193.194    24421957.414   100003841.582  
