     2.11           OBSERVATION DATA    M (MIXED)           RINEX VERSION / TYPE
CONVBIN 2.4.3                           20210831 031206 UTC PGM / RUN BY / DATE 
log: ngs/tn312420.21o                                       COMMENT             
format: RINEX                                               COMMENT             
TN31                                                        MARKER NAME         
                                                            MARKER NUMBER       
                                                            OBSERVER / AGENCY   
401-01146           TPS NETG3           5.2.2 Dec,06,2018   REC # / TYPE / VERS 
374-0201            TPSG3_A1        NONE                    ANT # / TYPE        
   281409.8070 -5147273.9010  3743529.0020                  APPROX POSITION XYZ 
        0.0000        0.0000        0.0000                  ANTENNA: DELTA H/E/N
     1     1                                                WAVELENGTH FACT L1/2
     5    C1    L1    P1    P2    L2                        # / TYPES OF OBSERV 
    30.000                                                  INTERVAL            
  2021     8    30     0     0    0.0000000     GPS         TIME OF FIRST OBS   
  2021     8    30    18    59   30.0000000     GPS         TIME OF LAST OBS    
                                                            END OF HEADER       
 21  8 30  0  0  0.0000000  0 18R14R20R 4G22R16G32G26G 1R 5G12R21G31
                                G25G23R 6G10R15G21
  21017921.183   112037466.642    21017921.313    21017921.055    87140278.134  
  23466337.227   125485045.378    23466335.304    23466339.371    97599496.350  
  20849010.058   111645570.218    20849010.444    20849009.147    86835468.213  
  23842145.145   125291345.797    23842144.833    23842146.557    97629620.288  
  22933489.304   122506612.689    22933490.080    22933490.287    95282989.858  
  20989118.709   110298645.313    20989118.865    20989123.509    85947062.101  
  24713446.315   129870089.364    24713445.887    24713454.411   101197493.124  
  23268858.393   122278693.875    23268859.074    23268864.437    95282109.150  
  20159175.143   107762425.579    20159175.778    20159174.595    83815259.464  
  23820608.933   125178219.054    23820608.786    23820612.011    97541498.236  
  23506500.409   125788041.515    23506501.002    23506500.174    97835161.768  
  20633648.496   108430661.364    20633648.103    20633650.542    84491481.467  
  22210305.716   116715998.850    22210304.948    22210311.882    90947575.492  
  24476005.499   128622264.107    24476005.301    24476010.587   100225147.555  
  23930434.118   127697415.574    23930437.488                                  
  21606946.030   113545320.950    21606945.862    21606951.329    88476908.985  
  19641114.448   104956257.079    19641115.044    19641113.860    81632710.765  
  23655429.528   124310141.474    23655428.196    23655430.791    96865037.707  
 21  8 30  0  0 30.0000000  0 17R14R 4G22R16G32G26G 1R 5G12R21G31G25
                                G23R 6G10R15G21
  21029798.664   112100781.431    21029799.084    21029799.001    87189522.946  
  20854224.863   111673495.653    20854225.434    20854223.991    86857187.979  
  23822078.636   125185895.306    23822077.995    23822079.545    97547451.113  
  22905766.489   122358519.493    22905766.278    22905767.229    95167806.391  
  20989427.959   110300270.011    20989428.178    20989432.801    85948328.091  
  24689855.902   129746116.796    24689856.313    24689865.030   101100891.220  
  23261706.713   122241109.235    23261706.750    23261711.996    95252822.418  
  20148221.627   107703871.864    20148222.138    20148221.035    83769717.688  
  23825415.493   125203476.208    23825415.129    23825418.027    97561179.129  
  23506108.449   125785944.633    23506109.492    23506108.781    97833530.853  
  20621735.496   108368057.861    20621735.176    20621737.476    84442699.525  
  22206173.279   116694282.946    22206173.252    22206179.523    90930654.023  
  24493237.153   128712816.052    24493237.554    24493242.361   100295707.452  
  23909341.817   127584838.726    23909341.310                                  
  21617761.570   113602155.461    21617761.355    21617766.460    88521195.595  
  19630034.437   104897049.611    19630035.031    19630033.769    81586660.532  
  23654017.641   124302723.140    23654016.247    23654018.764    96859257.177  
 21  8 30  0  1  0.0000000  0 17R14R 4G22R16G32G26G 1R 5G12R21G31G25
                                G23R 6G10R15G21
  21041788.323   112164692.033    21041788.604    21041788.374    87239231.163  
  20859503.911   111701764.752    20859504.633    20859503.006    86879175.039  
  23802044.389   125080616.415    23802044.048    23802044.984    97465415.657  
  22878077.122   122210609.138    22878077.556    22878077.845    95052765.082  
  20989773.913   110302088.202    20989774.134    20989778.599    85949744.851  
  24666252.639   129622080.844    24666253.229    24666261.626   101004239.927  
  23254665.695   122204110.357    23254665.427    23254671.266    95223992.134  
  20137315.309   107645571.401    20137315.811    20137314.615    83724372.887  
  23830328.951   125229297.429    23830328.930    23830331.796    97581299.575  
  23505849.330   125784559.502    23505850.260    23505849.555    97832453.541  
  20609918.819   108305961.144    20609918.626    20609920.727    84394312.481  
  22202157.954   116673181.690    22202157.362    22202164.373    90914211.491  
  24510497.050   128803516.744    24510496.541    24510502.270   100366383.284  
  23888226.062   127472166.546    23888225.940                                  
  21628655.247   113659403.519    21628655.424    21628660.441    88565804.455  
  19619098.537   104838610.874    19619099.018    19619097.928    81541208.197  
  23652689.483   124295740.208    23652687.264    23652691.469    96853815.918  
 21  8 30  0  1 30.0000000  0 17R14R 4G22R16G32G26G 1R 5G12R21G31G25
                                G23R 6G10R15G21
  21053888.775   112229195.988    21053889.199    21053888.999    87289400.871  
  20864847.859   111730379.406    20864848.284    20864846.754    86901430.864  
  23782044.232   124975512.544    23782043.888    23782045.463    97383516.572  
  22850422.370   122062886.244    22850423.781    22850423.915    94937869.590  
  20990157.011   110304101.075    20990157.165    20990161.704    85951313.322  
  24642638.186   129497985.239    24642638.955    24642645.246   100907542.138  
  23247736.743   122167698.783    23247736.327    23247743.433    95195619.491  
  20126457.257   107587527.238    20126457.443    20126456.342    83679227.428  
  23835349.869   125255682.731    23835349.446    23835352.938    97601859.541  
  23505723.624   125783886.038    23505724.375    23505724.486    97831929.711  
  20598199.016   108244372.647    20598198.727    20598200.879    84346321.465  
  22198260.011   116652696.966    22198258.870    22198266.457    90898249.382  
  24527784.929   128894365.579    24527783.855    24527789.756   100437174.547  
  23867092.388   127359400.486    23867093.142                                  
  21639627.832   113717064.975    21639627.713    21639632.936    88610735.449  
  19608306.783   104780943.341    19608307.407    19608306.182    81496355.682  
  23651443.173   124289193.124    23651441.914    23651444.712    96848714.280  
 21  8 30  0  2  0.0000000  0 17R14R 4G22R16G32G26G 1R 5G12R21G31G25
                                G23R 6G10R15G21
  21066101.274   112294294.649    21066101.525    21066101.746    87340033.140  
  20870256.760   111759345.464    20870257.321    20870255.745    86923960.004  
  23762077.817   124870590.902    23762077.975    23762079.472    97301759.460  
  22822805.491   121915359.465    22822805.697    22822806.434    94823126.621  
  20990578.024   110306313.856    20990578.271    20990582.698    85953037.561  
  24619013.771   129373837.658    24619013.094    24619021.281   100810803.800  
  23240920.762   122131880.016    23240920.638    23240927.393    95167708.767  
  20115647.790   107529747.191    20115648.341    20115647.265    83634287.394  
  23840478.874   125282635.613    23840478.829    23840481.675    97622861.778  
  23505732.471   125783928.002    23505733.141    23505732.577    97831962.317  
  20586576.740   108183297.982    20586576.473    20586578.718    84298730.835  
  22194480.326   116632834.624    22194479.715    22194486.020    90882772.256  
  24545101.900   128985365.812    24545101.045    24545106.594   100508083.796  
  23845945.060   127246548.298    23845945.627                                  
  21650679.929   113775143.759    21650679.577    21650684.958    88655991.624  
  19597660.818   104724053.961    19597661.373    19597660.194    81452108.398  
  23650280.951   124283086.200    23650279.171    23650281.799    96843955.648  
 21  8 30  0  2 30.0000000  0 17R14R 4G22R16G32G26G 1R 5G12R21G31G25
                                G23R 6G10R15G21
  21078424.016   112359981.943    21078424.170    21078424.569    87391123.236  
  20875731.526   111788661.134    20875731.883    20875730.170    86946761.060  
  23742146.512   124765851.045    23742146.485    23742147.871    97220144.022  
  22795224.732   121768030.361    22795225.572    22795225.800    94708537.387  
  20991036.510   110308724.100    20991036.855    20991041.265    85954915.673  
  24595379.656   129249638.171    24595379.751    24595388.199   100714025.049  
  23234217.370   122096651.747    23234216.143    23234223.789    95140258.180  
  20104888.105   107472230.257    20104888.616    20104887.816    83589552.007  
  23845715.387   125310152.363    23845715.273    23845717.454    97644303.403  
  23505872.417   125784680.927    23505873.938    23505873.580    97832547.911  
  20575051.765   108122734.910    20575051.612    20575053.977    84251538.853  
  22190818.633   116613592.760    22190818.226    22190823.851    90867778.607  
  24562446.571   129076513.073    24562446.691    24562451.355   100579107.576  
  23824780.155   127133610.594    23824780.563                                  
  21661810.705   113833635.993    21661810.374    21661815.861    88701569.965  
  19587160.233   104667941.577    19587160.748    19587159.543    81408465.443  
  23649202.090   124277415.688    23649200.467    23649203.559    96839537.047  
 21  8 30  0  3  0.0000000  0 17R14R 4G22R16G32G26G 1R 5G12R21G31G25
                                G23R 6G10R15G21
  21090856.844   112426255.743    21090857.193    21090857.382    87442669.509  
  20881271.885   111818328.773    20881272.278    20881270.413    86969835.873  
  23722250.341   124661296.998    23722250.591    23722251.925    97138673.382  
  22767682.397   121620904.087    22767682.689    22767682.794    94594105.934  
  20991533.328   110311333.617    20991533.465    20991537.939    85956949.056  
  24571735.812   129125391.105    24571735.889    24571745.197   100617209.224  
  23227626.664   122062015.966    23227626.355    23227632.178    95113269.253  
  20094178.418   107414980.255    20094178.923    20094177.872    83545024.227  
  23851059.119   125338233.597    23851058.955    23851061.703    97666184.881  
  23506146.361   125786145.150    23506147.635    23506147.552    97833686.726  
  20563624.973   108062685.844    20563624.765    20563626.921    84204747.391  
  22187275.717   116594973.811    22187274.684    22187281.483    90853270.348  
  24579819.222   129167807.305    24579818.450    24579824.966   100650245.861  
  23803599.285   127020583.712    23803599.603                                  
  21673020.145   113892542.130    21673020.071    21673025.203    88747470.828  
  19576805.544   104612609.229    19576806.118    19576804.829    81365429.181  
  23648206.284   124272182.546    23648204.610    23648206.667    96835459.259  
 21  8 30  0  3 30.0000000  0 17R14R 4G22R16G32G26G 1R 5G12R21G31G25
                                G23R 6G10R15G21
  21103398.296   112493107.677    21103398.552    21103398.547    87494665.430  
  20886877.110   111848344.098    20886877.486    20886875.627    86993181.106  
  23702389.263   124556926.115    23702389.085    23702391.112    97057345.434  
  22740177.305   121473979.663    22740177.966    22740178.990    94479831.481  
  20992066.917   110314137.826    20992067.103    20992071.613    85959134.153  
  24548083.315   129001094.434    24548081.812    24548091.522   100520354.782  
  23221147.416   122027968.262    23221147.147    23221153.656    95086738.585  
  20083518.322   107357994.877    20083518.708    20083517.526    83500702.271  
  23856508.849   125366873.114    23856508.011    23856511.954    97688501.392  
  23506552.405   125788314.225    23506553.130    23506552.279    97835373.776  
  20552294.988   108003146.354    20552294.519    20552296.831    84158353.001  
  22183850.298   116576973.640    22183850.122    22183856.037    90839244.261  
  24597217.517   129259241.992    24597215.947    24597222.951   100721493.534  
  23782400.473   126907466.955    23782401.585                                  
  21684307.349   113951856.167    21684306.992    21684312.399    88793689.535  
  19566596.234   104558053.669    19566596.710    19566595.604    81322997.091  
  23647293.003   124267381.149    23647290.843    23647294.783    96831717.909  
 21  8 30  0  4  0.0000000  0 18R14R 4G22R16G 3G32G26G 1R 5G12R21G31
                                G25G23R 6G10R15G21
  21116047.742   112560536.062    21116048.032    21116048.085    87547109.703  
  20892547.667   111878710.158    20892547.918    20892546.238    87016799.135  
  23682564.054   124452742.534    23682563.689    23682565.328    96976163.459  
  22712711.984   121327263.068    22712712.350    22712712.619    94365718.656  
  25327322.950   133095977.452    25327322.379    25327328.533   103711165.912  
  20992637.973   110317138.829    20992638.170    20992642.705    85961472.594  
  24524420.685   128876752.783    24524420.158    24524430.533   100423465.273  
  23214780.789   121994510.942    23214779.965    23214786.253    95060667.943  
  20072908.159   107301277.634    20072908.470    20072907.319    83456588.867  
  23862064.885   125396072.029    23862064.595    23862068.159    97711253.783  
  23507089.952   125791188.557    23507089.672    23507089.029    97837609.375  
  20541062.182   107944118.691    20541061.895    20541064.351    84112357.438  
  22180543.439   116559594.946    22180542.826    22180548.707    90825702.426  
  24614644.918   129350817.347    24614644.715    24614651.324   100792850.803  
  23761186.749   126794263.712    23761187.514                                  
  21695672.138   114011578.853    21695671.989    21695677.730    88840226.667  
  19556532.917   104504278.351    19556533.524    19556532.476    81281171.849  
  23646460.986   124263012.454    23646459.368    23646463.138    96828313.719  
 21  8 30  0  4 30.0000000  0 18R14R 4G22R16G 3G32G26G 1R 5G12R21G31
                                G25G23R 6G10R15G21
  21128804.668   112628538.516    21128804.990    21128804.942    87600000.488  
  20898283.974   111909428.662    20898284.214    20898282.599    87040691.291  
  23662774.901   124348750.175    23662774.049    23662776.713    96895130.473  
  22685286.022   121180758.705    22685287.207    22685286.976    94251770.869  
  25304292.769   132974959.783    25304293.153    25304300.719   103616866.502  
  20993246.841   110320338.170    20993246.880    20993251.426    85963965.587  
  24500751.572   128752370.200    24500749.525    24500760.650   100326543.973  
  23208526.523   121961645.519    23208525.654    23208532.048    95035058.527  
  20062348.967   107244832.424    20062349.189    20062347.953    83412687.042  
  23867727.522   125425830.303    23867727.413    23867730.997    97734442.033  
  23507757.122   125794767.837    23507758.257    23507758.176    97840393.267  
  20529927.461   107885604.849    20529927.183    20529929.584    84066762.258  
  22177354.793   116542839.663    22177354.064    22177360.872    90812646.387  
  24632098.621   129442533.021    24632097.976    24632102.596   100864317.447  
  23739957.733   126680975.344    23739956.091                                  
  21707114.751   114071710.218    21707114.679    21707120.030    88887082.251  
  19546616.026   104451285.859    19546616.598    19546615.514    81239955.479  
  23645712.642   124259077.003    23645711.019    23645713.870    96825247.095  
 21  8 30  0  5  0.0000000  0 18R14R 4G22R16G 3G32G26G 1R 5G12R21G31
                                G25G23R 6G10R15G21
  21141668.305   112697107.601    21141668.610    21141668.364    87653331.975  
  20904085.646   111940496.636    20904085.975    20904084.339    87064855.256  
  23643021.488   124244947.600    23643021.932    23643023.317    96814245.403  
  22657900.441   121034467.308    22657900.808    22657901.093    94137988.692  
  25281268.125   132853961.866    25281268.239    25281275.727   103522582.437  
  20993892.613   110323732.280    20993892.746    20993897.413    85966610.347  
  24477075.114   128627945.686    24477075.235    24477083.032   100229589.961  
  23202384.311   121929368.560    23202383.852    23202390.115    95009907.646  
  20051840.211   107188657.494    20051840.558    20051839.492    83368995.446  
  23873496.060   125456142.807    23873495.496    23873498.555    97758062.182  
  23508556.872   125799046.508    23508557.403    23508558.293    97843721.089  
  20518889.800   107827601.633    20518889.439    20518891.815    84021564.966  
  22174284.475   116526704.628    22174283.493    22174290.026    90800073.653  
  24649577.433   129534383.318    24649576.971    24649582.040   100935889.018  
  23718709.454   126567600.066    23718710.563                                  
  21718634.323   114132245.264    21718634.031    21718639.626    88934252.389  
  19536845.142   104399073.688    19536845.624    19536844.730    81199346.025  
  23645045.125   124255569.861    23645042.920    23645046.748    96822514.237  
 21  8 30  0  5 30.0000000  0 18R14R 4G22R16G 3G32G26G 1R 5G12R21G31
                                G25G23R 6G10R15G21
  21154637.916   112766244.379    21154638.257    21154638.467    87707105.008  
  20909953.891   111971919.863    20909954.217    20909952.222    87089295.527  
  23623306.273   124141341.625    23623305.780    23623307.752    96733513.489  
  22630555.281   120888396.736    22630556.157    22630556.499    94024378.311  
  25258248.036   132732990.670    25258249.152    25258253.781   103428319.199  
  20994576.640   110327326.234    20994576.685    20994581.473    85969410.828  
  24453391.310   128503486.988    24453391.928    24453399.104   100132609.238  
  23196355.132   121897685.137    23196355.089    23196361.335    94985219.275  
  20041383.539   107132759.944    20041383.807    20041382.758    83325519.577  
  23879370.737   125487013.058    23879370.309    23879373.571    97782116.910  
  23509487.349   125804027.964    23509488.070    23509487.988    97847595.568  
  20507950.182   107770113.988    20507949.893    20507952.174    83976769.415  
  22171333.000   116511195.364    22171332.466    22171339.007    90787988.528  
  24667082.305   129626371.399    24667081.461    24667086.569   101007567.983  
  23697446.324   126454143.286    23697448.170                                  
  21730231.092   114193187.583    21730231.072    21730236.865    88981739.877  
  19527221.545   104347648.103    19527221.992    19527221.196    81159348.360  
  23644459.960   124252495.098    23644458.456    23644461.257    96820118.304  
 21  8 30  0  6  0.0000000  0 18R14R 4G22R16G 3G32G26G 1R 5G12R21G31
                                G25G23R 6G10R15G21
  21167713.865   112835944.955    21167714.057    21167714.018    87761316.547  
  20915888.457   112003698.372    20915888.728    20915887.122    87114012.128  
  23603628.901   124037934.182    23603627.090    23603629.791    96652936.298  
  22603252.782   120742551.076    22603253.477    22603252.834    93910942.860  
  25235233.827   132612047.813    25235233.528    25235240.073   103334078.023  
  20995298.542   110331119.734    20995298.659    20995303.154    85972366.803  
  24429702.080   128378996.234    24429702.317    24429709.589   100035603.539  
  23190438.694   121866595.026    23190438.605    23190445.019    94960993.194  
  20030978.836   107077141.571    20030979.323    20030977.937    83282260.854  
  23885350.853   125518439.529    23885350.508    23885354.087    97806605.079  
  23510550.252   125809709.758    23510550.877    23510550.388    97852014.702  
  20497108.884   107713141.918    20497108.715    20497110.776    83932375.612  
  22168500.594   116496311.944    22168500.064    22168506.504    90776391.069  
  24684612.854   129718495.072    24684612.454    24684616.532   101079352.601  
  23676171.154   126340606.474    23676171.632                                  
  21741905.455   114254535.383    21741905.228    21741910.834    89029543.335  
  19517745.221   104297009.878    19517745.791    19517744.870    81119963.084  
  23643957.065   124249851.323    23643955.117    23643958.232    96818058.186  
 21  8 30  0  6 30.0000000  0 18R14R 4G22R16G 3G32G26G 1R 5G12R21G31
                                G25G23R 6G10R15G21
  21180894.267   112906204.800    21180894.549    21180894.495    87815963.065  
  20921888.847   112035832.294    20921889.298    20921887.685    87139005.175  
  23583988.588   123934726.610    23583988.647    23583989.876    96572514.843  
  22575993.574   120596933.147    22575993.263    22575993.497    93797684.555  
  25212224.501   132491134.629    25212226.405    25212229.883   103239860.029  
  20996058.285   110335112.360    20996058.294    20996063.219    85975477.939  
  24406006.036   128254475.603    24406006.362    24406012.680    99938574.538  
  23184635.315   121836097.769    23184634.380    23184642.417    94937229.114  
  20020626.663   107021803.499    20020627.091    20020625.988    83239220.146  
  23891436.172   125550419.549    23891435.298    23891439.456    97831524.566  
  23511741.773   125816089.580    23511743.156    23511742.621    97856976.802  
  20486365.504   107656685.468    20486365.342    20486367.503    83888383.589  
  22165787.707   116482054.256    22165786.845    22165793.505    90765281.197  
  24702168.350   129810752.001    24702168.337    24702173.006   101151241.057  
  23654879.358   126226989.043    23654880.496                                  
  21753656.464   114316286.754    21753656.072    21753661.737    89077661.255  
  19508416.462   104247159.759    19508416.822    19508416.373    81081190.786  
  23643535.794   124247637.040    23643534.254    23643537.209    96816332.740  
 21  8 30  0  7  0.0000000  0 18R14R 4G22R16G 3G32G26G 1R 5G12R21G31
                                G25G23R 6G10R15G21
  21194178.905   112977018.460    21194178.991    21194179.121    87871040.345  
  20927955.422   112068320.477    20927955.864    20927954.764    87164273.760  
  23564387.081   123831719.767    23564385.954    23564388.411    96492249.798  
  22548775.099   120451544.771    22548775.670    22548776.282    93684604.826  
  25189220.942   132370251.589    25189221.526    25189227.685   103145665.443  
  20996855.563   110339302.521    20996855.712    20996860.284    85978742.995  
  24382304.850   128129926.013    24382303.433    24382309.802    99841522.898  
  23178944.303   121806191.665    23178944.298    23178950.862    94913925.644  
  20010327.004   106966746.557    20010327.511    20010326.284    83196398.092  
  23897627.240   125582950.737    23897626.750    23897630.053    97856873.544  
  23513063.627   125823163.995    23513064.732    23513064.239    97862479.113  
  20475719.996   107600742.698    20475719.693    20475721.844    83844791.836  
  22163193.122   116468421.053    22163192.604    22163199.645    90754657.914  
  24719748.693   129903138.480    24719748.377    24719755.129   101223230.471  
  23633573.207   126113290.784    23633573.585                                  
  21765483.467   114378438.557    21765483.125    21765488.914    89126091.211  
  19499235.019   104198096.815    19499235.405    19499234.910    81043030.730  
  23643195.367   124245849.238    23643193.617    23643197.009    96814939.609  
 21  8 30  0  7 30.0000000  0 18R14R 4G22R16G 3G32G26G 1R 5G12R21G31
                                G25G23R 6G10R15G21
  21207565.797   113048379.537    21207566.029    21207566.328    87926543.393  
  20934088.585   112101161.344    20934088.861    20934087.732    87189816.635  
  23544824.017   123728913.638    23544823.102    23544825.207    96412141.165  
  22521601.700   120306387.572    22521602.233    22521601.392    93571704.873  
  25166223.476   132249398.247    25166223.770    25166229.664   103051494.055  
  20997690.215   110343688.106    20997690.164    20997694.899    85982160.337  
  24358598.679   128005347.909    24358598.619    24358606.026    99744449.086  
  23173365.497   121776874.573    23173365.674    23173371.244    94891081.151  
  20000080.019   106911970.369    20000080.482    20000079.385    83153794.397  
  23903921.389   125616028.944    23903920.929    23903924.673    97882648.776  
  23514516.235   125830928.422    23514516.422    23514515.064    97868518.116  
  20465171.874   107545311.832    20465171.730    20465173.759    83801598.970  
  22160717.511   116455410.427    22160717.240    22160723.313    90744519.764  
  24737353.051   129995650.572    24737352.773    24737357.945   101295317.749  
  23612249.806   125999511.437    23612250.167                                  
  21777386.007   114440987.117    21777385.799    21777391.299    89174830.323  
  19490200.153   104149819.979    19490200.939    19490200.341    81005482.091  
  23642935.850   124244484.713    23642934.108    23642937.055    96813876.314  
 21  8 30  0  8  0.0000000  0 18R14R 4G22R16G 3G32G26G 1R 5G12R21G31
                                G25G23R 6G10R15G21
  21221055.275   113120284.974    21221055.274    21221055.568    87982469.820  
  20940287.439   112134355.722    20940287.725    20940286.398    87215634.465  
  23525298.861   123626311.009    23525298.951    23525300.710    96332191.086  
  22494472.143   120161465.803    22494472.612    22494472.675    93458988.022  
  25143231.848   132128577.144    25143230.582    25143238.689   102957347.776  
  20998561.983   110348269.722    20998561.978    20998566.837    85985730.431  
  24334887.774   127880744.483    24334887.293    24334893.990    99647355.564  
  23167899.034   121748146.945    23167899.011    23167904.900    94868695.968  
  19989886.150   106857477.516    19989886.470    19989885.263    83111411.069  
  23910320.364   125649653.526    23910319.827    23910323.653    97908849.725  
  23516094.795   125839381.476    23516095.780    23516095.198    97875092.714  
  20454721.211   107490393.522    20454720.937    20454723.244    83758805.495  
  22158360.037   116443023.249    22158358.842    22158366.206    90734867.423  
  24754981.155   130088286.890    24754979.283    24754983.215   101367501.921  
  23590913.295   125885650.614    23590913.097                                  
  21789363.992   114503931.493    21789363.850    21789369.130    89223877.858  
  19481313.433   104102330.695    19481313.897    19481313.360    80968545.998  
  23642756.493   124243542.851    23642755.025    23642758.718    96813142.373  
 21  8 30  0  8 30.0000000  0 18R14R 4G22R16G 3G32G26G 1R 5G12R21G31
                                G25G23R 6G10R15G21
  21234646.288   113192733.856    21234646.641    21234646.533    88038818.947  
  20946552.888   112167907.098    20946553.312    20946551.850    87241729.960  
  23505813.829   123523916.838    23505813.162    23505815.597    96252403.457  
  22467387.790   120016785.907    22467388.196    22467388.180    93346459.281  
  25120247.494   132007793.197    25120247.420    25120254.632   102863230.425  
  20999471.638   110353050.458    20999471.681    20999476.635    85989455.676  
  24311172.235   127756121.307    24311171.935    24311179.602    99550246.688  
  23162544.814   121720011.737    23162545.539    23162550.306    94846772.425  
  19979746.117   106803273.124    19979746.496    19979745.264    83069252.108  
  23916823.190   125683825.701    23916822.653    23916826.078    97935477.371  
  23517803.801   125848524.089    23517804.381    23517803.654    97882203.625  
  20444368.744   107435990.956    20444368.513    20444370.757    83716413.899  
  22156121.984   116431262.765    22156122.043    22156128.155    90725703.420  
  24772632.373   130181048.497    24772633.800    24772637.405   101439783.581  
  23569561.570   125771713.414    23569560.407                                  
  21801417.567   114567273.203    21801417.263    21801422.759    89273235.021  
  19472574.408   104055632.962    19472575.066    19472574.730    80932225.550  
  23642658.447   124243025.392    23642656.194    23642659.908    96812739.126  
 21  8 30  0  9  0.0000000  0 19R14R20R 4G22R16G 3G32G26G 1R 5G12R21
                                G31G25G23R 6G10R15G21
  21248339.164   113265723.017    21248339.301    21248339.535    88095588.267  
  23747191.873   126986884.455    23747191.890    23747194.504    98767618.300  
  20952885.501   112201816.882    20952885.604    20952884.397    87268104.217  
  23486369.104   123421734.174    23486368.870    23486370.727    96172780.631  
  22440349.643   119872352.360    22440350.300    22440349.756    93234122.143  
  25097270.707   131887049.253    25097270.919    25097279.008   102769144.295  
  21000419.497   110358031.165    21000419.423    21000424.438    85993336.738  
  24287452.972   127631481.842    24287453.476    24287460.884    99453125.159  
  23157303.776   121692469.674    23157304.118    23157309.482    94825311.064  
  19969660.407   106749359.954    19969660.984    19969659.644    83027319.653  
  23923429.871   125718544.429    23923429.495    23923432.395    97962530.903  
  23519640.989   125858354.781    23519641.428    23519641.471    97889849.723  
  20434114.553   107382105.021    20434114.238    20434116.493    83674424.870  
  22154003.450   116420130.081    22154003.432    22154009.624    90717028.610  
  24790309.233   130273934.235    24790309.158    24790313.658   101512161.937  
  23548196.312   125657701.253    23548195.786                                  
  21813546.545   114631011.505    21813546.071    21813551.447    89322901.208  
  19463983.978   104009728.401    19463984.619    19463984.222    80896522.022  
  23642640.613   124242931.752    23642639.030    23642641.499    96812666.148  
 21  8 30  0  9 30.0000000  0 19R14R20R 4G22R16G 3G32G26G 1R 5G12R21
                                G31G25G23R 6G10R15G21
  21262131.710   113339244.401    21262131.629    21262131.673    88152771.548  
  23763167.709   127072319.287    23763167.849    23763170.786    98834067.561  
  20959283.706   112236081.579    20959284.409    20959283.061    87294754.519  
  23466964.417   123319761.076    23466963.957    23466965.668    96093321.111  
  22413357.311   119728164.117    22413357.762    22413357.300    93121975.805  
  25074300.697   131766343.258    25074301.065    25074308.749   102675087.732  
  21001404.759   110363207.938    21001404.737    21001409.546    85997370.575  
  24263731.814   127506824.652    24263731.765    24263741.069    99355989.880  
  23152174.800   121665516.575    23152174.301    23152181.465    94804308.657  
  19959629.049   106695736.225    19959629.494    19959628.103    82985612.316  
  23930139.399   125753804.820    23930138.599    23930141.824    97990006.544  
  23521605.222   125868867.756    23521605.748    23521606.406    97898026.445  
  20423958.139   107328731.994    20423957.660    20423960.030    83632835.518  
  22152003.828   116409621.351    22152003.719    22152009.451    90708839.983  
  24808007.096   130366938.075    24808007.028    24808012.054   101584632.362  
  23526814.502   125543611.412    23526814.955                                  
  21825749.699   114695140.826    21825749.707    21825754.958    89372872.092  
  19455541.313   103964613.879    19455542.050    19455541.629    80861432.962  
  23642702.243   124243256.980    23642700.820    23642703.730    96812919.556  
 21  8 30  0 10  0.0000000  0 19R14R20R 4G22R16G 3G32G26G 1R 5G12R21
                                G31G25G23R 6G10R15G21
  21276023.327   113413295.522    21276023.550    21276023.487    88210366.841  
  23779177.554   127157933.003    23779179.030    23779182.240    98900655.881  
  20965749.808   112270702.841    20965749.972    20965748.303    87321682.136  
  23447599.786   123218000.835    23447599.898    23447601.011    96014027.457  
  22386411.563   119584226.929    22386412.617    22386412.201    93010024.733  
  25051339.678   131645678.527    25051339.199    25051346.221   102581063.287  
  21002427.273   110368582.292    21002427.410    21002432.264    86001558.376  
  24240008.074   127382153.998    24240008.005    24240015.223    99258844.016  
  23147158.443   121639153.718    23147157.272    23147164.738    94783766.150  
  19949652.414   106642405.242    19949652.892    19949651.519    82944132.665  
  23936952.323   125789606.109    23936951.959    23936955.405    98017903.648  
  23523696.356   125880062.077    23523697.347    23523697.646    97906733.109  
  20413899.355   107275873.167    20413898.944    20413901.368    83591646.828  
  22150123.347   116399738.190    22150122.669    22150128.853    90701138.815  
  24825727.870   130460059.555    24825726.567    24825732.776   101657194.481  
  23505418.381   125429448.385    23505419.866                                  
  21838027.806   114759661.034    21838027.266    21838033.051    89423147.554  
  19447247.186   103920291.370    19447247.580    19447247.130    80826959.910  
  23642843.468   124244001.191    23642842.665    23642844.871    96813499.447  
 21  8 30  0 10 30.0000000  0 19R14R20R 4G22R16G 3G32G26G 1R 5G12R21
                                G31G25G23R 6G10R15G21
  21290013.112   113487869.407    21290013.349    21290013.548    88268368.736  
  23795221.549   127243717.157    23795221.406    23795222.811    98967376.809  
  20972280.929   112305678.268    20972281.624    20972279.720    87348885.229  
  23428275.943   123116452.779    23428275.603    23428277.477    95934899.134  
  22359512.742   119440540.896    22359513.312    22359513.524    92898269.030  
  25028385.704   131525054.029    25028386.471    25028391.282   102487070.238  
  21003487.001   110374151.295    21003487.143    21003492.059    86005897.859  
  24216281.483   127257469.448    24216281.090    24216289.843    99161687.323  
  23142253.342   121613377.937    23142252.998    23142259.623    94763681.116  
  19939730.441   106589366.117    19939730.829    19939729.611    82902880.017  
  23943866.849   125825943.303    23943866.916    23943871.072    98046218.313  
  23525915.292   125891932.340    23525916.351    23525915.754    97915965.520  
  20403937.640   107223525.525    20403937.471    20403939.782    83550856.472  
  22148361.191   116390477.824    22148360.462    22148366.891    90693922.947  
  24843469.703   130553293.684    24843469.400    24843474.562   101729844.348  
  23484011.045   125315206.177    23484011.840                                  
  21850378.890   114824567.612    21850378.930    21850384.379    89473724.087  
  19439100.658   103876758.672    19439101.135    19439100.613    80793101.162  
  23643064.425   124245159.886    23643062.566    23643065.923    96814402.315  
 21  8 30  0 11  0.0000000  0 19R14R20R 4G22R16G 3G32G26G 1R 5G12R21
                                G31G25G23R 6G10R15G21
  21304101.646   113562968.456    21304101.726    21304101.863    88326779.101  
  23811295.379   127329673.553    23811295.095    23811299.210    99034231.624  
  20978879.802   112341014.660    20978880.370    20978878.788    87376369.070  
  23408994.298   123015125.419    23408994.190    23408995.474    95855942.783  
  22332662.614   119297116.369    22332663.326    22332664.435    92786716.719  
  25005440.160   131404478.080    25005438.871    25005446.407   102393114.962  
  21004585.088   110379921.274    21004585.181    21004590.201    86010393.937  
  24192553.697   127132779.950    24192553.738    24192562.366    99064526.748  
  23137461.507   121588195.249    23137461.126    23137466.266    94744058.259  
  19929864.262   106536627.314    19929864.832    19929863.429    82861860.955  
  23950884.749   125862821.501    23950884.729    23950887.811    98074954.554  
  23528260.476   125904482.792    23528261.522    23528260.086    97925726.958  
  20394075.279   107171695.706    20394074.796    20394077.026    83510469.606  
  22146718.313   116381846.515    22146718.109    22146724.945    90687197.252  
  24861234.031   130646644.798    24861233.757    24861240.794   101802585.336  
  23462589.079   125200893.553    23462589.270                                  
  21862804.614   114889865.144    21862804.385    21862810.033    89524605.266  
  19431103.212   103834022.821    19431103.836    19431103.126    80759862.177  
  23643364.948   124246738.387    23643362.828    23643366.514    96815632.308  
 21  8 30  0 11 30.0000000  0 19R14R20R 4G22R16G 3G32G26G 1R 5G12R21
                                G31G25G23R 6G10R15G21
  21318286.295   113638581.274    21318286.570    21318286.695    88385589.050  
  23827397.587   127415790.834    23827399.051    23827402.342    99101211.738  
  20985544.780   112376705.065    20985545.250    20985543.362    87404128.254  
  23389753.406   122914014.129    23389753.284    23389755.056    95777154.782  
  22305860.839   119153949.492    22305862.299    22305862.812    92675364.863  
  24982503.388   131283945.364    24982502.727    24982511.086   102299193.418  
  21005719.955   110385885.196    21005720.168    21005724.795    86015041.145  
  24168824.009   127008080.932    24168823.655    24168831.639    98967358.740  
  23132780.247   121563598.220    23132780.521    23132786.112    94724891.765  
  19920053.585   106484183.498    19920054.063    19920052.744    82821071.326  
  23958003.180   125900231.290    23958003.265    23958005.979    98104105.039  
  23530732.470   125917703.846    23530733.426    23530730.393    97936009.980  
  20384309.109   107120376.022    20384308.815    20384311.199    83470480.247  
  22145194.418   116373837.220    22145193.299    22145200.759    90680956.254  
  24879018.792   130740104.052    24879017.944    24879024.976   101875410.726  
  23441151.147   125086505.365    23441153.600                                  
  21875302.935   114955544.950    21875302.821    21875308.593    89575784.327  
  19423253.717   103792076.987    19423254.354    19423253.529    80727237.649  
  23643743.207   124248728.080    23643741.653    23643744.339    96817182.725  
 21  8 30  0 12  0.0000000  0 19R14R20R 4G22R16G 3G32G26G 1R 5G12R21
                                G31G25G23R 6G10R15G21
  21332567.837   113714711.370    21332568.315    21332568.212    88444801.333  
  23843534.482   127502070.870    23843533.857    23843536.513    99168318.352  
  20992277.014   112412757.170    20992277.808    20992276.130    87432168.758  
  23370555.371   122813128.300    23370554.650    23370556.400    95698542.484  
  22279110.378   119011051.171    22279111.291    22279111.671    92564221.815  
  24959577.498   131163465.354    24959576.924    24959584.057   102205312.924  
  21006893.177   110392050.323    21006893.081    21006898.036    86019845.129  
  24145094.772   126883382.348    24145095.038    24145101.661    98870191.046  
  23128212.292   121539593.884    23128211.587    23128218.444    94706187.098  
  19910299.801   106432044.155    19910300.384    19910299.070    82780518.502  
  23965224.843   125938179.009    23965224.366    23965228.350    98133674.670  
  23533328.574   125931600.457    23533329.483    23533328.031    97946818.504  
  20374641.999   107069573.918    20374641.637    20374643.886    83430894.199  
  22143790.245   116366457.279    22143789.761    22143796.176    90675205.645  
  24896824.588   130833676.483    24896824.191    24896830.329   101948324.301  
  23419704.293   124972049.488    23419703.811                                  
  21887874.799   115021612.644    21887874.985    21887880.736    89627265.620  
  19415553.606   103750929.537    19415554.118    19415553.369    80695234.087  
  23644201.042   124251134.987    23644199.112    23644202.096    96819058.240  
 21  8 30  0 12 30.0000000  0 19R14R20R 4G22R16G 3G32G26G 1R 5G12R21
                                G31G25G23R 6G10R15G21
  21346944.989   113791349.346    21346945.457    21346945.520    88504408.633  
  23859698.505   127588504.236    23859698.751    23859701.764    99235544.160  
  20999076.967   112449166.383    20999077.124    20999075.248    87460487.014  
  23351399.758   122712464.671    23351399.259    23351400.873    95620103.328  
  22252410.912   118868419.953    22252411.276    22252411.405    92453286.487  
  24936659.858   131043034.719    24936659.663    24936666.962   102111470.919  
  21008103.866   110398411.669    21008103.783    21008108.666    86024802.018  
  24121365.040   126758681.728    24121364.322    24121372.202    98773021.769  
  23123756.642   121516176.833    23123756.104    23123762.425    94687940.064  
  19900602.576   106380206.049    19900603.133    19900601.654    82740199.978  
  23972547.065   125976657.434    23972546.576    23972550.362    98163657.856  
  23536049.924   125946164.934    23536050.589    23536050.377    97958146.412  
  20365072.226   107019284.592    20365071.763    20365073.820    83391707.720  
  22142504.410   116359701.619    22142503.927    22142509.713    90669941.492  
  24914651.379   130927355.159    24914650.008    24914656.500   102021320.696  
  23398240.275   124857520.525    23398241.694                                  
  21900520.249   115088061.386    21900520.008    21900525.948    89679043.834  
  19408001.771   103710575.410    19408002.398    19408001.613    80663847.555  
  23644737.448   124253952.416    23644735.268    23644738.970    96821253.619  
 21  8 30  0 13  0.0000000  0 19R14R20R 4G22R16G 3G32G26G 1R 5G12R21
                                G31G25G23R 6G10R15G21
  21361417.784   113868496.197    21361417.895    21361418.091    88564411.696  
  23875889.494   127675090.966    23875890.927    23875892.406    99302889.374  
  21005943.636   112485937.612    21005943.881    21005942.273    87489086.836  
  23332287.676   122612029.857    23332286.913    23332288.974    95541842.469  
  22225761.930   118726064.093    22225762.241    22225762.122    92342565.300  
  24913753.039   130922660.388    24913753.705    24913759.654   102017672.759  
  21009352.644   110404974.114    21009352.695    21009357.481    86029915.605  
  24097636.346   126633986.505    24097635.921    24097644.813    98675856.692  
  23119413.046   121493351.430    23119412.763    23119418.742    94670154.036  
  19890962.768   106328676.159    19890963.330    19890961.830    82700121.175  
  23979970.529   126015669.142    23979969.847    23979973.769    98194056.549  
  23538896.674   125961399.962    23538897.250    23538897.439    97969995.859  
  20355600.777   106969512.446    20355600.493    20355602.682    83352924.238  
  22141338.550   116353574.966    22141338.228    22141344.701    90665167.486  
  24932497.696   131021142.633    24932497.608    24932503.972   102094401.813  
  23376765.841   124742926.962    23376766.425                                  
  21913238.353   115154894.344    21913237.911    21913243.813    89731121.443  
  19400599.560   103671020.273    19400600.156    19400599.167    80633082.457  
  23645352.525   124257183.736    23645351.068    23645354.045    96823771.519  
 21  8 30  0 13 30.0000000  0 19R14R20R 4G22R16G 3G32G26G 1R 5G12R21
                                G31G25G23R 6G10R15G21
  21375985.091   113946148.610    21375985.501    21375985.536    88624808.016  
  23892108.665   127761827.081    23892109.774    23892113.825    99370350.725  
  21012878.072   112523072.125    21012878.442    21012876.790    87517969.217  
  23313219.506   122511827.098    23313218.977    23313220.894    95463762.422  
  22199164.922   118583988.008    22199165.287    22199164.543    92232061.720  
  24890858.021   130802345.121    24890858.108    24890863.724   101923920.732  
  21010639.778   110411738.561    21010639.939    21010644.525    86035186.601  
  24073908.830   126509300.216    24073908.578    24073916.636    98578698.601  
  23115182.228   121471118.236    23115181.937    23115188.245    94652829.477  
  19881381.195   106277457.419    19881381.746    19881380.480    82660284.373  
  23987496.018   126055213.781    23987495.530    23987498.626    98224870.538  
  23541866.756   125977303.872    23541867.951    23541870.204    97982365.564  
  20346228.064   106920258.236    20346227.819    20346229.892    83314544.346  
  22140292.542   116348078.138    22140292.179    22140298.502    90660884.241  
  24950365.783   131115037.991    24950365.227    24950370.972   102167566.979  
  23355280.544   124628269.726    23355279.168                                  
  21926029.099   115222110.719    21926028.921    21926034.659    89783497.812  
  19393346.903   103632265.140    19393347.572    19393346.770    80602939.587  
  23646046.197   124260828.560    23646044.000    23646047.074    96826611.659  
 21  8 30  0 14  0.0000000  0 19R14R20R 4G22R16G 3G32G26G 1R 5G12R21
                                G31G25G23R 6G10R15G21
  21390646.459   114024301.022    21390646.519    21390646.875    88685593.192  
  23908356.201   127848706.427    23908356.806    23908361.046    99437923.514  
  21019880.315   112560568.952    21019880.554    21019878.948    87547133.398  
  23294195.924   122411857.166    23294195.593    23294197.204    95385863.796  
  22172620.749   118442193.679    22172620.862    22172620.449    92121777.270  
  24867973.946   130682089.503    24867972.948    24867980.606   101830215.059  
  21011965.188   110418703.520    21011965.411    21011970.013    86040613.843  
  24050183.202   126384623.937    24050181.421    24050191.855    98481548.378  
  23111063.073   121449475.180    23111062.889    23111068.371    94635964.775  
  19871858.285   106226550.257    19871858.509    19871857.240    82620689.915  
  23995122.030   126095287.587    23995121.751    23995124.366    98256096.885  
  23544965.501   125993872.801    23544965.717    23544966.442    97995252.371  
  20336953.571   106871520.714    20336953.184    20336955.522    83276567.070  
  22139366.120   116343209.456    22139365.638    22139372.127    90657090.467  
  24968252.874   131209037.487    24968252.201    24968258.410   102240813.244  
  23333780.445   124513547.904    23333779.780                                  
  21938892.199   115289707.204    21938892.006    21938897.734    89836170.382  
  19386244.097   103594309.067    19386244.694    19386243.902    80573418.208  
  23646818.093   124264883.886    23646815.511    23646819.600    96829771.630  
 21  8 30  0 14 30.0000000  0 19R14R20R 4G22R16G 3G32G26G 1R 5G12R21
                                G31G25G23R 6G10R15G21
  21405400.288   114102948.610    21405400.766    21405400.797    88746763.529  
  23924629.877   127935723.362    23924630.777    23924631.419    99505603.253  
  21026949.830   112598427.542    21026950.318    21026948.821    87576578.953  
  23275216.990   122312121.380    23275216.761    23275218.166    95308147.611  
  22146129.835   118300684.072    22146129.300    22146129.676    92011714.304  
  24845100.326   130561894.599    24845100.205    24845109.611   101736556.810  
  21013328.574   110425868.342    21013328.779    21013333.438    86046196.823  
  24026460.603   126259959.614    24026459.696    24026468.099    98384407.434  
  23107057.152   121428421.168    23107056.565    23107062.663    94619559.063  
  19862393.511   106175956.079    19862393.751    19862392.580    82581338.886  
  24002847.370   126135887.623    24002847.067    24002850.719    98287733.273  
  23548185.591   126011102.882    23548186.662    23548185.755    98008653.513  
  20327777.120   106823298.239    20327776.788    20327779.088    83238991.129  
  22138559.077   116338968.092    22138558.255    22138564.982    90653785.504  
  24986159.900   131303138.383    24986160.207    24986164.844   102314138.550  
  23312269.771   124398762.656    23312270.034                                  
  21951827.214   115357681.368    21951827.073    21951832.754    89889137.245  
  19379290.377   103557151.331    19379291.274    19379290.156    80544517.759  
  23647666.745   124269347.734    23647665.094    23647668.328    96833249.956  
 21  8 30  0 15  0.0000000  0 19R14R20R 4G22R16G 3G32G26G 1R 5G12R21
                                G31G25G23R 6G10R15G21
  21420247.214   114182089.724    21420247.406    21420247.875    88808317.684  
  23940927.529   128022879.112    23940928.571    23940932.333    99573391.068  
  21034087.937   112636650.607    21034088.235    21034086.836    87606307.978  
  23256283.310   122212624.242    23256282.985    23256284.258    95230617.383  
  22119691.571   118159464.649    22119692.652    22119692.734    91901877.050  
  24822242.231   130441765.225    24822242.133    24822247.247   101642949.492  
  21014730.630   110433235.535    21014730.834    21014735.412    86051937.490  
  24002740.901   126135312.334    24002740.998    24002748.687    98287279.802  
  23103162.588   121407958.097    23103163.413    23103169.358    94603613.851  
  19852988.156   106125679.254    19852988.496    19852987.316    82542234.682  
  24010673.527   126177015.230    24010673.154    24010677.433    98319780.699  
  23551529.223   126028994.460    23551530.038    23551528.446    98022569.235  
  20318699.137   106775593.525    20318698.910    20318701.005    83201818.638  
  22137872.133   116335356.350    22137871.514    22137877.699    90650971.165  
  25004087.036   131397341.248    25004086.887    25004091.837   102387543.495  
  23290746.331   124283913.882    23290747.189                                  
  21964833.945   115426033.920    21964834.114    21964839.898    89942398.946  
  19372487.190   103520795.075    19372487.557    19372486.514    80516240.679  
  23648594.356   124274220.713    23648592.130    23648596.028    96837047.076  
 21  8 30  0 15 30.0000000  0 19R14R20R 4G22R16G 3G32G26G 1R 5G12R21
                                G31G25G23R 6G10R15G21
  21435184.926   114261715.762    21435184.955    21435185.276    88870249.033  
  23957248.501   128110158.100    23957248.953    23957252.249    99641274.206  
  21041292.846   112675234.013    21041293.285    21041292.016    87636317.274  
  23237394.408   122113363.330    23237393.933    23237396.020    95153271.244  
  22093309.425   118018534.915    22093310.191    22093310.290    91792265.094  
  24799393.261   130321698.572    24799393.765    24799400.025   101549391.154  
  21016170.082   110440800.751    21016170.224    21016175.024    86057832.465  
  23979024.551   126010680.467    23979023.889    23979032.835    98190164.123  
  23099380.573   121388081.192    23099379.893    23099386.330    94588125.344  
  19843641.673   106075717.443    19843642.154    19843641.049    82503375.485  
  24018599.620   126218663.505    24018599.482    24018602.003    98352233.904  
  23554994.971   126047540.247    23554995.653    23554994.443    98036993.732  
  20309718.790   106728401.693    20309718.770    20309720.743    83165045.788  
  22137303.297   116332369.622    22137302.849    22137309.469    90648643.843  
  25022031.427   131491639.628    25022030.529    25022036.440   102461022.761  
  23269213.708   124169004.039    23269214.611                                  
  21977912.188   115494758.723    21977911.752    21977917.913    89995950.710  
  19365832.850   103485236.033    19365833.383    19365832.263    80488583.646  
  23649598.669   124279496.982    23649596.711    23649600.729    96841158.456  
 21  8 30  0 16  0.0000000  0 19R14R20R 4G22R16G 3G32G26G 1R 5G12R21
                                G31G25G23R 6G10R15G21
  21450213.755   114341826.514    21450213.724    21450213.808    88932557.375  
  23973591.106   128197562.362    23973594.236    23973597.810    99709255.159  
  21048565.810   112714181.779    21048566.307    21048565.193    87666609.963  
  23218552.259   122014345.148    23218551.497    23218553.245    95076114.237  
  22066982.965   117877902.019    22066983.558    22066983.305    91682884.022  
  24776559.478   130201700.833    24776559.081    24776565.077   101455886.448  
  21017648.339   110448567.935    21017648.458    21017653.093    86063884.817  
  23955312.173   125886070.432    23955312.091    23955320.956    98093065.469  
  23095710.302   121368793.621    23095709.782    23095716.309    94573096.082  
  19834355.426   106026076.750    19834355.826    19834354.593    82464766.056  
  24026623.735   126260834.686    24026623.899    24026627.012    98385094.577  
  23558581.012   126066741.536    23558582.062    23558582.995    98051928.093  
  20300837.153   106681726.969    20300836.781    20300838.952    83128675.883  
  22136854.994   116330011.501    22136853.962    22136860.291    90646806.354  
  25039993.899   131586035.270    25039993.771    25039999.736   102534577.821  
  23247668.349   124054036.079    23247668.497                                  
  21991061.346   115563857.851    21991060.862    21991066.928    90049794.146  
  19359328.378   103450478.090    19359328.916    19359327.630    80461549.701  
  23650679.696   124285178.999    23650677.780    23650681.594    96845585.990  
 21  8 30  0 16 30.0000000  0 19R14R20R 4G22R16G 3G32G26G 1R 5G12R21
                                G31G25G23R 6G10R15G21
  21465331.802   114422416.234    21465332.015    21465332.417    88995238.240  
  23989963.579   128285086.313    23989963.454    23989965.645    99777329.193  
  21055907.065   112753492.644    21055907.397    21055906.076    87697185.046  
  23199755.644   121915569.769    23199755.083    23199756.875    94999146.425  
  22040712.165   117737567.682    22040712.941    22040713.016    91573735.132  
  24753737.158   130081772.099    24753736.922    24753744.855   101362435.547  
  21019164.311   110456535.452    21019164.536    21019169.221    86070093.274  
  23931604.183   125761483.265    23931603.545    23931612.306    97995984.636  
  23092151.822   121350093.257    23092150.831    23092157.030    94558524.367  
  19825129.046   105976757.406    19825129.511    19825128.575    82426406.562  
  24034747.816   126303524.721    24034746.873    24034751.793    98418359.494  
  23562290.700   126086594.150    23562291.958    23562293.668    98067368.970  
  20292053.058   106635567.084    20292052.605    20292054.995    83092707.153  
  22136525.332   116328280.140    22136524.579    22136531.023    90645457.245  
  25057974.908   131680524.554    25057974.397    25057980.475   102608205.836  
  23226111.772   123939008.937    23226112.831                                  
  22004281.071   115633327.818    22004280.936    22004286.645    90103926.553  
  19352973.603   103416519.689    19352974.072    19352972.841    80435137.614  
  23651837.425   124291263.777    23651834.850    23651838.612    96850327.335  
 21  8 30  0 17  0.0000000  0 19R14R20R 4G22R16G 3G32G26G 1R 5G12R21
                                G31G25G23R 6G10R15G21
  21480539.749   114503481.919    21480540.164    21480540.081    89058289.300  
  24006350.273   128372725.539    24006351.971    24006354.339    99845492.942  
  21063316.365   112793167.922    21063316.471    21063315.208    87728043.561  
  23181005.929   121817040.689    23181005.575    23181007.046    94922370.530  
  22014498.481   117597537.130    22014499.075    22014498.898    91464822.530  
  24730929.352   129961915.933    24730928.902    24730935.845   101269041.124  
  21020718.784   110464704.605    21020719.025    21020723.750    86076458.852  
  23907901.048   125636922.764    23907899.946    23907909.060    97898924.583  
  23088704.641   121331980.648    23088704.417    23088711.428    94544410.646  
  19815963.548   105927762.624    19815964.087    19815962.902    82388299.507  
  24042970.317   126346732.906    24042970.261    24042973.871    98452028.162  
  23566124.133   126107096.474    23566125.561    23566125.936    98083315.108  
  20283367.108   106589922.930    20283366.905    20283369.137    83057140.289  
  22136315.435   116327176.424    22136314.825    22136321.067    90644597.207  
  25075973.236   131775106.535    25075973.107    25075978.048   102681906.072  
  23204546.030   123823925.397    23204546.553                                  
  22017571.708   115703168.040    22017571.523    22017576.580    90158347.483  
  19346768.654   103383362.247    19346769.169    19346767.713    80409348.496  
  23653071.744   124297750.749    23653069.609    23653073.561    96855382.136  
 21  8 30  0 17 30.0000000  0 18R14R20R 4G22R16G 3G32G26G 1R 5G12R21
                                G31G25G23G10R15G21
  21495835.519   114585017.243    21495835.713    21495835.762    89121705.648  
  24022761.921   128460471.025    24022760.740    24022764.265    99913739.102  
  21070792.943   112833205.767    21070793.292    21070791.872    87759184.089  
  23162303.436   121718757.687    23162303.213    23162304.698    94845786.404  
  21988341.484   117457811.303    21988342.434    21988341.636    91356146.934  
  24708135.374   129842131.771    24708134.960    24708140.476   101175702.869  
  21022311.220   110473073.257    21022311.552    21022316.212    86082979.886  
  23884203.032   125512389.513    23884201.948    23884209.450    97801885.748  
  23085369.543   121314452.997    23085369.167    23085375.640    94530752.759  
  19806858.884   105879092.483    19806859.250    19806858.253    82350444.952  
  24051289.994   126390455.148    24051290.307    24051292.390    98486097.455  
  23570077.020   126128243.276    23570077.957    23570076.517    98099762.600  
  20274779.163   106544792.166    20274778.800    20274780.925    83021973.471  
  22136224.272   116326697.840    22136223.784    22136229.627    90644224.286  
  25093988.537   131869776.964    25093988.618    25093994.352   102755675.204  
  22030931.467   115773374.534    22030931.430    22030936.398    90213053.813  
  19340713.104   103351003.544    19340713.660    19340712.355    80384180.622  
  23654382.718   124304636.302    23654380.407    23654383.564    96860747.459  
 21  8 30  0 18  0.0000000  0 17R14R 4G22R16G 3G32G26G 1R 5G12R21G31
                                G25G23G10R15G21
  21511219.935   114667022.939    21511220.074    21511219.982    89185487.829  
  21078338.610   112873611.202    21078338.711    21078337.556    87790610.506  
  23143649.089   121620727.605    23143648.800    23143649.654    94769399.335  
  21962242.960   117318398.629    21962243.883    21962243.064    91247714.890  
  24685355.428   129722426.890    24685354.369    24685362.924   101082426.312  
  21023942.508   110481646.304    21023942.674    21023947.770    86089660.194  
  23860511.389   125387890.891    23860510.827    23860519.910    97704873.934  
  23082146.363   121297514.535    23082146.369    23082152.968    94517553.945  
  19797816.086   105830753.451    19797816.635    19797815.241    82312847.928  
  24059708.615   126434694.726    24059707.689    24059711.617    98520569.850  
